[{"StationId":2989,"StationOrder":0,"StationDirection":0,"RouteId":67,"StationName":"Mễ Cốc","pathPoints":"","Address":"ĐẦU BẾN BẾN MỄ CỐC, đường Lưu Hữu Phước, Quận 8","Lat":10.712879,"Lng":106.626114},{"StationId":2991,"StationOrder":1,"StationDirection":0,"RouteId":67,"StationName":"Cầu Rạch Cát","pathPoints":"106.62615204,10.71300983 106.62635040,10.71298981 106.62650299,10.71304989 106.62764740,10.71380043 106.62821960,10.71426010 106.62879944,10.71479988 106.62960815,10.71562958 106.62988281,10.71594048 106.63020325,10.71632957","Address":"Đối diện 320, đường Lưu Hữu Phước, Quận 8","Lat":10.716231,"Lng":106.630341},{"StationId":2992,"StationOrder":2,"StationDirection":0,"RouteId":67,"StationName":"KTX trường Công nghệ thực phẩm","pathPoints":"106.63020325,10.71632957 106.63088226,10.71724987 106.63120270,10.71780968 106.63146210,10.71831989 106.63185120,10.71914005","Address":"Đ/d Trường TH CNTP, đường Lưu Hữu Phước, Quận 8","Lat":10.719056,"Lng":106.632019},{"StationId":2993,"StationOrder":3,"StationDirection":0,"RouteId":67,"StationName":"Cầu Số 3","pathPoints":"106.63192749,10.71910286 106.63261414,10.72038460 106.63311768,10.72134876 106.63350677,10.72243977 106.63372803,10.72290421 106.63383484,10.72310925 106.63373566,10.72327805 106.63246918,10.72385788 106.63182831,10.72416878 106.63162994,10.72425842 106.63146210,10.72442245 106.63117981,10.72452259","Address":"Đối diện 19, đường Bình Đức, Quận 8","Lat":10.724591,"Lng":106.63123},{"StationId":2998,"StationOrder":4,"StationDirection":0,"RouteId":67,"StationName":"cầu Kinh Ngang Số 2","pathPoints":"106.63123322,10.72459126 106.63123322,10.72459126 106.63123322,10.72459126 106.63083649,10.72466946 106.62933350,10.72169209 106.63090515,10.72510147 106.63241577,10.72800064 106.63336182,10.73001957 106.63417816,10.73147964 106.63488007,10.73290730 106.63523865,10.73381996 106.63585663,10.73418331 106.63859558,10.73591709 106.64188385,10.73798370 106.64413452,10.73935318 106.64498138,10.73989677 106.64505768,10.73983288 106.64505768,10.73983288 106.64505768,10.73983288","Address":"Cạnh cây xanh 155, đường Bến Bình Đông, Quận 8","Lat":10.739833,"Lng":106.64506},{"StationId":2999,"StationOrder":5,"StationDirection":0,"RouteId":67,"StationName":"Kho 289","pathPoints":"106.64501190,10.73995972 106.64659119,10.74088955 106.64739227,10.74133968","Address":"289, đường Bến Bình Đông, Quận 8","Lat":10.74129,"Lng":106.647415},{"StationId":3000,"StationOrder":6,"StationDirection":0,"RouteId":67,"StationName":"Cầu số 1","pathPoints":"106.64741516,10.74129009 106.64739227,10.74133968 106.64978790,10.74277973 106.65038300,10.74310970 106.65040588,10.74305630","Address":"Cạnh cây xanh 107, đường Bến Bình Đông, Quận 8","Lat":10.743056,"Lng":106.650406},{"StationId":3002,"StationOrder":7,"StationDirection":0,"RouteId":67,"StationName":"Coop Mart Tuy Lý Vương","pathPoints":"106.65040588,10.74305630 106.65040588,10.74305630 106.65150452,10.74379158 106.65262604,10.74451351 106.65345764,10.74313736 106.65460205,10.74370670 106.65500641,10.74387455 106.65517426,10.74391842","Address":"99-101, đường Tuy Lúy Vương, Quận 8","Lat":10.743918,"Lng":106.655177},{"StationId":542,"StationOrder":8,"StationDirection":0,"RouteId":67,"StationName":"Tùng Thiện Vương","pathPoints":"106.65517426,10.74391842 106.65516663,10.74393845 106.65560150,10.74418640 106.65596008,10.74437046 106.65607452,10.74418640 106.65652466,10.74438667 106.65679932,10.74451256","Address":"487, đường Tùng Thiện Vương, Quận 8","Lat":10.744513,"Lng":106.656802},{"StationId":501,"StationOrder":9,"StationDirection":0,"RouteId":67,"StationName":"Chợ Xóm Củi","pathPoints":"106.65679932,10.74451256 106.65747070,10.74495125 106.65880585,10.74568367 106.65943146,10.74597359 106.65975952,10.74607277","Address":"337, đường Tùng Thiện Vương, Quận 8","Lat":10.746073,"Lng":106.659763},{"StationId":3001,"StationOrder":10,"StationDirection":0,"RouteId":67,"StationName":"Dã Tượng","pathPoints":"106.65975952,10.74607277 106.65969849,10.74615288 106.66024780,10.74643993 106.66036224,10.74650955 106.66045380,10.74662971 106.66063690,10.74654007 106.66074371,10.74631023 106.66094971,10.74594975 106.66114044,10.74577045 106.66137695,10.74565029 106.66211700,10.74536991 106.66243744,10.74512482 106.66299438,10.74514580 106.66403198,10.74534035 106.66522980,10.74550438 106.66527557,10.74542046","Address":"797, đường Hưng Phú, Quận 8","Lat":10.74542,"Lng":106.665273},{"StationId":3004,"StationOrder":11,"StationDirection":0,"RouteId":67,"StationName":"Lưu Quý Kỳ","pathPoints":"106.66527557,10.74542046 106.66538239,10.74550915 106.66638947,10.74575043 106.66710663,10.74586964 106.66780853,10.74600983 106.66781616,10.74589443","Address":"723-725, đường Hưng Phú, Quận 8","Lat":10.745894,"Lng":106.667815},{"StationId":3003,"StationOrder":12,"StationDirection":0,"RouteId":67,"StationName":"Phạm Hùng","pathPoints":"106.66780853,10.74600983 106.66947937,10.74635029","Address":"627/1N, đường Hưng Phú, Quận 8","Lat":10.746179,"Lng":106.669393},{"StationId":3005,"StationOrder":13,"StationDirection":0,"RouteId":67,"StationName":"Trường TH Hưng Phú A","pathPoints":"106.66939545,10.74617863 106.66939545,10.74617863 106.66939545,10.74632072 106.67160034,10.74675846 106.67163849,10.74668503 106.67163849,10.74668503","Address":"545, đường Hưng Phú, Quận 8","Lat":10.746685,"Lng":106.671635},{"StationId":3006,"StationOrder":14,"StationDirection":0,"RouteId":67,"StationName":"Trường Lý Thánh Tông","pathPoints":"106.67163849,10.74668503 106.67163849,10.74668503 106.67163849,10.74675846 106.67243195,10.74693203 106.67247009,10.74684334 106.67247009,10.74684334","Address":"435, đường Hưng Phú, Quận 8","Lat":10.746843,"Lng":106.672472},{"StationId":3008,"StationOrder":15,"StationDirection":0,"RouteId":67,"StationName":"Lê Quang Kim","pathPoints":"106.67247009,10.74684334 106.67241669,10.74693775 106.67353821,10.74714279 106.67416382,10.74726963 106.67458344,10.74742222 106.67507172,10.74778080 106.67523193,10.74793911 106.67530823,10.74790668","Address":"365, đường Hưng Phú, Quận 8","Lat":10.747907,"Lng":106.67531},{"StationId":3007,"StationOrder":16,"StationDirection":0,"RouteId":67,"StationName":"Viện Y tế Cộng đồng","pathPoints":"106.67530823,10.74790668 106.67530823,10.74790668 106.67556000,10.74816036 106.67579651,10.74835014 106.67681885,10.74905109 106.67751312,10.74947834 106.67819977,10.74981022 106.67826843,10.74967766 106.67826843,10.74967766","Address":"Đối diện 260, đường Hưng Phú, Quận 8","Lat":10.749678,"Lng":106.678265},{"StationId":3010,"StationOrder":17,"StationDirection":0,"RouteId":67,"StationName":"Công an Phường 8","pathPoints":"106.67826843,10.74967766 106.67822266,10.74982548 106.67862701,10.74996281 106.68047333,10.75050068 106.68239594,10.75075912 106.68244171,10.75071144","Address":"105, đường Hưng Phú, Quận 8","Lat":10.750711,"Lng":106.682439},{"StationId":1438,"StationOrder":18,"StationDirection":0,"RouteId":67,"StationName":"Công viên Phường 2","pathPoints":"106.68244171,10.75071144 106.68244171,10.75071144 106.68274689,10.75078487 106.68361664,10.75095367 106.68428040,10.74975204 106.68482208,10.74869823 106.68406677,10.74825001 106.68366241,10.74834442 106.68325043,10.74903011 106.68322754,10.74909592 106.68353271,10.74910355 106.68353271,10.74910355","Address":"231-233, đường Phạm Thế Hiển, Quận 8","Lat":10.749104,"Lng":106.683533},{"StationId":3009,"StationOrder":19,"StationDirection":0,"RouteId":67,"StationName":"Chung cư 109 Nguyễn Biểu","pathPoints":"106.68353271,10.74910355 106.68382263,10.74938965 106.68432617,10.74965763 106.68546295,10.75016308 106.68578339,10.74924564 106.68484497,10.74870872 106.68367004,10.75091171 106.68405914,10.75267220 106.68428040,10.75379944 106.68428040,10.75438976 106.68389130,10.75539970 106.68394470,10.75542355","Address":"64, đường Nguyễn Biểu, Quận 5","Lat":10.755424,"Lng":106.683945},{"StationId":3012,"StationOrder":20,"StationDirection":0,"RouteId":67,"StationName":"Trường THCS Ba Đình","pathPoints":"106.68394470,10.75542355 106.68366241,10.75599957 106.68316650,10.75737953 106.68292236,10.75806046 106.68292999,10.75819016","Address":"230, đường Nguyễn Biểu, Quận 5","Lat":10.75819,"Lng":106.682927},{"StationId":1052,"StationOrder":21,"StationDirection":0,"RouteId":67,"StationName":"Báo An Ninh Thế Giới","pathPoints":"106.68292999,10.75819016 106.68289948,10.75815773 106.68260956,10.75891972 106.68399048,10.75940037 106.68469238,10.75969982 106.68492889,10.75984001 106.68501282,10.75990963 106.68498230,10.75988960 106.68508911,10.75983047 106.68510437,10.75986862","Address":"371A, đường Nguyễn Trãi, Quận 1","Lat":10.759869,"Lng":106.685104},{"StationId":1053,"StationOrder":22,"StationDirection":0,"RouteId":67,"StationName":"Nhà Khách Bộ Công An","pathPoints":"106.68510437,10.75986862 106.68510437,10.75986862 106.68630981,10.76205254 106.68639374,10.76200581 106.68639374,10.76200581","Address":"333, đường Nguyễn Trãi, Quận 1","Lat":10.762006,"Lng":106.686394},{"StationId":1056,"StationOrder":23,"StationDirection":0,"RouteId":67,"StationName":"Chùa Lâm Tế","pathPoints":"106.68639374,10.76200581 106.68639374,10.76200581 106.68684387,10.76292706 106.68704987,10.76337051 106.68745422,10.76440811 106.68759155,10.76473999 106.68767548,10.76504040 106.68784332,10.76541519 106.68800354,10.76575375 106.68800354,10.76575375","Address":"217, đường Nguyễn Trãi, Quận 1","Lat":10.765754,"Lng":106.688004},{"StationId":7276,"StationOrder":24,"StationDirection":0,"RouteId":67,"StationName":"Tôn Thất Tùng","pathPoints":"106.68800354,10.76575375 106.68800354,10.76575375 106.68788910,10.76578903 106.68817902,10.76651096 106.68843842,10.76660061 106.68853760,10.76681137 106.69087982,10.76771259 106.69094086,10.76766968 106.69094086,10.76766968","Address":"277-279-275Y, đường Phạm Ngũ Lão, Quận 1","Lat":10.76767,"Lng":106.690941},{"StationId":7277,"StationOrder":25,"StationDirection":0,"RouteId":67,"StationName":"Nguyễn Thị Nghĩa","pathPoints":"106.69094086,10.76766968 106.69090271,10.76773357 106.69362640,10.76885128 106.69370270,10.76878834","Address":"187, đường Phạm Ngũ Lão, Quận 1","Lat":10.768788,"Lng":106.693699},{"StationId":1451,"StationOrder":26,"StationDirection":0,"RouteId":67,"StationName":"Trần Hưng Đạo","pathPoints":"106.69370270,10.76878834 106.69370270,10.76878834 106.69460297,10.76917267 106.69498444,10.76846123 106.69498444,10.76846123","Address":"197, đường Nguyễn Thái Học, Quận 1","Lat":10.768461,"Lng":106.694984},{"StationId":1344,"StationOrder":27,"StationDirection":0,"RouteId":67,"StationName":"Cầu Ông Lãnh","pathPoints":"106.69498444,10.76846123 106.69498444,10.76846123 106.69508362,10.76846123 106.69622803,10.76655865 106.69612885,10.76657581 106.69615936,10.76652241","Address":"65G, đường Nguyễn Thái Học, Quận 1","Lat":10.766785,"Lng":106.696011},{"StationId":1196,"StationOrder":28,"StationDirection":0,"RouteId":67,"StationName":"Hoàng Diệu","pathPoints":"106.69615936,10.76652241 106.69624329,10.76653194 106.69753265,10.76424503 106.69761658,10.76408195 106.69946289,10.76219463 106.69995117,10.76156235 106.70033264,10.76100349 106.69989014,10.76069832 106.69983673,10.76073456","Address":"K48-K50, đường Hoàng Diệu, Quận 4","Lat":10.760735,"Lng":106.699836},{"StationId":3011,"StationOrder":29,"StationDirection":0,"RouteId":67,"StationName":"Chùa Long Bửu","pathPoints":"106.69983673,10.76073456 106.69987488,10.76065063 106.69851685,10.75963974 106.69789124,10.76045990 106.69794464,10.76048660","Address":"Hông Chùa Long Bửu, đường Khánh Hội, Quận 4","Lat":10.760487,"Lng":106.697942},{"StationId":3014,"StationOrder":30,"StationDirection":0,"RouteId":67,"StationName":"Trung tâm văn hóa Quận 4","pathPoints":"106.69794464,10.76048660 106.69756317,10.76093960 106.69716644,10.76136971 106.69622803,10.76018047 106.69606018,10.76010895","Address":"Đối diện 226, đường Bến Vân Đồn, Quận 4","Lat":10.760109,"Lng":106.69606},{"StationId":3013,"StationOrder":31,"StationDirection":0,"RouteId":67,"StationName":"Nguyễn Khoái","pathPoints":"106.69606018,10.76010895 106.69611359,10.76006031 106.69570160,10.75973988 106.69518280,10.75940990 106.69412994,10.75876045 106.69358063,10.75842953 106.69355774,10.75846863","Address":"Đối diện 310, đường Bến Vân Đồn, Quận 4","Lat":10.758469,"Lng":106.693554},{"StationId":3016,"StationOrder":32,"StationDirection":0,"RouteId":67,"StationName":"Trạm xăng Nguyễn Khoái","pathPoints":"106.69355774,10.75846863 106.69358063,10.75842953 106.69281006,10.75794983 106.69322968,10.75716019 106.69316864,10.75712395","Address":"123, đường Nguyễn Khoái, Quận 4","Lat":10.757124,"Lng":106.693169},{"StationId":3015,"StationOrder":33,"StationDirection":0,"RouteId":67,"StationName":"Trung tâm Giáo dục thường xuyên Quận 4","pathPoints":"106.69316864,10.75712395 106.69316864,10.75712395 106.69356537,10.75653458 106.69393158,10.75582314 106.69423676,10.75516987 106.69423676,10.75516987","Address":"9, đường Nguyễn Khoái, Quận 4","Lat":10.75517,"Lng":106.694235},{"StationId":3017,"StationOrder":34,"StationDirection":0,"RouteId":67,"StationName":"Chợ Tôn Thất Thuyết","pathPoints":"106.69423676,10.75516987 106.69456482,10.75471687 106.69488525,10.75414753 106.69510651,10.75358391","Address":"13, đường Nguyễn Khoái, Quận 4","Lat":10.753584,"Lng":106.69511},{"StationId":3018,"StationOrder":35,"StationDirection":0,"RouteId":67,"StationName":"Bệnh viện Phước an","pathPoints":"106.69512177,10.75360966 106.69542694,10.75304031 106.69673157,10.75302982 106.69918823,10.75302029 106.70068359,10.75304985","Address":"Đối diện 197, đường Tôn Thất Thuyết, Quận 4","Lat":10.752988,"Lng":106.700678},{"StationId":2782,"StationOrder":36,"StationDirection":0,"RouteId":67,"StationName":"UBND Phường 4","pathPoints":"106.70067596,10.75298786 106.70348358,10.75310898","Address":"Đối diện 183N, đường Tôn Thất Thuyết, Quận 4","Lat":10.753109,"Lng":106.703483},{"StationId":2784,"StationOrder":37,"StationDirection":0,"RouteId":67,"StationName":"Tôn Đản","pathPoints":"106.70348358,10.75310898 106.70348358,10.75310898 106.70529938,10.75321960 106.70607758,10.75321960 106.70607758,10.75321960","Address":"Đối diện 168, đường Tôn Thất Thuyết, Quận 4","Lat":10.75322,"Lng":106.706074},{"StationId":2785,"StationOrder":38,"StationDirection":0,"RouteId":67,"StationName":"Trường Đại học Nguyễn Tất Thành","pathPoints":"106.70607758,10.75321960 106.70755768,10.75326729 106.70900726,10.75323582","Address":"Đối diện 125A, đường Tôn Thất Thuyết, Quận 4","Lat":10.753236,"Lng":106.709009},{"StationId":2786,"StationOrder":39,"StationDirection":0,"RouteId":67,"StationName":"Khu vui chơi thiếu nhi","pathPoints":"106.70900726,10.75323582 106.70900726,10.75323582 106.71124268,10.75324345 106.71343231,10.75329876 106.71348572,10.75325108 106.71348572,10.75325108","Address":"Đối diện 78, đường Tôn Thất Thuyết, Quận 4","Lat":10.753251,"Lng":106.713488},{"StationId":2787,"StationOrder":40,"StationDirection":0,"RouteId":67,"StationName":"Nguyễn Thần Hiến","pathPoints":"106.71348572,10.75325108 106.71357727,10.75331497 106.71518707,10.75334644 106.71525574,10.75331974","Address":"25Bis, đường Tôn Thất Thuyết, Quận 4","Lat":10.75332,"Lng":106.715258},{"StationId":2828,"StationOrder":41,"StationDirection":0,"RouteId":67,"StationName":"Nguyễn Thần Hiến","pathPoints":"106.71525574,10.75331974 106.71630859,10.75343609 106.71730804,10.75358391 106.71924591,10.75508595 106.71915436,10.75509644 106.71726227,10.75366783 106.71661377,10.75356770","Address":"23, đường Tôn Thất Thuyết, Quận 4","Lat":10.753568,"Lng":106.716616},{"StationId":2829,"StationOrder":42,"StationDirection":0,"RouteId":67,"StationName":"Khu vui chơi thiếu nhi","pathPoints":"106.71661377,10.75356770 106.71661377,10.75356770 106.71480560,10.75339413 106.71364594,10.75339890 106.71364594,10.75339890","Address":"78, đường Tôn Thất Thuyết, Quận 4","Lat":10.753399,"Lng":106.713644},{"StationId":2832,"StationOrder":43,"StationDirection":0,"RouteId":67,"StationName":"Nhà Thờ Xóm Chiếu","pathPoints":"106.71364594,10.75339890 106.71149445,10.75331497 106.70934296,10.75334644","Address":"101-102, đường Tôn Thất Thuyết, Quận 4","Lat":10.753346,"Lng":106.709341},{"StationId":2831,"StationOrder":44,"StationDirection":0,"RouteId":67,"StationName":"Tôn Đản","pathPoints":"106.70934296,10.75334644 106.70629120,10.75333595","Address":"163-165, đường Tôn Thất Thuyết, Quận 4","Lat":10.753336,"Lng":106.706294},{"StationId":2834,"StationOrder":45,"StationDirection":0,"RouteId":67,"StationName":"Công An Phường 4","pathPoints":"106.70629120,10.75333595 106.70359802,10.75323009","Address":"183B16, đường Tôn Thất Thuyết, Quận 4","Lat":10.75323,"Lng":106.703601},{"StationId":2783,"StationOrder":46,"StationDirection":0,"RouteId":67,"StationName":"Bến xe buýt Kho Muối","pathPoints":"106.70359802,10.75323009 106.70359802,10.75323009 106.70359802,10.75323009 106.70177460,10.75309372 106.70176697,10.75306702 106.70167542,10.75297737 106.70167542,10.75297737 106.70167542,10.75297737","Address":"BẾN XE BUÝT KHO MUỐI, đường Tôn Thất Thuyết, Quận 4","Lat":10.752977,"Lng":106.701675},{"StationId":2783,"StationOrder":0,"StationDirection":1,"RouteId":67,"StationName":"Bến xe buýt Kho Muối","pathPoints":"","Address":"BẾN XE BUÝT KHO MUỐI, đường Tôn Thất Thuyết, Quận 4","Lat":10.752977,"Lng":106.701675},{"StationId":3067,"StationOrder":1,"StationDirection":1,"RouteId":67,"StationName":"Bệnh viện Phước An","pathPoints":"106.70169067,10.75308323 106.70029449,10.75306702","Address":"196, đường Tôn Thất Thuyết, Quận 4","Lat":10.75312,"Lng":106.700297},{"StationId":3074,"StationOrder":2,"StationDirection":1,"RouteId":67,"StationName":"Trung tâm Giáo dục thường xuyên Quận 4","pathPoints":"106.70030212,10.75306702 106.69546509,10.75304604 106.69437408,10.75505352","Address":"66, đường Nguyễn Khoái, Quận 4","Lat":10.755054,"Lng":106.694428},{"StationId":3072,"StationOrder":3,"StationDirection":1,"RouteId":67,"StationName":"Trạm xăng Nguyễn Khoái","pathPoints":"106.69438171,10.75503826 106.69326019,10.75710392","Address":"144, đường Nguyễn Khoái, Quận 4","Lat":10.757113,"Lng":106.693321},{"StationId":3075,"StationOrder":4,"StationDirection":1,"RouteId":67,"StationName":"Nguyễn Khoái","pathPoints":"106.69325256,10.75709915 106.69284058,10.75785732 106.69343567,10.75824261","Address":"310, đường Bến Vân Đồn, Quận 4","Lat":10.758128,"Lng":106.693512},{"StationId":3073,"StationOrder":5,"StationDirection":1,"RouteId":67,"StationName":"Trung tâm văn hóa Quận 4","pathPoints":"106.69343567,10.75824261 106.69472504,10.75905418 106.69540405,10.75944901 106.69601440,10.75987053","Address":"236, đường Bến Vân Đồn, Quận 4","Lat":10.759825,"Lng":106.69606},{"StationId":1379,"StationOrder":6,"StationDirection":1,"RouteId":67,"StationName":"Cầu Ông Lãnh","pathPoints":"106.69601440,10.75986004 106.69660187,10.76055622 106.69720459,10.76130962 106.69856262,10.75960159 106.70047760,10.76099873 106.69966125,10.76218414 106.69844818,10.76339149 106.69770050,10.76417160 106.69654846,10.76622677","Address":"82 - 84, đường Nguyễn Thái Học, Quận 1","Lat":10.766253,"Lng":106.696612},{"StationId":3080,"StationOrder":7,"StationDirection":1,"RouteId":67,"StationName":"Trần Hưng Đạo","pathPoints":"106.69654846,10.76623726 106.69525909,10.76840782","Address":"Đối diện số 179, đường Nguyễn Thái Học, Quận 1","Lat":10.768434,"Lng":106.695335},{"StationId":84,"StationOrder":8,"StationDirection":1,"RouteId":67,"StationName":"Ngã sáu Phù Đổng","pathPoints":"106.69525909,10.76839256 106.69377136,10.77088547","Address":"Đối diện số 26, đường Nguyễn Thị Nghĩa, Quận 1","Lat":10.770901,"Lng":106.693833},{"StationId":85,"StationOrder":9,"StationDirection":1,"RouteId":67,"StationName":"Nguyễn Trãi","pathPoints":"106.69377899,10.77086449 106.69327545,10.77150726 106.69309998,10.77147579 106.69306946,10.77132225 106.69308472,10.77120113 106.69272614,10.77093792","Address":"22, đường Nguyễn Trãi, Quận 1","Lat":10.77097,"Lng":106.69268},{"StationId":87,"StationOrder":10,"StationDirection":1,"RouteId":67,"StationName":"Tôn Thất Tùng","pathPoints":"106.69271088,10.77093220 106.69081116,10.76961994","Address":"136, đường Nguyễn Trãi, Quận 1","Lat":10.769646,"Lng":106.690788},{"StationId":86,"StationOrder":11,"StationDirection":1,"RouteId":67,"StationName":"Nhà thờ Huyện Sỹ","pathPoints":"106.69081879,10.76961517 106.68966675,10.76874065 106.68911743,10.76822376 106.68865204,10.76766491","Address":"206Bis, đường Nguyễn Trãi, Quận 1","Lat":10.767692,"Lng":106.688591},{"StationId":1019,"StationOrder":12,"StationDirection":1,"RouteId":67,"StationName":"City plaza","pathPoints":"106.68864441,10.76767063 106.68833160,10.76694298 106.68813324,10.76677990 106.68818665,10.76657391 106.68743134,10.76455021","Address":"230, đường Nguyễn Trãi, Quận 1","Lat":10.764556,"Lng":106.687385},{"StationId":3076,"StationOrder":13,"StationDirection":1,"RouteId":67,"StationName":"Trường Đại học Sài Gòn","pathPoints":"106.68743896,10.76455593 106.68711090,10.76364422 106.68678284,10.76296425 106.68592834,10.76139927 106.68507385,10.75999737 106.68476105,10.75974464 106.68343353,10.75928020","Address":"4, đường Nguyễn Trãi, Quận 5","Lat":10.759333,"Lng":106.68341},{"StationId":3079,"StationOrder":14,"StationDirection":1,"RouteId":67,"StationName":"Trường THCS Ba Đình","pathPoints":"106.68344116,10.75928020 106.68257904,10.75895882 106.68283844,10.75829506","Address":"257, đường Nguyễn Biểu, Quận 5","Lat":10.758242,"Lng":106.682788},{"StationId":3078,"StationOrder":15,"StationDirection":1,"RouteId":67,"StationName":"Chung cư 109 Nguyễn Biểu","pathPoints":"106.68284607,10.75828457 106.68382263,10.75560760","Address":"109, đường Nguyễn Biểu, Quận 5","Lat":10.755565,"Lng":106.683769},{"StationId":3082,"StationOrder":16,"StationDirection":1,"RouteId":67,"StationName":"Công an Phường 8","pathPoints":"106.68376923,10.75556469 106.68380737,10.75559044 106.68418884,10.75463009 106.68427277,10.75436974 106.68430328,10.75401974 106.68428802,10.75384998 106.68424988,10.75372982 106.68359375,10.75096416 106.68170166,10.75070000 106.68123627,10.75063992 106.68106842,10.75066376","Address":"138, đường Hưng Phú, Quận 8","Lat":10.750664,"Lng":106.681066},{"StationId":3084,"StationOrder":17,"StationDirection":1,"RouteId":67,"StationName":"Viện Y tế Cộng đồng","pathPoints":"106.68106842,10.75066376 106.68106842,10.75066376 106.68038940,10.75049973 106.67993164,10.75037003 106.67841339,10.74995041 106.67841339,10.74995232 106.67841339,10.74998379 106.67841339,10.74998379","Address":"292-294, đường Hưng Phú, Quận 8","Lat":10.749984,"Lng":106.678416},{"StationId":3081,"StationOrder":18,"StationDirection":1,"RouteId":67,"StationName":"Lê Quang Kim","pathPoints":"106.67841339,10.74998379 106.67841339,10.74995232 106.67841339,10.74995041 106.67813110,10.74985981 106.67751312,10.74956036 106.67677307,10.74909973 106.67645264,10.74886036 106.67578888,10.74836063 106.67479706,10.74768829 106.67479706,10.74768829","Address":"348, đường Hưng Phú, Quận 8","Lat":10.747688,"Lng":106.674797},{"StationId":3083,"StationOrder":19,"StationDirection":1,"RouteId":67,"StationName":"Đình An Hòa","pathPoints":"106.67479706,10.74768829 106.67479706,10.74768829 106.67453766,10.74744987 106.67429352,10.74734306 106.67267609,10.74703789 106.67243958,10.74698734 106.67243958,10.74698734","Address":"452, đường Hưng Phú, Quận 8","Lat":10.746987,"Lng":106.67244},{"StationId":3085,"StationOrder":20,"StationDirection":1,"RouteId":67,"StationName":"Trường TH Hưng Phú A","pathPoints":"106.67243958,10.74698734 106.67220306,10.74691963 106.67147827,10.74676991 106.67103577,10.74671555","Address":"492, đường Hưng Phú, Quận 8","Lat":10.746716,"Lng":106.671036},{"StationId":3086,"StationOrder":21,"StationDirection":1,"RouteId":67,"StationName":"Phạm Hùng","pathPoints":"106.67103577,10.74671555 106.66970062,10.74644756","Address":"580, đường Hưng Phú, Quận 8","Lat":10.746448,"Lng":106.669701},{"StationId":3088,"StationOrder":22,"StationDirection":1,"RouteId":67,"StationName":"Lưu Quý Kỳ","pathPoints":"106.66970062,10.74644756 106.66863251,10.74617004 106.66748810,10.74599457","Address":"700-702, đường Hưng Phú, Quận 8","Lat":10.745995,"Lng":106.667488},{"StationId":3087,"StationOrder":23,"StationDirection":1,"RouteId":67,"StationName":"Dã Tượng","pathPoints":"106.66748810,10.74599457 106.66677856,10.74582958 106.66564178,10.74565029 106.66471863,10.74549961 106.66423798,10.74543953 106.66423798,10.74545670","Address":"842, đường Hưng Phú, Quận 8","Lat":10.745457,"Lng":106.664238},{"StationId":3090,"StationOrder":24,"StationDirection":1,"RouteId":67,"StationName":"Chợ Xóm Củi","pathPoints":"106.66423798,10.74545670 106.66423798,10.74543953 106.66393280,10.74538040 106.66300964,10.74520016 106.66255951,10.74514008 106.66211700,10.74536991 106.66137695,10.74565029 106.66114044,10.74577045 106.66094971,10.74594975 106.66090393,10.74615479","Address":"91, đường Xóm Củi, Quận 8","Lat":10.746155,"Lng":106.660904},{"StationId":617,"StationOrder":25,"StationDirection":1,"RouteId":67,"StationName":"Tùng Thiện Vương","pathPoints":"106.66090393,10.74615479 106.66049957,10.74673748 106.66070557,10.74839211 106.65942383,10.74796581 106.65983582,10.74690628 106.65909576,10.74616814 106.65889740,10.74583054 106.65692902,10.74483013","Address":"388, đường Tùng Thiện Vương, Quận 8","Lat":10.74483,"Lng":106.656926},{"StationId":4276,"StationOrder":26,"StationDirection":1,"RouteId":67,"StationName":"Coop Mart","pathPoints":"106.65692902,10.74483013 106.65692902,10.74483013 106.65691376,10.74474525 106.65607452,10.74432373 106.65598297,10.74444485 106.65528107,10.74412346 106.65528107,10.74412346","Address":"Đối diện 61, đường Tuy Lúy Vương, Quận 8","Lat":10.744123,"Lng":106.655284},{"StationId":3089,"StationOrder":27,"StationDirection":1,"RouteId":67,"StationName":"Cầu số 1","pathPoints":"106.65528107,10.74412346 106.65348053,10.74318027 106.65267181,10.74454498 106.65190125,10.74411297","Address":"Đối diện 707, đường Bến Bình Đông, Quận 8","Lat":10.744113,"Lng":106.651899},{"StationId":3091,"StationOrder":28,"StationDirection":1,"RouteId":67,"StationName":"Kho 289","pathPoints":"106.65174866,10.74398613 106.64699554,10.74118233","Address":"Đối diện 289, đường Bến Bình Đông, Quận 8","Lat":10.741151,"Lng":106.646841},{"StationId":3092,"StationOrder":29,"StationDirection":1,"RouteId":67,"StationName":"cầu Kinh Ngang Số 2","pathPoints":"106.64684296,10.74115086 106.64688110,10.74107742 106.64644623,10.74081039 106.64504242,10.73997021 106.64454651,10.73968983 106.64452362,10.73973560","Address":"Đối diện 301C, đường Bến Bình Đông, Quận 8","Lat":10.739736,"Lng":106.644524},{"StationId":3096,"StationOrder":30,"StationDirection":1,"RouteId":67,"StationName":"Cầu Số 3","pathPoints":"106.64459229,10.73969650 106.63986969,10.73677635 106.63787842,10.73552227 106.63652802,10.73473644 106.63522339,10.73385620 106.63468933,10.73314476 106.63448334,10.73257542 106.63336182,10.73017216 106.63153839,10.72643566 106.62983704,10.72284126 106.62933350,10.72183418 106.62941742,10.72179699 106.63081360,10.72464371 106.63136292,10.72443771 106.63161469,10.72417927 106.63198853,10.72403240","Address":"14, đường Bình Đức, Quận 8","Lat":10.723937,"Lng":106.631958},{"StationId":3098,"StationOrder":31,"StationDirection":1,"RouteId":67,"StationName":"KTX trường Công nghệ thực phẩm","pathPoints":"106.63195801,10.72393703 106.63195801,10.72393703 106.63253784,10.72381592 106.63311005,10.72354984 106.63365936,10.72329998 106.63377380,10.72323990 106.63378143,10.72321033 106.63378143,10.72309971 106.63179016,10.71905136 106.63184357,10.71903038","Address":"KTX Trường TH CNTP, đường Lưu Hữu Phước, Quận 8","Lat":10.71903,"Lng":106.631847},{"StationId":3099,"StationOrder":32,"StationDirection":1,"RouteId":67,"StationName":"Cầu Rạch Cát","pathPoints":"106.63184357,10.71903038 106.63184357,10.71903038 106.63179016,10.71902466 106.63111115,10.71765041 106.63088226,10.71724987 106.63046265,10.71669006 106.63002014,10.71609974 106.62988281,10.71594048 106.62942505,10.71541882 106.62942505,10.71541882","Address":"322, đường Lưu Hữu Phước, Quận 8","Lat":10.715419,"Lng":106.629428},{"StationId":2989,"StationOrder":33,"StationDirection":1,"RouteId":67,"StationName":"Mễ Cốc","pathPoints":"106.62942505,10.71541882 106.62942505,10.71541882 106.62879944,10.71479988 106.62821960,10.71426010 106.62764740,10.71380043 106.62640381,10.71298981 106.62611389,10.71287918 106.62611389,10.71287918 106.62611389,10.71287918","Address":"ĐẦU BẾN BẾN MỄ CỐC, đường Lưu Hữu Phước, Quận 8","Lat":10.712879,"Lng":106.626114}]