[{"StationId":7209,"StationOrder":0,"StationDirection":0,"RouteId":97,"StationName":"Bến xe Hậu Nghĩa","pathPoints":"","Address":"Bến xe Hậu Nghĩa, đường 3 tháng 2, Ngoại thành","Lat":10.900982,"Lng":106.393039},{"StationId":2276,"StationOrder":1,"StationDirection":0,"RouteId":97,"StationName":"Khu công nghiệp Nhị Xuân","pathPoints":"106.39303589,10.90098190 106.39303589,10.90105534 106.39306641,10.90120792 106.39254761,10.90116024 106.39160919,10.90123463 106.39100647,10.90129757 106.39080048,10.90128136 106.39003754,10.90102386 106.39143372,10.89756775 106.39287567,10.89431763 106.41433716,10.90027523 106.41493988,10.90049171 106.41696167,10.90104485 106.41764069,10.90145016 106.41860962,10.90231991 106.41871643,10.90219307 106.41948700,10.90193462 106.41999817,10.90162945 106.42095947,10.90078163 106.42240143,10.89958572 106.42389679,10.89841080 106.42752838,10.89547157 106.42935944,10.89396477 106.43038177,10.89312172 106.43123627,10.89240074 106.43218994,10.89279556 106.43511200,10.89388084 106.43583679,10.89403915 106.43643188,10.89408588 106.43721771,10.89400673 106.43792725,10.89386463 106.43907166,10.89345932 106.44021606,10.89299583 106.44152069,10.89241600 106.44281769,10.89184189 106.44515991,10.89078331 106.45099640,10.88820171 106.45464325,10.88656330 106.45520020,10.88637447 106.45590973,10.88617897 106.45822144,10.88556767 106.46134186,10.88453007 106.46304321,10.88394070 106.46466827,10.88337135 106.46797180,10.88228130 106.46862030,10.88214397 106.47028351,10.88199139 106.47169495,10.88194370 106.47203827,10.88189125 106.47223663,10.88183880 106.47248077,10.88165951 106.47332764,10.88098526 106.47359467,10.88084793 106.47384644,10.88074303 106.47567749,10.88035774 106.47802734,10.87974739 106.47977448,10.87945747 106.48092651,10.87927818 106.48149109,10.87919903 106.48212433,10.87914085 106.48414612,10.87895679 106.48515320,10.87886238 106.48616791,10.87879848 106.48710632,10.87872982 106.48820496,10.87870884 106.48991394,10.87826157 106.49230957,10.87759781 106.49253845,10.87761879 106.49333954,10.87786674 106.49369812,10.87791348 106.49536133,10.87784481 106.49710083,10.87786102 106.49861908,10.87785530 106.49903107,10.87782383 106.50180054,10.87737656 106.50330353,10.87712383 106.50411987,10.87698650 106.50456238,10.87694931 106.50486755,10.87690258 106.50537109,10.87612247 106.50662231,10.87682343 106.50724792,10.87705994 106.50772858,10.87710762 106.50823212,10.87710285 106.51067352,10.87659168 106.51258850,10.87618065 106.51487732,10.87573814 106.53058624,10.87267208 106.53059387,10.87261868","Address":"đd khu công nghiệp Nhị Xuân, đường Nguyễn Văn Bứa, Huyện Hóc Môn","Lat":10.872619,"Lng":106.530594},{"StationId":3967,"StationOrder":2,"StationDirection":0,"RouteId":97,"StationName":"Trường Nhị Xuân","pathPoints":"106.53059387,10.87261868 106.53817749,10.87117577","Address":"Đối diện trường Nhị Xuân (9B), đường Nguyễn Văn Bứa, Huyện Hóc Môn","Lat":10.871176,"Lng":106.538174},{"StationId":2225,"StationOrder":3,"StationDirection":0,"RouteId":97,"StationName":"Trạm lò muối","pathPoints":"106.53817749,10.87117577 106.53817749,10.87117577 106.53823090,10.87121296 106.53984833,10.87089634 106.54100800,10.87070179 106.54203796,10.87058067 106.54210663,10.87050056 106.54210663,10.87050056","Address":"23 - 25, đường Nguyễn Văn Bứa, Huyện Hóc Môn","Lat":10.870501,"Lng":106.542106},{"StationId":2223,"StationOrder":4,"StationDirection":0,"RouteId":97,"StationName":"Thái Sơn","pathPoints":"106.54210663,10.87050056 106.54210663,10.87050056 106.54220581,10.87054920 106.54415131,10.87028503 106.54610443,10.87001705 106.54620361,10.86991119 106.54620361,10.86991119","Address":"43A, đường Nguyễn Văn Bứa, Huyện Hóc Môn","Lat":10.869911,"Lng":106.546204},{"StationId":2267,"StationOrder":5,"StationDirection":0,"RouteId":97,"StationName":"Trường Nguyễn Văn Cừ","pathPoints":"106.54620361,10.86991119 106.54627991,10.87001705 106.55090332,10.86937428 106.55101013,10.86919498","Address":"100A, đường Nguyễn Văn Bứa, Huyện Hóc Môn","Lat":10.869195,"Lng":106.551011},{"StationId":3964,"StationOrder":6,"StationDirection":0,"RouteId":97,"StationName":"Ngã 3 Giồng","pathPoints":"106.55113220,10.86925793 106.55789948,10.86817265 106.55924225,10.86864662","Address":"Ngã ba Giồng, đường Nguyễn Văn Bứa, Huyện Hóc Môn","Lat":10.868647,"Lng":106.55924},{"StationId":3944,"StationOrder":7,"StationDirection":0,"RouteId":97,"StationName":"Dương Công Khi","pathPoints":"106.55924225,10.86864662 106.56459045,10.87084389","Address":"17/2B, đường Nguyễn Văn Bứa, Huyện Hóc Môn","Lat":10.870844,"Lng":106.564593},{"StationId":2274,"StationOrder":8,"StationDirection":0,"RouteId":97,"StationName":"Sân Banh","pathPoints":"106.56459045,10.87084389 106.56622314,10.87152386 106.56977081,10.87231922","Address":"34A, đường Nguyễn Văn Bứa, Huyện Hóc Môn","Lat":10.872319,"Lng":106.56977},{"StationId":3956,"StationOrder":9,"StationDirection":0,"RouteId":97,"StationName":"Công ty cáp Vĩnh Thịnh","pathPoints":"106.56977081,10.87231922 106.57155609,10.87279320 106.57405853,10.87402630","Address":"17/2, đường Nguyễn Văn Bứa, Huyện Hóc Môn","Lat":10.874026,"Lng":106.574062},{"StationId":3940,"StationOrder":10,"StationDirection":0,"RouteId":97,"StationName":"Nguyễn Thị Thử","pathPoints":"106.57405853,10.87402630 106.57935333,10.87720299 106.58126831,10.87892532","Address":"2/4, đường Nguyễn Văn Bứa, Huyện Hóc Môn","Lat":10.878925,"Lng":106.581266},{"StationId":3943,"StationOrder":11,"StationDirection":0,"RouteId":97,"StationName":"Chợ Xuân Thới Sơn","pathPoints":"106.58126831,10.87892532 106.58240509,10.88003635 106.58312988,10.88131714","Address":"36/5C, đường Nguyễn Văn Bứa, Huyện Hóc Môn","Lat":10.881317,"Lng":106.583133},{"StationId":3952,"StationOrder":12,"StationDirection":0,"RouteId":97,"StationName":"Ngã tư Hóc Môn","pathPoints":"106.58312988,10.88131714 106.58367157,10.88230705 106.58398438,10.88282394 106.58421326,10.88303375 106.58450317,10.88318729 106.58479309,10.88323402 106.58576202,10.88328743 106.58641815,10.88350773","Address":"9A, đường Nguyễn Văn Bứa, Huyện Hóc Môn","Lat":10.883508,"Lng":106.586416},{"StationId":1395,"StationOrder":13,"StationDirection":0,"RouteId":97,"StationName":"Ngã tư Hóc Môn","pathPoints":"106.58641815,10.88350773 106.58698273,10.88378239 106.58726501,10.88330841","Address":"47/6, đường Quốc lộ 22, Huyện Hóc Môn","Lat":10.883308,"Lng":106.587263},{"StationId":4759,"StationOrder":14,"StationDirection":0,"RouteId":97,"StationName":"Công ty Khánh Đông","pathPoints":"106.58726501,10.88330841 106.58927155,10.88033676","Address":"5A, đường Quốc lộ 22, Huyện Hóc Môn","Lat":10.880337,"Lng":106.58927},{"StationId":1230,"StationOrder":15,"StationDirection":0,"RouteId":97,"StationName":"Ngã tư giếng nước","pathPoints":"106.58927155,10.88033676 106.59168243,10.87702274","Address":"Cây xăng Thành Công, đường Quốc lộ 22, Huyện Hóc Môn","Lat":10.877023,"Lng":106.591684},{"StationId":1232,"StationOrder":16,"StationDirection":0,"RouteId":97,"StationName":"Cây xăng Hoàng Anh 1","pathPoints":"106.59168243,10.87702274 106.59307861,10.87496853","Address":"42/7B, đường Quốc lộ 22, Huyện Hóc Môn","Lat":10.874969,"Lng":106.593078},{"StationId":4588,"StationOrder":17,"StationDirection":0,"RouteId":97,"StationName":"Công ty Suất ăn công nghiệp","pathPoints":"106.59307861,10.87496853 106.59307861,10.87496853 106.59379578,10.87415218 106.59466553,10.87294674 106.59466553,10.87294674","Address":"43/1, đường Quốc lộ 22, Huyện Hóc Môn","Lat":10.872947,"Lng":106.594666},{"StationId":1231,"StationOrder":18,"StationDirection":0,"RouteId":97,"StationName":"Ngã 3 Bùi Môn","pathPoints":"106.59466553,10.87294674 106.59675598,10.86995411","Address":"58/5, đường Quốc lộ 22, Huyện Hóc Môn","Lat":10.869954,"Lng":106.596758},{"StationId":1235,"StationOrder":19,"StationDirection":0,"RouteId":97,"StationName":"Trường học Tân Xuân","pathPoints":"106.59675598,10.86995411 106.59890747,10.86691856","Address":"1/4, đường Quốc lộ 22, Huyện Hóc Môn","Lat":10.866919,"Lng":106.598904},{"StationId":1233,"StationOrder":20,"StationDirection":0,"RouteId":97,"StationName":"Ngân Hàng Aribank","pathPoints":"106.59890747,10.86691856 106.60197449,10.86254597","Address":"114, đường Quốc lộ 22, Huyện Hóc Môn","Lat":10.862546,"Lng":106.601978},{"StationId":1234,"StationOrder":21,"StationDirection":0,"RouteId":97,"StationName":"Ngã 3 Củ Cải","pathPoints":"106.60197449,10.86254597 106.60332489,10.86060238","Address":"43/1, đường Quốc lộ 22, Huyện Hóc Môn","Lat":10.860602,"Lng":106.603324},{"StationId":1236,"StationOrder":22,"StationDirection":0,"RouteId":97,"StationName":"Ngã ba Nguyễn Thị Sóc","pathPoints":"106.60429382,10.85923290 106.60566711,10.85737324","Address":"43/5, đường Quốc lộ 22, Huyện Hóc Môn","Lat":10.857373,"Lng":106.605669},{"StationId":3635,"StationOrder":23,"StationDirection":0,"RouteId":97,"StationName":"Chùa Linh Sơn","pathPoints":"106.60566711,10.85737324 106.60617828,10.85661983","Address":"G68A, đường Quốc lộ 22, Huyện Hóc Môn","Lat":10.85662,"Lng":106.606178},{"StationId":4490,"StationOrder":24,"StationDirection":0,"RouteId":97,"StationName":"Quốc lộ 22","pathPoints":"106.60617828,10.85661983 106.60722351,10.85528660","Address":"Quốc lộ 22, đường Quốc lộ 22, Quận 12","Lat":10.855287,"Lng":106.607222},{"StationId":1237,"StationOrder":25,"StationDirection":0,"RouteId":97,"StationName":"Trung tâm văn hóa Quận 12 - Ngã 4 Trung Chánh","pathPoints":"106.60722351,10.85528660 106.60817719,10.85353756","Address":"Quán ăn xuyên Á, đường Quốc lộ 22, Huyện Hóc Môn","Lat":10.853538,"Lng":106.608179},{"StationId":1238,"StationOrder":26,"StationDirection":0,"RouteId":97,"StationName":"Cư xá Bà Điểm","pathPoints":"106.60787964,10.85418034 106.61047363,10.85015011","Address":"3A, đường Quốc lộ 22, Huyện Hóc Môn","Lat":10.849713,"Lng":106.610641},{"StationId":1239,"StationOrder":27,"StationDirection":0,"RouteId":97,"StationName":"Bến xe An Sương","pathPoints":"106.61064148,10.84971333 106.61064148,10.84971333 106.61079407,10.84963894 106.61349487,10.84535027 106.61352539,10.84518719 106.61352539,10.84518719","Address":"1B, đường Quốc lộ 22, Huyện Hóc Môn","Lat":10.845187,"Lng":106.613522},{"StationId":166,"StationOrder":28,"StationDirection":0,"RouteId":97,"StationName":"Bến xe An Sương","pathPoints":"106.61352539,10.84518719 106.61405945,10.84441757 106.61337280,10.84373760","Address":"Bến xe An Sương, đường Quốc lộ 22, Quận 12","Lat":10.843737602233887,"Lng":106.61337280273438},{"StationId":166,"StationOrder":0,"StationDirection":1,"RouteId":97,"StationName":"Bến xe An Sương","pathPoints":"","Address":"Bến xe An Sương, đường Quốc lộ 22, Quận 12","Lat":10.843737602233887,"Lng":106.61337280273438},{"StationId":4669,"StationOrder":1,"StationDirection":1,"RouteId":97,"StationName":"Quốc lộ 22","pathPoints":"106.61337280,10.84373760 106.61413574,10.84431744 106.61470032,10.84346962 106.61495209,10.84297943 106.61501312,10.84282684 106.61499023,10.84268475 106.61504364,10.84249496 106.61525726,10.84235287 106.61554718,10.84241009 106.61565399,10.84256840 106.61566162,10.84272671 106.61554718,10.84293747 106.61532593,10.84302711 106.61498260,10.84340572 106.61429596,10.84440231","Address":"Quốc lộ 22, đường Quốc lộ 22, Quận 12","Lat":10.84437,"Lng":106.614257},{"StationId":1115,"StationOrder":2,"StationDirection":1,"RouteId":97,"StationName":"Bến xe An Sương","pathPoints":"106.61425781,10.84436989 106.61351776,10.84580326","Address":"F42, đường Quốc lộ 22, Quận 12","Lat":10.845803,"Lng":106.613517},{"StationId":1116,"StationOrder":3,"StationDirection":1,"RouteId":97,"StationName":"Bến xe An Sương","pathPoints":"106.61351776,10.84580326 106.61335754,10.84603500","Address":"142, đường Quốc lộ 22, Quận 12","Lat":10.846035,"Lng":106.613361},{"StationId":1117,"StationOrder":4,"StationDirection":1,"RouteId":97,"StationName":"Bến xe An Sương","pathPoints":"106.61335754,10.84603500 106.61319733,10.84629345","Address":"8C, đường Quốc lộ 22, Quận 12","Lat":10.846293,"Lng":106.6132},{"StationId":1151,"StationOrder":5,"StationDirection":1,"RouteId":97,"StationName":"Cây xăng Quân Đội","pathPoints":"106.61319733,10.84629345 106.61319733,10.84629345 106.61298370,10.84662533 106.61254120,10.84729958 106.61135864,10.84922791 106.61127472,10.84936047 106.61127472,10.84936047","Address":"2, đường Quốc lộ 22, Quận 12","Lat":10.84936,"Lng":106.611274},{"StationId":1689,"StationOrder":6,"StationDirection":1,"RouteId":97,"StationName":"Cư xá Bà Điểm","pathPoints":"106.61127472,10.84936047 106.61127472,10.84936047 106.61127472,10.84936047 106.61119080,10.84938622 106.61090088,10.84991264 106.61083221,10.84998131 106.61083221,10.84998131 106.61083221,10.84998131","Address":"4-6F, đường Quốc lộ 22, Quận 12","Lat":10.849981,"Lng":106.610835},{"StationId":1152,"StationOrder":7,"StationDirection":1,"RouteId":97,"StationName":"Trung tâm Văn hóa Quận 12","pathPoints":"106.61083221,10.84998131 106.61070251,10.85007095 106.60784912,10.85452843 106.60786438,10.85466003","Address":"Trung tâm văn hóa Quận 12, đường Quốc lộ 22, Quận 12","Lat":10.85466,"Lng":106.607863},{"StationId":1154,"StationOrder":8,"StationDirection":1,"RouteId":97,"StationName":"Liên đoàn lao động Hóc Môn","pathPoints":"106.60786438,10.85466003 106.60620117,10.85711479","Address":"69/1, đường Quốc lộ 22, Huyện Hóc Môn","Lat":10.857115,"Lng":106.6062},{"StationId":1153,"StationOrder":9,"StationDirection":1,"RouteId":97,"StationName":"Cây xăng Củ Cải","pathPoints":"106.60620117,10.85711479 106.60430908,10.85982323","Address":"33/4, đường Quốc lộ 22, Huyện Hóc Môn","Lat":10.859823,"Lng":106.604306},{"StationId":1156,"StationOrder":10,"StationDirection":1,"RouteId":97,"StationName":"Ngã 3 Củ Cải","pathPoints":"106.60430908,10.85982323 106.60430908,10.85982323 106.60420227,10.85982323 106.60266113,10.86198235 106.60269928,10.86201382 106.60269928,10.86201382","Address":"42/1, đường Quốc lộ 22, Huyện Hóc Môn","Lat":10.862014,"Lng":106.602697},{"StationId":1155,"StationOrder":11,"StationDirection":1,"RouteId":97,"StationName":"Trường học Tân Xuân","pathPoints":"106.60269928,10.86201382 106.59934998,10.86678219","Address":"8/6B, đường Quốc lộ 22, Huyện Hóc Môn","Lat":10.866782,"Lng":106.599349},{"StationId":1158,"StationOrder":12,"StationDirection":1,"RouteId":97,"StationName":"Ngã 3 Bùi Môn","pathPoints":"106.59934998,10.86678219 106.59707642,10.87007523","Address":"1/1, đường Quốc lộ 22, Huyện Hóc Môn","Lat":10.870075,"Lng":106.597075},{"StationId":1160,"StationOrder":13,"StationDirection":1,"RouteId":97,"StationName":"Ngã 3 Bùi Môn","pathPoints":"106.59707642,10.87007523 106.59705353,10.87007523 106.59704590,10.87006950 106.59707642,10.87007523 106.59657288,10.87071228 106.59614563,10.87139702 106.59609222,10.87135983 106.59614563,10.87139702","Address":"đd công ty Tây Bắc Sài Gòn, đường Quốc lộ 22, Huyện Hóc Môn","Lat":10.871397,"Lng":106.596147},{"StationId":4592,"StationOrder":14,"StationDirection":1,"RouteId":97,"StationName":"Sài Gòn Viễn Đông","pathPoints":"106.59614563,10.87139702 106.59342194,10.87509346","Address":"3/19, đường Quốc lộ 22, Huyện Hóc Môn","Lat":10.875093,"Lng":106.593424},{"StationId":1157,"StationOrder":15,"StationDirection":1,"RouteId":97,"StationName":"Ngã tư Giếng Nước","pathPoints":"106.59342194,10.87509346 106.59175110,10.87748241","Address":"3/88C, đường Quốc lộ 22, Huyện Hóc Môn","Lat":10.877482,"Lng":106.591748},{"StationId":4586,"StationOrder":16,"StationDirection":1,"RouteId":97,"StationName":"Ngã tư Giếng nước","pathPoints":"106.59175110,10.87748241 106.59149170,10.87783432 106.59184265,10.87807655","Address":"3/88C, đường Bà Triệu, Huyện Hóc Môn","Lat":10.878077,"Lng":106.591845},{"StationId":1162,"StationOrder":17,"StationDirection":1,"RouteId":97,"StationName":"Bệnh viện Hóc Môn","pathPoints":"106.59184265,10.87807655 106.59189606,10.87815571 106.59257507,10.87871933 106.59277344,10.87925720 106.59413147,10.88245964 106.59410095,10.88226032","Address":"77/4, đường Bà Triệu, Huyện Hóc Môn","Lat":10.88226,"Lng":106.594098},{"StationId":1164,"StationOrder":18,"StationDirection":1,"RouteId":97,"StationName":"Trường mầm non 23-11","pathPoints":"106.59420013,10.88245964 106.59493256,10.88432980","Address":"84/2A, đường Bà Triệu, Huyện Hóc Môn","Lat":10.884952,"Lng":106.595213},{"StationId":1161,"StationOrder":19,"StationDirection":1,"RouteId":97,"StationName":"Thị trấn Hóc Môn","pathPoints":"106.59521484,10.88495159 106.59493256,10.88432980 106.59607697,10.88669968 106.59616852,10.88696384 106.59613800,10.88755894 106.59623718,10.88790226","Address":"98/2, đường Bà Triệu, Huyện Hóc Môn","Lat":10.887902,"Lng":106.596238},{"StationId":2259,"StationOrder":20,"StationDirection":1,"RouteId":97,"StationName":"Ngân hàng Nông Nghiệp","pathPoints":"106.59623718,10.88790226 106.59632111,10.88842869 106.59563446,10.88847637 106.59514618,10.88857079 106.59502411,10.88864422 106.59495544,10.88859177 106.59494781,10.88849735 106.59436798,10.88833332","Address":"13/3 (số củ 12), đường Lý Thường Kiệt , Huyện Hóc Môn","Lat":10.888333,"Lng":106.594368},{"StationId":2268,"StationOrder":21,"StationDirection":1,"RouteId":97,"StationName":"Ngân hàng BIDV","pathPoints":"106.59436798,10.88833332 106.59403992,10.88815975 106.59086609,10.88714981","Address":"78, đường Lý Thường Kiệt , Huyện Hóc Môn","Lat":10.88715,"Lng":106.590866},{"StationId":2261,"StationOrder":22,"StationDirection":1,"RouteId":97,"StationName":"Ngã tư Hóc Môn","pathPoints":"106.59086609,10.88714981 106.59036255,10.88698006 106.58935547,10.88662148 106.58904266,10.88644028 106.58872986,10.88617039 106.58757019,10.88473320","Address":"51/8, đường Lý Thường Kiệt , Huyện Hóc Môn","Lat":10.884733,"Lng":106.58757},{"StationId":3954,"StationOrder":23,"StationDirection":1,"RouteId":97,"StationName":"Ngã 4 Hóc Môn","pathPoints":"106.58757019,10.88473320 106.58757019,10.88473320 106.58708191,10.88395119 106.58637238,10.88357639 106.58628845,10.88360786 106.58601379,10.88349247","Address":"8B, đường Nguyễn Văn Bứa, Huyện Hóc Môn","Lat":10.883492,"Lng":106.586013},{"StationId":3950,"StationOrder":24,"StationDirection":1,"RouteId":97,"StationName":"Chợ Xuân Thới Sơn","pathPoints":"106.58601379,10.88349247 106.58576202,10.88338757 106.58508301,10.88335514 106.58448792,10.88328171 106.58411407,10.88307095 106.58390045,10.88283443 106.58344269,10.88216496","Address":"Ban nhân dân Ấp 1 (79/79), đường Nguyễn Văn Bứa, Huyện Hóc Môn","Lat":10.882165,"Lng":106.583444},{"StationId":3953,"StationOrder":25,"StationDirection":1,"RouteId":97,"StationName":"Nguyễn Thị Thử","pathPoints":"106.58344269,10.88216496 106.58265686,10.88081646 106.58224487,10.88010025 106.58164978,10.87946320","Address":"96/3C, đường Nguyễn Văn Bứa, Huyện Hóc Môn","Lat":10.879463,"Lng":106.581652},{"StationId":3951,"StationOrder":26,"StationDirection":1,"RouteId":97,"StationName":"Công ty cáp Vĩnh Thịnh","pathPoints":"106.58164978,10.87946320 106.58042145,10.87828732 106.57933807,10.87731838 106.57443237,10.87439537","Address":"40B, đường Nguyễn Văn Bứa, Huyện Hóc Môn","Lat":10.874395,"Lng":106.574432},{"StationId":3974,"StationOrder":27,"StationDirection":1,"RouteId":97,"StationName":"Sân Banh","pathPoints":"106.57443237,10.87439537 106.57299042,10.87362003 106.57147980,10.87288761 106.57021332,10.87255573","Address":"51B, đường Nguyễn Văn Bứa, Huyện Hóc Môn","Lat":10.872556,"Lng":106.570215},{"StationId":2224,"StationOrder":28,"StationDirection":1,"RouteId":97,"StationName":"Dương Công Khi","pathPoints":"106.56872559,10.87229347 106.56642914,10.87168121 106.56494904,10.87117577","Address":"89/5, đường Nguyễn Văn Bứa, Huyện Hóc Môn","Lat":10.871113,"Lng":106.564894},{"StationId":3945,"StationOrder":29,"StationDirection":1,"RouteId":97,"StationName":"Ngã Ba Giồng","pathPoints":"106.56494904,10.87117577 106.55973053,10.86900520","Address":"Đối diện Ngã ba giòng, đường Nguyễn Văn Bứa, Huyện Hóc Môn","Lat":10.869047,"Lng":106.559878},{"StationId":2222,"StationOrder":30,"StationDirection":1,"RouteId":97,"StationName":"Trường PTTH Nguyễn Văn Cừ","pathPoints":"106.55987549,10.86904716 106.55973053,10.86900520 106.55898285,10.86863995 106.55803680,10.86826038 106.55785370,10.86828041 106.55684662,10.86845016 106.55538940,10.86872101 106.55075073,10.86947918","Address":"Đối diện trường Nguyễn Văn Cừ, đường Nguyễn Văn Bứa, Huyện Hóc Môn","Lat":10.869479,"Lng":106.550753},{"StationId":3949,"StationOrder":31,"StationDirection":1,"RouteId":97,"StationName":"Thái Sơn","pathPoints":"106.55075073,10.86947918 106.54673004,10.87000561","Address":"48B, đường Nguyễn Văn Bứa, Huyện Hóc Môn","Lat":10.870006,"Lng":106.54673},{"StationId":3939,"StationOrder":32,"StationDirection":1,"RouteId":97,"StationName":"Lò Muối","pathPoints":"106.54673004,10.87000561 106.54167938,10.87070179","Address":"23B, đường Nguyễn Văn Bứa, Huyện Hóc Môn","Lat":10.870702,"Lng":106.541677},{"StationId":2265,"StationOrder":33,"StationDirection":1,"RouteId":97,"StationName":"trường tiểu học Nhị Xuân","pathPoints":"106.54167938,10.87070179 106.53857422,10.87122345","Address":"8B, đường Nguyễn Văn Bứa, Huyện Hóc Môn","Lat":10.871223,"Lng":106.538576},{"StationId":2227,"StationOrder":34,"StationDirection":1,"RouteId":97,"StationName":"Bến xe buýt Cầu Lớn","pathPoints":"106.53857422,10.87122345 106.53556061,10.87184525","Address":"BẾN XE BUÝT CẦU LỚN, đường Nguyễn Văn Bứa, Huyện Hóc Môn","Lat":10.871845,"Lng":106.535561},{"StationId":3941,"StationOrder":35,"StationDirection":1,"RouteId":97,"StationName":"Khu công nghiệp Nhị Xuân","pathPoints":"106.53555298,10.87181282 106.53333282,10.87225056 106.53109741,10.87271404","Address":"khu công nghiệp Nhị Xuân, đường Nguyễn Văn Bứa, Huyện Hóc Môn","Lat":10.872714,"Lng":106.531098},{"StationId":7209,"StationOrder":36,"StationDirection":1,"RouteId":97,"StationName":"Bến xe Hậu Nghĩa","pathPoints":"106.53109741,10.87271404 106.50808716,10.87723446 106.50727081,10.87713909 106.50656891,10.87686539 106.50528717,10.87695980 106.50474548,10.87700748 106.50416565,10.87708092 106.50321960,10.87721348 106.49986267,10.87776661 106.49896240,10.87790871 106.49684143,10.87791920 106.49520874,10.87792969 106.49365234,10.87800312 106.49339294,10.87796116 106.49243927,10.87766647 106.48822021,10.87878799 106.48673248,10.87883568 106.48464203,10.87897301 106.48152161,10.87927818 106.47977448,10.87952042 106.47799683,10.87983608 106.47600555,10.88036346 106.47486877,10.88059998 106.47380066,10.88081074 106.47340393,10.88102150 106.47298431,10.88139057 106.47239685,10.88182735 106.47209930,10.88195992 106.47171783,10.88201714 106.47042847,10.88207054 106.46916199,10.88218594 106.46881104,10.88220692 106.46803284,10.88230228 106.46702576,10.88261795 106.45825195,10.88564205 106.45481873,10.88655853 106.45233154,10.88766956 106.45201111,10.88783836 106.44104004,10.89268970 106.43951416,10.89336491 106.43802643,10.89393330 106.43725586,10.89409161 106.43642426,10.89414978 106.43584442,10.89411736 106.43495941,10.89388561 106.43341827,10.89331722 106.43122864,10.89250088 106.42535400,10.89728355 106.41969299,10.90191936 106.41876221,10.90226173 106.41860962,10.90241432 106.41771698,10.90166092 106.41710663,10.90122414 106.41648865,10.90100765 106.41578674,10.90083885 106.41447449,10.90048599 106.40462494,10.89776802 106.39291382,10.89443398 106.39186859,10.89680958 106.39016724,10.90100765 106.39097595,10.90124512 106.39200592,10.90113449 106.39251709,10.90110302 106.39299011,10.90112877 106.39303589,10.90098190","Address":"Bến xe Hậu Nghĩa, đường 3 tháng 2, Ngoại thành","Lat":10.900982,"Lng":106.393039}]