[{"StationId":7212,"StationOrder":0,"StationDirection":0,"RouteId":100,"StationName":"Bến xe Gò Công","pathPoints":"","Address":"Bến xe Gò Công, đường Trần Công Tưởng, Ngoại thành","Lat":10.359629,"Lng":106.661925},{"StationId":3116,"StationOrder":1,"StationDirection":0,"RouteId":100,"StationName":"Nhà máy Kizunai","pathPoints":"106.66192627,10.35962868 106.66184235,10.36053658 106.66592407,10.36118031 106.66684723,10.36131191 106.66791534,10.36152363 106.67010498,10.36193466 106.67178345,10.36087418 106.67198181,10.35981846 106.67416382,10.35925961 106.67488098,10.35925388 106.67535400,10.35929680 106.67745209,10.35922813 106.67950439,10.36020947 106.67874146,10.36253643 106.67834473,10.36357594 106.67745209,10.36758137 106.68023682,10.37170792 106.68233490,10.37525940 106.68267059,10.37761211 106.68267822,10.37894249 106.68180847,10.38070488 106.68012238,10.38598061 106.67998505,10.38706779 106.67895508,10.39011765 106.67723846,10.39526272 106.67624664,10.39823246 106.67549133,10.40045929 106.67464447,10.40481758 106.67470551,10.40609932 106.67509460,10.40904903 106.67560577,10.41282177 106.67434692,10.41674137 106.67123413,10.42107868 106.66925049,10.42487717 106.66826630,10.42648125 106.66306305,10.43080711 106.66079712,10.43437386 106.65983582,10.43534470 106.65615082,10.43850994 106.65439606,10.44003963 106.65167236,10.44672871 106.65036011,10.44989395 106.64900970,10.45295429 106.64543152,10.46027660 106.64437103,10.46254444 106.64368439,10.46392632 106.64331818,10.46436977 106.64228821,10.46506596 106.64083099,10.46583652 106.63979340,10.46635342 106.63215637,10.46959209 106.63166046,10.46991920 106.63129425,10.47025681 106.63084412,10.47079468 106.63043976,10.47140694 106.63005066,10.47238827 106.62984467,10.47338009 106.62973022,10.47390747 106.63042450,10.47922421 106.63044739,10.48044777 106.62995148,10.48167229 106.62880707,10.48296928 106.62804413,10.48375034 106.61154175,10.49874592 106.61067200,10.49954319 106.60965729,10.50049782 106.60795593,10.50190067 106.60482025,10.50433254 106.60351563,10.50571442 106.60331726,10.50617313 106.60331726,10.50662613 106.60393524,10.51150036 106.60432434,10.51266003 106.61222839,10.52642059 106.61679077,10.53429031 106.61911011,10.53827667 106.62149048,10.54219532 106.62609863,10.54991150 106.63037872,10.55785370 106.63430023,10.56497765 106.63580322,10.56711388 106.63697815,10.56921768 106.63948822,10.57369995 106.64044189,10.57529259 106.64163971,10.57721233 106.64432526,10.58100891 106.64624786,10.58368206 106.64649963,10.58398247 106.64723969,10.58474731 106.64892578,10.58630276 106.65133667,10.58851242 106.65747070,10.59421253 106.66129303,10.59771919 106.66410828,10.60029793 106.66517639,10.60083008 106.66664886,10.60122013 106.66901398,10.60172653 106.66950989,10.60204315 106.66989136,10.60244370 106.67021179,10.60317135 106.67080688,10.60470581 106.67118073,10.60599232 106.67124176,10.60702610 106.67111206,10.60747910 106.67076874,10.60839081 106.67033386,10.60905075 106.66960907,10.60992050 106.66827393,10.61169720 106.66787720,10.61236668 106.66764832,10.61290455 106.66744232,10.61368465 106.66733551,10.61451817 106.66661835,10.61966991 106.66614532,10.62119293 106.66429138,10.62500000 106.66050720,10.63306141","Address":"Đối diện 86 (B8/33B6), đường Quốc lộ 50, Huyện Bình Chánh","Lat":10.633061,"Lng":106.660509},{"StationId":3119,"StationOrder":2,"StationDirection":0,"RouteId":100,"StationName":"Hoàng Thái Mart","pathPoints":"106.66050720,10.63306141 106.65798950,10.63831806","Address":"Cửa hàng gỗ Hồng Thảo (Hoàng Thái Mart), đường Quốc lộ 50, Huyện Bình Chánh","Lat":10.638318,"Lng":106.657993},{"StationId":3118,"StationOrder":3,"StationDirection":0,"RouteId":100,"StationName":"Trạm xăng Hoàng Thái","pathPoints":"106.65798950,10.63831806 106.65731049,10.64150238 106.65686035,10.64448071","Address":"Đối diện D8A/34, đường Quốc lộ 50, Huyện Bình Chánh","Lat":10.644481,"Lng":106.656861},{"StationId":3121,"StationOrder":4,"StationDirection":0,"RouteId":100,"StationName":"Bệnh viện Tâm thần Bình Minh","pathPoints":"106.65686035,10.64448071 106.65677643,10.64521408 106.65653229,10.64647865 106.65632629,10.64733315 106.65596008,10.64827061 106.65602112,10.64828205","Address":"A11/32A, đường Quốc lộ 50, Huyện Bình Chánh","Lat":10.648282,"Lng":106.656024},{"StationId":3120,"StationOrder":5,"StationDirection":0,"RouteId":100,"StationName":"Chùa Phước Hội","pathPoints":"106.65602112,10.64828205 106.65479279,10.65230465","Address":"B7/177, đường Quốc lộ 50, Huyện Bình Chánh","Lat":10.652305,"Lng":106.654791},{"StationId":3123,"StationOrder":6,"StationDirection":0,"RouteId":100,"StationName":"Chùa Tam Bửu","pathPoints":"106.65477753,10.65217018 106.65443420,10.65336418 106.65396881,10.65458012","Address":"B3/63/1 (B2/63/1), đường Quốc lộ 50, Huyện Bình Chánh","Lat":10.656296,"Lng":106.653214},{"StationId":3122,"StationOrder":7,"StationDirection":0,"RouteId":100,"StationName":"Chùa Linh Hòa","pathPoints":"106.65321350,10.65629578 106.65213776,10.65862560 106.65190125,10.65990162","Address":"B2/35A, đường Quốc lộ 50, Huyện Bình Chánh","Lat":10.659902,"Lng":106.651905},{"StationId":3125,"StationOrder":8,"StationDirection":0,"RouteId":100,"StationName":"Đường liên Ấp 1-2","pathPoints":"106.65190125,10.65990162 106.65165710,10.66300106","Address":"A8/240A, đường Quốc lộ 50, Huyện Bình Chánh","Lat":10.663001,"Lng":106.651658},{"StationId":3124,"StationOrder":9,"StationDirection":0,"RouteId":100,"StationName":"Nghĩa trang Đa Phước","pathPoints":"106.65165710,10.66300106 106.65135193,10.66650200","Address":"A8/233 (Đối diện D14/407), đường Quốc lộ 50, Huyện Bình Chánh","Lat":10.666502,"Lng":106.651352},{"StationId":3127,"StationOrder":10,"StationDirection":0,"RouteId":100,"StationName":"Trường THCS Đa Phước","pathPoints":"106.65135193,10.66650200 106.65119934,10.66866302 106.65117645,10.66985989","Address":"E11/323, đường Quốc lộ 50, Huyện Bình Chánh","Lat":10.66986,"Lng":106.651175},{"StationId":3126,"StationOrder":11,"StationDirection":0,"RouteId":100,"StationName":"Công ty Hồng Nhất","pathPoints":"106.65117645,10.66985989 106.65100098,10.67350769","Address":"A1/6/5 (A1/6), đường Quốc lộ 50, Huyện Bình Chánh","Lat":10.673508,"Lng":106.651003},{"StationId":3128,"StationOrder":12,"StationDirection":0,"RouteId":100,"StationName":"Đình Chánh An Phú","pathPoints":"106.65100098,10.67350769 106.65068054,10.67789936","Address":"A6/183, đường Quốc lộ 50, Huyện Bình Chánh","Lat":10.677899,"Lng":106.650681},{"StationId":3129,"StationOrder":13,"StationDirection":0,"RouteId":100,"StationName":"Trường chuyên biệt Rạng Đông","pathPoints":"106.65068054,10.67789936 106.65054321,10.67935371 106.65047455,10.68010235 106.65049744,10.68086147 106.65074921,10.68200016 106.65126038,10.68314934","Address":"A12/366 (A12/363), đường Quốc lộ 50, Huyện Bình Chánh","Lat":10.683149,"Lng":106.651261},{"StationId":3131,"StationOrder":14,"StationDirection":0,"RouteId":100,"StationName":"Trường tiểu học Phong Phú","pathPoints":"106.65126038,10.68314934 106.65369415,10.68851566","Address":"Trường Mầm non Hướng Dương (Trường tiểu học Phong Phú), đường Quốc lộ 50, Huyện Bình Chánh","Lat":10.688516,"Lng":106.653691},{"StationId":3130,"StationOrder":15,"StationDirection":0,"RouteId":100,"StationName":"Trịnh Quang Nghị","pathPoints":"106.65369415,10.68851566 106.65470123,10.69070816 106.65509796,10.69262218","Address":"D3/65, đường Quốc lộ 50, Huyện Bình Chánh","Lat":10.692622,"Lng":106.655096},{"StationId":3133,"StationOrder":16,"StationDirection":0,"RouteId":100,"StationName":"Trạm xăng Kim Quang","pathPoints":"106.65509796,10.69262218 106.65522766,10.69428253 106.65497589,10.69554806","Address":"E8/212M, đường Quốc lộ 50, Huyện Bình Chánh","Lat":10.695548,"Lng":106.654978},{"StationId":3132,"StationOrder":17,"StationDirection":0,"RouteId":100,"StationName":"Trung tâm tư vấn đào tạo Úc Mỹ","pathPoints":"106.65497589,10.69554806 106.65450287,10.69813633","Address":"E8/401 (E8/214A), đường Quốc lộ 50, Huyện Bình Chánh","Lat":10.698136,"Lng":106.654501},{"StationId":3136,"StationOrder":18,"StationDirection":0,"RouteId":100,"StationName":"Chùa Thiện Phước","pathPoints":"106.65450287,10.69813633 106.65434265,10.69901562 106.65423584,10.69990730 106.65435791,10.70086670 106.65458679,10.70176792","Address":"E9/251, đường Quốc lộ 50, Huyện Bình Chánh","Lat":10.701768,"Lng":106.654587},{"StationId":3134,"StationOrder":19,"StationDirection":0,"RouteId":100,"StationName":"Xăng dầu Phong Phú","pathPoints":"106.65458679,10.70176792 106.65496063,10.70470905","Address":"E10/288, đường Quốc lộ 50, Huyện Bình Chánh","Lat":10.704709,"Lng":106.654957},{"StationId":3137,"StationOrder":20,"StationDirection":0,"RouteId":100,"StationName":"Mầm non Anh Việt","pathPoints":"106.65496063,10.70470905 106.65549469,10.70823002","Address":"E11/304 (E11/304C), đường Quốc lộ 50, Huyện Bình Chánh","Lat":10.70823,"Lng":106.655493},{"StationId":3135,"StationOrder":21,"StationDirection":0,"RouteId":100,"StationName":"Chùa Ân Hòa","pathPoints":"106.65549469,10.70823002 106.65586090,10.71081257 106.65575409,10.71205139","Address":"B10/8 (B10/7), đường Quốc lộ 50, Huyện Bình Chánh","Lat":10.712051,"Lng":106.655756},{"StationId":3139,"StationOrder":22,"StationDirection":0,"RouteId":100,"StationName":"Văn phòng Ấp 3","pathPoints":"106.65575409,10.71205139 106.65562439,10.71379566 106.65568542,10.71551991","Address":"B13/118, đường Quốc lộ 50, Huyện Bình Chánh","Lat":10.71552,"Lng":106.655686},{"StationId":3138,"StationOrder":23,"StationDirection":0,"RouteId":100,"StationName":"Chùa Thiên Trì","pathPoints":"106.65568542,10.71551991 106.65573883,10.71859837","Address":"B15/21 (B15/20), đường Quốc lộ 50, Huyện Bình Chánh","Lat":10.718598,"Lng":106.65574},{"StationId":2247,"StationOrder":24,"StationDirection":0,"RouteId":100,"StationName":"Bình Hưng","pathPoints":"106.65573883,10.71859837 106.65583801,10.72084808","Address":"B17/24, đường Quốc lộ 50, Huyện Bình Chánh","Lat":10.720848,"Lng":106.655837},{"StationId":2244,"StationOrder":25,"StationDirection":0,"RouteId":100,"StationName":"Giáo xứ Bình Hưng","pathPoints":"106.65583801,10.72084808 106.65594482,10.72492313","Address":"A18/16, đường Quốc lộ 50, Huyện Bình Chánh","Lat":10.724923,"Lng":106.655944},{"StationId":2246,"StationOrder":26,"StationDirection":0,"RouteId":100,"StationName":"Mầm non ánh Dương","pathPoints":"106.65594482,10.72492313 106.65608978,10.72770023","Address":"A24/20B, đường Quốc lộ 50, Huyện Bình Chánh","Lat":10.7277,"Lng":106.656089},{"StationId":2248,"StationOrder":27,"StationDirection":0,"RouteId":100,"StationName":"Công an Bình Hưng","pathPoints":"106.65608978,10.72770023 106.65610504,10.73090458","Address":"Đối diện A6/10 (A27/13), đường Quốc lộ 50, Huyện Bình Chánh","Lat":10.730905,"Lng":106.656105},{"StationId":496,"StationOrder":28,"StationDirection":0,"RouteId":100,"StationName":"Bến xe buýt Quận 8","pathPoints":"106.65605164,10.73089981 106.65609741,10.73313046 106.65615082,10.73353958","Address":"BẾN XE BUÝT QUẬN 8, đường Quốc lộ 50, Quận 8","Lat":10.733545,"Lng":106.656357},{"StationId":496,"StationOrder":0,"StationDirection":1,"RouteId":100,"StationName":"Bến xe buýt Quận 8","pathPoints":"","Address":"BẾN XE BUÝT QUẬN 8, đường Quốc lộ 50, Quận 8","Lat":10.733545,"Lng":106.656357},{"StationId":2148,"StationOrder":1,"StationDirection":1,"RouteId":100,"StationName":"Bến xe Quận 8","pathPoints":"106.65635681,10.73354530 106.65635681,10.73354530 106.65637970,10.73418808 106.65614319,10.73416233 106.65612030,10.73279667 106.65605164,10.73277569 106.65605164,10.73277569","Address":"328-330, đường Quốc lộ 50, Quận 8","Lat":10.732776,"Lng":106.656051},{"StationId":2149,"StationOrder":2,"StationDirection":1,"RouteId":100,"StationName":"Công an Bình Hưng","pathPoints":"106.65605164,10.73277569 106.65611267,10.73273945 106.65607452,10.73178005 106.65600586,10.73084736 106.65596771,10.73079967","Address":"A6/17, đường Quốc lộ 50, Huyện Bình Chánh","Lat":10.7308,"Lng":106.655971},{"StationId":2151,"StationOrder":3,"StationDirection":1,"RouteId":100,"StationName":"Mầm non Ánh Dương","pathPoints":"106.65596771,10.73079967 106.65589142,10.72789001","Address":"A11/9 (A11/07), đường Quốc lộ 50, Huyện Bình Chánh","Lat":10.72789,"Lng":106.65589},{"StationId":2150,"StationOrder":4,"StationDirection":1,"RouteId":100,"StationName":"Giáo xứ Bình Hưng","pathPoints":"106.65589142,10.72789001 106.65583038,10.72529221","Address":"A13/1, đường Quốc lộ 50, Huyện Bình Chánh","Lat":10.725292,"Lng":106.655831},{"StationId":2153,"StationOrder":5,"StationDirection":1,"RouteId":100,"StationName":"Bình Hưng","pathPoints":"106.65585327,10.72528648 106.65581512,10.72303009","Address":"B2/21A, đường Quốc lộ 50, Huyện Bình Chánh","Lat":10.72058,"Lng":106.655686},{"StationId":3019,"StationOrder":6,"StationDirection":1,"RouteId":100,"StationName":"Nguyễn Văn Linh","pathPoints":"106.65568542,10.72058010 106.65561676,10.71847725","Address":"B4/13, đường Quốc lộ 50, Huyện Bình Chánh","Lat":10.718477,"Lng":106.655617},{"StationId":3020,"StationOrder":7,"StationDirection":1,"RouteId":100,"StationName":"Trường tiều học Bình Hưng","pathPoints":"106.65561676,10.71847725 106.65553284,10.71576214","Address":"Cột điện T66P (B6/19), đường Quốc lộ 50, Huyện Bình Chánh","Lat":10.715762,"Lng":106.655531},{"StationId":3021,"StationOrder":8,"StationDirection":1,"RouteId":100,"StationName":"Chùa An Hòa","pathPoints":"106.65553284,10.71576214 106.65546417,10.71382809 106.65562439,10.71193027","Address":"B8/31, đường Quốc lộ 50, Huyện Bình Chánh","Lat":10.71193,"Lng":106.655627},{"StationId":3023,"StationOrder":9,"StationDirection":1,"RouteId":100,"StationName":"Mầm non Anh Việt","pathPoints":"106.65562439,10.71193027 106.65567780,10.71096039 106.65535736,10.70838833","Address":"E11/307, đường Quốc lộ 50, Huyện Bình Chánh","Lat":10.708388,"Lng":106.655359},{"StationId":3025,"StationOrder":10,"StationDirection":1,"RouteId":100,"StationName":"Xăng dầu Phong Phú","pathPoints":"106.65535736,10.70838833 106.65480042,10.70467186","Address":"E4/106, đường Quốc lộ 50, Huyện Bình Chánh","Lat":10.704672,"Lng":106.654801},{"StationId":3024,"StationOrder":11,"StationDirection":1,"RouteId":100,"StationName":"Chùa Thiện Phước","pathPoints":"106.65480042,10.70467186 106.65430450,10.70151520","Address":"E5/142, đường Quốc lộ 50, Huyện Bình Chánh","Lat":10.701515,"Lng":106.654308},{"StationId":3026,"StationOrder":12,"StationDirection":1,"RouteId":100,"StationName":"Trung tâm tư vấn đào tạo Úc Mỹ","pathPoints":"106.65430450,10.70151520 106.65402985,10.69995403 106.65435791,10.69819355","Address":"E7/1914 (Đối diện E8/215), đường Quốc lộ 50, Huyện Bình Chánh","Lat":10.698194,"Lng":106.654356},{"StationId":3027,"StationOrder":13,"StationDirection":1,"RouteId":100,"StationName":"Trạm xăng Kim Quang","pathPoints":"106.65435791,10.69819355 106.65487671,10.69541645","Address":"D7/203, đường Quốc lộ 50, Huyện Bình Chánh","Lat":10.695416,"Lng":106.654876},{"StationId":3028,"StationOrder":14,"StationDirection":1,"RouteId":100,"StationName":"Trịnh Quang Nghị","pathPoints":"106.65487671,10.69541645 106.65504456,10.69426155 106.65494537,10.69251060","Address":"D10/281, đường Quốc lộ 50, Huyện Bình Chánh","Lat":10.692511,"Lng":106.654946},{"StationId":3029,"StationOrder":15,"StationDirection":1,"RouteId":100,"StationName":"Trường Tiểu học Phong Phú","pathPoints":"106.65494537,10.69251060 106.65458679,10.69080353 106.65347290,10.68843079","Address":"B5/126, đường Quốc lộ 50, Huyện Bình Chánh","Lat":10.688431,"Lng":106.653471},{"StationId":3030,"StationOrder":16,"StationDirection":1,"RouteId":100,"StationName":"Sân banh ngã 3","pathPoints":"106.65347290,10.68843079 106.65106964,10.68308640","Address":"A2/33, đường Quốc lộ 50, Huyện Bình Chánh","Lat":10.683086,"Lng":106.651068},{"StationId":3031,"StationOrder":17,"StationDirection":1,"RouteId":100,"StationName":"Hội quán Thanh niên","pathPoints":"106.65106964,10.68308640 106.65047455,10.68155766 106.65033722,10.68084049 106.65032959,10.68021297 106.65048981,10.67798901","Address":"A4/95 (A4/94), đường Quốc lộ 50, Huyện Bình Chánh","Lat":10.677989,"Lng":106.650488},{"StationId":3032,"StationOrder":18,"StationDirection":1,"RouteId":100,"StationName":"Ngã 3 đường 3S","pathPoints":"106.65048981,10.67798901 106.65085602,10.67359161","Address":"E7/194, đường Quốc lộ 50, Huyện Bình Chánh","Lat":10.673592,"Lng":106.650853},{"StationId":3033,"StationOrder":19,"StationDirection":1,"RouteId":100,"StationName":"Trường THCS Đa Phước","pathPoints":"106.65085602,10.67359161 106.65105438,10.66976547","Address":"F11/322 (E11/323), đường Quốc lộ 50, Huyện Bình Chánh","Lat":10.669765,"Lng":106.651052},{"StationId":3034,"StationOrder":20,"StationDirection":1,"RouteId":100,"StationName":"Nghĩa trang Đa Phước","pathPoints":"106.65105438,10.66976547 106.65122986,10.66666985","Address":"D16/460A2, đường Quốc lộ 50, Huyện Bình Chánh","Lat":10.66667,"Lng":106.651229},{"StationId":3035,"StationOrder":21,"StationDirection":1,"RouteId":100,"StationName":"Đường liên Ấp 1-2","pathPoints":"106.65126801,10.66665840 106.65155029,10.66345215","Address":"Cột điện H148P (A14/396), đường Quốc lộ 50, Huyện Bình Chánh","Lat":10.662801,"Lng":106.65154},{"StationId":3036,"StationOrder":22,"StationDirection":1,"RouteId":100,"StationName":"Chùa Linh Hòa","pathPoints":"106.65154266,10.66280079 106.65177917,10.65995407","Address":"Cột điện H154P (D9/261/1A), đường Quốc lộ 50, Huyện Bình Chánh","Lat":10.659954,"Lng":106.651776},{"StationId":3038,"StationOrder":23,"StationDirection":1,"RouteId":100,"StationName":"Chùa Tam Bửu","pathPoints":"106.65177917,10.65995407 106.65188599,10.65900517 106.65313721,10.65616417","Address":"D8/34C (D8/238/8), đường Quốc lộ 50, Huyện Bình Chánh","Lat":10.656164,"Lng":106.653138},{"StationId":3039,"StationOrder":24,"StationDirection":1,"RouteId":100,"StationName":"Chùa Phước Hội","pathPoints":"106.65313721,10.65616417 106.65415955,10.65394402 106.65460968,10.65246296","Address":"D7/221A, đường Quốc lộ 50, Huyện Bình Chánh","Lat":10.652463,"Lng":106.654608},{"StationId":3040,"StationOrder":25,"StationDirection":1,"RouteId":100,"StationName":"Cầu Ông Thìn","pathPoints":"106.65501404,10.65134430 106.65599060,10.64808846","Address":"A8/22A, đường Quốc lộ 50, Huyện Bình Chánh","Lat":10.648087,"Lng":106.655982},{"StationId":3041,"StationOrder":26,"StationDirection":1,"RouteId":100,"StationName":"Trạm xăng Hoàng Thái","pathPoints":"106.65599060,10.64808846 106.65634918,10.64705944 106.65664673,10.64567757 106.65677643,10.64433765","Address":"D7/23A, đường Quốc lộ 50, Huyện Bình Chánh","Lat":10.644338,"Lng":106.656776},{"StationId":3042,"StationOrder":27,"StationDirection":1,"RouteId":100,"StationName":"Hoàng Thái Mart","pathPoints":"106.65677643,10.64433765 106.65718842,10.64123917","Address":"Đối diện 4102 (Đối diện B8/33B6), đường Quốc lộ 50, Huyện Bình Chánh","Lat":10.637843,"Lng":106.658036},{"StationId":4421,"StationOrder":28,"StationDirection":1,"RouteId":100,"StationName":"Nhà máy Kizunai","pathPoints":"106.65803528,10.63784313 106.66023254,10.63329887","Address":"Đối diện A13/2 (Quốc lộ 1A), đường Quốc lộ 50 (Quốc lộ 1A), Huyện Bình Chánh","Lat":10.633299,"Lng":106.66023},{"StationId":7212,"StationOrder":29,"StationDirection":1,"RouteId":100,"StationName":"Bến xe Gò Công","pathPoints":"106.66023254,10.63329887 106.66143799,10.63084698 106.66254425,10.62836933 106.66375732,10.62590694 106.66445923,10.62443542 106.66551208,10.62226868 106.66603088,10.62121964 106.66653442,10.61965370 106.66699219,10.61636353 106.66732025,10.61391735 106.66751099,10.61301517 106.66782379,10.61225128 106.66822052,10.61159229 106.66949463,10.60991001 106.67024231,10.60901833 106.67069244,10.60830212 106.67096710,10.60763168 106.67115021,10.60696793 106.67110443,10.60602379 106.67067719,10.60459518 106.67009735,10.60316563 106.66976929,10.60247040 106.66947174,10.60212231 106.66898346,10.60179996 106.66704559,10.60138416 106.66507721,10.60090923 106.66404724,10.60036564 106.66161346,10.59815121 106.65844727,10.59527206 106.65428925,10.59141254 106.65122223,10.58857536 106.64912415,10.58661938 106.64704895,10.58468914 106.64638519,10.58398819 106.64442444,10.58130360 106.64263153,10.57873058 106.64164734,10.57735443 106.64075470,10.57597256 106.63990021,10.57457542 106.63907623,10.57312489 106.63745880,10.57021427 106.63658142,10.56868458 106.63570404,10.56709766 106.63423157,10.56501961 106.63240814,10.56169796 106.63061523,10.55840683 106.62955475,10.55649757 106.62859344,10.55472565 106.62710571,10.55177784 106.62555695,10.54924107 106.62377167,10.54621410 106.62221527,10.54364586 106.62107849,10.54173660 106.61808014,10.53668404 106.61624908,10.53348255 106.61536407,10.53197956 106.61428070,10.53009224 106.61146545,10.52523994 106.60961151,10.52206993 106.60838318,10.51996040 106.60526276,10.51447964 106.60425568,10.51268196 106.60385132,10.51153183 106.60337830,10.50790310 106.60320282,10.50663185 106.60322571,10.50613594 106.60342407,10.50568771 106.60492706,10.50415325 106.60865021,10.50119877 106.61180115,10.49841404 106.61458588,10.49585629 106.61762238,10.49307632 106.62260437,10.48850822 106.62575531,10.48566532 106.62791443,10.48375034 106.62879181,10.48282146 106.62992859,10.48144531 106.63034058,10.48038006 106.63035583,10.47944069 106.62982178,10.47519398 106.62963867,10.47379684 106.62983704,10.47283077 106.63034821,10.47140121 106.63105774,10.47034168 106.63163757,10.46983528 106.63216400,10.46950817 106.63670349,10.46758747 106.64025116,10.46606827 106.64179993,10.46525574 106.64299774,10.46451759 106.64363098,10.46383190 106.64542389,10.46010780 106.64776611,10.45538044 106.64971924,10.45110226 106.65365601,10.44166470 106.65432739,10.44003391 106.65988922,10.43519115 106.66077423,10.43432045 106.66183472,10.43259048 106.66300964,10.43075466 106.66535187,10.42877102 106.66820526,10.42640686 106.66925049,10.42472458 106.67068481,10.42194939 106.67113495,10.42105198 106.67429352,10.41667271 106.67555237,10.41282654 106.67498016,10.40864849 106.67463684,10.40610504 106.67457581,10.40484428 106.67527008,10.40114498 106.67544556,10.40044880 106.67617035,10.39822769 106.67716217,10.39528370 106.67816925,10.39231300 106.67992401,10.38704681 106.68004608,10.38597584 106.68067169,10.38403893 106.68135834,10.38182354 106.68167877,10.38071537 106.68262482,10.37892056 106.68258667,10.37751770 106.68225861,10.37525940 106.68030548,10.37193489 106.67735291,10.36752319 106.67822266,10.36362934 106.67941284,10.36028290 106.67739868,10.35931206 106.67465973,10.35933304 106.67330933,10.35956573 106.67207336,10.35992432 106.67185211,10.36099052 106.67015076,10.36200333 106.66187286,10.36065292 106.66192627,10.35962868","Address":"Bến xe Gò Công, đường Trần Công Tưởng, Ngoại thành","Lat":10.359629,"Lng":106.661925}]