[{"StationId":2745,"StationOrder":0,"StationDirection":0,"RouteId":91,"StationName":"Bến xe buýt Thới An","pathPoints":"","Address":"BẾN XE BUÝT THỚI AN, đường Lê Văn Khương, Quận 12","Lat":10.878467,"Lng":106.64798},{"StationId":1746,"StationOrder":1,"StationDirection":0,"RouteId":91,"StationName":"UBND Phường Thới An","pathPoints":"106.64797974,10.87846661 106.64797974,10.87846661 106.64894104,10.87850857 106.64907074,10.87560081 106.64899445,10.87549591 106.64899445,10.87549591","Address":"Đài liệt sĩ, đường Lê Văn Khương, Quận 12","Lat":10.875496,"Lng":106.648997},{"StationId":1745,"StationOrder":2,"StationDirection":0,"RouteId":91,"StationName":"Bảo hiểm xã hội Quận 12","pathPoints":"106.64899445,10.87549591 106.64899445,10.87549591 106.64908600,10.87533760 106.64923096,10.87257671 106.64915466,10.87248802 106.64915466,10.87248802","Address":"251, đường Lê Văn Khương, Quận 12","Lat":10.872488,"Lng":106.649158},{"StationId":1748,"StationOrder":3,"StationDirection":0,"RouteId":91,"StationName":"Công ty Bia Tiger","pathPoints":"106.64915466,10.87248802 106.64923096,10.87239838 106.64932251,10.87048531 106.64942932,10.86866856 106.64935303,10.86850452","Address":"119, đường Lê Văn Khương, Quận 12","Lat":10.868505,"Lng":106.649351},{"StationId":1747,"StationOrder":4,"StationDirection":0,"RouteId":91,"StationName":"Metro Hiệp Phú","pathPoints":"106.64935303,10.86850452 106.64935303,10.86850452 106.64943695,10.86845207 106.64966583,10.86347866 106.64962006,10.86337852 106.64962006,10.86337852","Address":"Metro Hiệp Phú, đường Lê Văn Khương, Quận 12","Lat":10.863379,"Lng":106.649619},{"StationId":2775,"StationOrder":5,"StationDirection":0,"RouteId":91,"StationName":"Cao su Vina","pathPoints":"106.64962006,10.86337852 106.64962006,10.86337852 106.64970398,10.86212540 106.64853668,10.86176682 106.64853668,10.86176682","Address":"67/3A, đường Quốc lộ 1A, Quận 12","Lat":10.861767,"Lng":106.648536},{"StationId":2776,"StationOrder":6,"StationDirection":0,"RouteId":91,"StationName":"Cây xăng Trung Tín","pathPoints":"106.64853668,10.86176682 106.64853668,10.86176682 106.64574432,10.86021233 106.64568329,10.86030197 106.64568329,10.86030197","Address":"1828, đường Quốc lộ 1A, Quận 12","Lat":10.860302,"Lng":106.645682},{"StationId":2777,"StationOrder":7,"StationDirection":0,"RouteId":91,"StationName":"Trạm điện Hóc Môn","pathPoints":"106.64568329,10.86030197 106.64568329,10.86030197 106.64566803,10.86009121 106.64382935,10.85907459 106.64122772,10.85772038 106.64091492,10.85766792 106.64091492,10.85766792","Address":"1956, đường Quốc lộ 1A, Quận 12","Lat":10.857668,"Lng":106.640918},{"StationId":2778,"StationOrder":8,"StationDirection":0,"RouteId":91,"StationName":"Ngã tư Đình","pathPoints":"106.64091492,10.85766792 106.64091492,10.85766792 106.64091492,10.85766792 106.64082336,10.85752010 106.63845825,10.85621357 106.63816833,10.85625553 106.63816833,10.85625553 106.63816833,10.85625553","Address":"44D, đường Quốc lộ 1A, Quận 12","Lat":10.856256,"Lng":106.638172},{"StationId":2779,"StationOrder":9,"StationDirection":0,"RouteId":91,"StationName":"Nhà lầu","pathPoints":"106.63816833,10.85625553 106.63827515,10.85608196 106.63619995,10.85497093 106.63616180,10.85505486","Address":"228/3, đường Quốc lộ 1A, Quận 12","Lat":10.855055,"Lng":106.636165},{"StationId":2781,"StationOrder":10,"StationDirection":0,"RouteId":91,"StationName":"Trường Nguyễn Du","pathPoints":"106.63616180,10.85505486 106.63616180,10.85505486 106.63616180,10.85494995 106.63255310,10.85295773 106.63246918,10.85304832 106.63246918,10.85304832","Address":"Đối diện Trường Nguyễn Du, đường Quốc lộ 1A, Quận 12","Lat":10.853048,"Lng":106.632469},{"StationId":2780,"StationOrder":11,"StationDirection":0,"RouteId":91,"StationName":"Công viên Phần mềm Quang Trung","pathPoints":"106.63246918,10.85304832 106.63246918,10.85304832 106.63249207,10.85296345 106.63096619,10.85215187 106.63093567,10.85224247 106.63093567,10.85224247","Address":"Công viên phần mềm Quang Trung, đường Quốc lộ 1A, Quận 12","Lat":10.852242,"Lng":106.630935},{"StationId":2057,"StationOrder":12,"StationDirection":0,"RouteId":91,"StationName":"Công viên Phần mềm Quang Trung","pathPoints":"106.63093567,10.85224247 106.63093567,10.85224247 106.63099670,10.85212517 106.62882996,10.85108280 106.62810516,10.85116673 106.62761688,10.85132504 106.62724304,10.85151482 106.62696838,10.85185146 106.62648010,10.85270500 106.62653351,10.85272598 106.62653351,10.85272598","Address":"Công viên Phần mềm Quang Trung, đường Tô Ký, Quận 12","Lat":10.852726,"Lng":106.626531},{"StationId":2090,"StationOrder":13,"StationDirection":0,"RouteId":91,"StationName":"Công viên Phần mềm Quang Trung","pathPoints":"106.62653351,10.85272598 106.62653351,10.85272598 106.62653351,10.85272598 106.62648010,10.85271549 106.62597656,10.85360050 106.62548828,10.85418510 106.62490845,10.85473347 106.62426758,10.85517120 106.62355804,10.85552883 106.62345886,10.85536003 106.62394714,10.85512829 106.62445831,10.85481262 106.62490845,10.85448551 106.62528992,10.85412216 106.62594604,10.85329533 106.62591553,10.85324764 106.62591553,10.85324764 106.62591553,10.85324764","Address":"389, đường Tô Ký, Quận 12","Lat":10.853248,"Lng":106.625914},{"StationId":2091,"StationOrder":14,"StationDirection":0,"RouteId":91,"StationName":"Cầu vượt Quang Trung","pathPoints":"106.62591553,10.85324764 106.62591553,10.85324764 106.62599945,10.85319996 106.62686157,10.85161495 106.62703705,10.85140419 106.62726593,10.85124588 106.62753296,10.85110378 106.62833405,10.85093975 106.63010406,10.85061359 106.63061523,10.85047150 106.63114929,10.85024452 106.63214874,10.84957600 106.63217163,10.84945965 106.63217163,10.84945965","Address":"B45, đường Tô Ký, Quận 12","Lat":10.84946,"Lng":106.632174},{"StationId":2056,"StationOrder":15,"StationDirection":0,"RouteId":91,"StationName":"Chợ Cầu","pathPoints":"106.63217163,10.84945965 106.63231659,10.84943867 106.63399506,10.84825325 106.63407135,10.84814835","Address":"B79, đường Tô Ký, Quận 12","Lat":10.848148,"Lng":106.634068},{"StationId":3415,"StationOrder":16,"StationDirection":0,"RouteId":91,"StationName":"Quang Trung","pathPoints":"106.63407135,10.84814835 106.63414001,10.84814739 106.63512421,10.84748936 106.63424683,10.84676743 106.63414764,10.84673595","Address":"731 (119B), đường Nguyễn Văn Quá, Quận 12","Lat":10.846736,"Lng":106.634148},{"StationId":3414,"StationOrder":17,"StationDirection":0,"RouteId":91,"StationName":"Chợ An Sương","pathPoints":"106.63414764,10.84673595 106.63414764,10.84673595 106.63339233,10.84606171 106.63203430,10.84456539 106.63142395,10.84400082 106.63142395,10.84400082","Address":"593, đường Nguyễn Văn Quá, Quận 12","Lat":10.844001,"Lng":106.631423},{"StationId":3417,"StationOrder":18,"StationDirection":0,"RouteId":91,"StationName":"Cafe Venus","pathPoints":"106.63142395,10.84400082 106.63142395,10.84400082 106.63130188,10.84376431 106.63053131,10.84190464 106.63046265,10.84182644 106.63046265,10.84182644","Address":"507 (B168), đường Nguyễn Văn Quá, Quận 12","Lat":10.841826,"Lng":106.630463},{"StationId":3416,"StationOrder":19,"StationDirection":0,"RouteId":91,"StationName":"Trường Phan Bội Châu","pathPoints":"106.63046265,10.84182644 106.63046265,10.84182644 106.63047028,10.84175682 106.63019562,10.84097767 106.62994385,10.83971310 106.62962341,10.83845901","Address":"401, đường Nguyễn Văn Quá, Quận 12","Lat":10.838375,"Lng":106.629535},{"StationId":3419,"StationOrder":20,"StationDirection":0,"RouteId":91,"StationName":"Nhà hàng Đông Phương","pathPoints":"106.62953186,10.83837509 106.62957001,10.83826923 106.62866211,10.83489704","Address":"285, đường Nguyễn Văn Quá, Quận 12","Lat":10.834897,"Lng":106.628602},{"StationId":3421,"StationOrder":21,"StationDirection":0,"RouteId":91,"StationName":"Sân bóng đá Cây Sộp","pathPoints":"106.62860107,10.83489704 106.62860107,10.83489704 106.62790680,10.83239460 106.62786865,10.83240032 106.62786865,10.83240032","Address":"213, đường Nguyễn Văn Quá, Quận 12","Lat":10.8324,"Lng":106.627867},{"StationId":3418,"StationOrder":22,"StationDirection":0,"RouteId":91,"StationName":"Ngân hàng ACB","pathPoints":"106.62786865,10.83240032 106.62786865,10.83240032 106.62789154,10.83233166 106.62721252,10.83031368","Address":"127, đường Nguyễn Văn Quá, Quận 12","Lat":10.830282,"Lng":106.627148},{"StationId":3420,"StationOrder":23,"StationDirection":0,"RouteId":91,"StationName":"Đường song hành QL22","pathPoints":"106.62715149,10.83028221 106.62717438,10.83021832 106.62695313,10.82939625 106.62678528,10.82813740","Address":"1/48, đường Nguyễn Văn Quá, Quận 12","Lat":10.828106,"Lng":106.626713},{"StationId":272,"StationOrder":24,"StationDirection":0,"RouteId":91,"StationName":"Cầu Tham Lương - Siêu thị Thiên Hòa","pathPoints":"106.62677765,10.82809544 106.62656403,10.82615566 106.62578583,10.82693100","Address":"60A-B (1/17A), đường Trường Chinh, Quận 12","Lat":10.826957,"Lng":106.625828},{"StationId":169,"StationOrder":25,"StationDirection":0,"RouteId":91,"StationName":"Cầu Tham Lương - Siêu thị Thiên Hòa","pathPoints":"106.62583160,10.82695675 106.62583160,10.82695675 106.62583160,10.82695675 106.62583160,10.82695675 106.62572479,10.82684135 106.62524414,10.82735729 106.62512207,10.82728386 106.62553406,10.82677746 106.62596893,10.82634068 106.62586212,10.82623959","Address":"21 (Kế 2/6B), đường Trường Chinh, Quận 12","Lat":10.82624,"Lng":106.62586},{"StationId":174,"StationOrder":26,"StationDirection":0,"RouteId":91,"StationName":"Trạm Dệt Thành Công","pathPoints":"106.62586212,10.82623959 106.62599182,10.82637978 106.62699890,10.82542038 106.62803650,10.82446957 106.62949371,10.82310963 106.62975311,10.82277012 106.62998199,10.82236290 106.62982178,10.82231522","Address":"8, đường Trường Chinh, Quận Tân Phú","Lat":10.822315,"Lng":106.629825},{"StationId":173,"StationOrder":27,"StationDirection":0,"RouteId":91,"StationName":"Trạm KCN Tân Bình","pathPoints":"106.62982178,10.82231522 106.62982178,10.82231522 106.62982178,10.82231522 106.62997437,10.82233620 106.63045502,10.82090855 106.63089752,10.81946945 106.63061523,10.81938553 106.63061523,10.81938553 106.63061523,10.81938553","Address":"881, đường Trường Chinh, Quận Tân Phú","Lat":10.819386,"Lng":106.630615},{"StationId":176,"StationOrder":28,"StationDirection":0,"RouteId":91,"StationName":"Ngã 3 Chế Lan Viên","pathPoints":"106.63061523,10.81938553 106.63061523,10.81938553 106.63061523,10.81938553 106.63090515,10.81946468 106.63162994,10.81715107 106.63146973,10.81711388 106.63146973,10.81711388 106.63146973,10.81711388","Address":"831 (trước showroom o tô), đường Trường Chinh, Quận Tân Phú","Lat":10.817114,"Lng":106.631472},{"StationId":175,"StationOrder":29,"StationDirection":0,"RouteId":91,"StationName":"Chế Lan Viên","pathPoints":"106.63146973,10.81711388 106.63146973,10.81711388 106.63162231,10.81714058 106.63289642,10.81295681 106.63275146,10.81287766 106.63275146,10.81287766","Address":"28/7B, đường Trường Chinh, Quận Tân Phú","Lat":10.812878,"Lng":106.632748},{"StationId":177,"StationOrder":30,"StationDirection":0,"RouteId":91,"StationName":"Trạm Đài Liệt Sỹ","pathPoints":"106.63289642,10.81291008 106.63426208,10.80820942 106.63426208,10.80820942","Address":"1/3, đường Trường Chinh, Quận Tân Phú","Lat":10.808209,"Lng":106.634262},{"StationId":2292,"StationOrder":31,"StationDirection":0,"RouteId":91,"StationName":"Siêu thị BigC","pathPoints":"106.63426208,10.80820942 106.63426208,10.80820942 106.63432312,10.80821514 106.63450623,10.80760860 106.63497162,10.80626488 106.63477325,10.80621243 106.63477325,10.80621243","Address":"1/1, đường Trường Chinh, Quận Tân Phú","Lat":10.806212,"Lng":106.634773},{"StationId":2291,"StationOrder":32,"StationDirection":0,"RouteId":91,"StationName":"Trạm Tân Kỳ Tân Quý","pathPoints":"106.63477325,10.80621243 106.63497925,10.80623913 106.63541412,10.80489540 106.63526917,10.80480003","Address":"33/24 (659-661), đường Trường Chinh, Quận Tân Phú","Lat":10.8048,"Lng":106.635269},{"StationId":2392,"StationOrder":33,"StationDirection":0,"RouteId":91,"StationName":"Trạm Ngã ba Bà Quẹo","pathPoints":"106.63526917,10.80480003 106.63526917,10.80480003 106.63544464,10.80483150 106.63596344,10.80311394 106.63636780,10.80230999 106.63658142,10.80189705 106.63684845,10.80085373","Address":"971, đường Âu Cơ, Quận Tân Phú","Lat":10.800759,"Lng":106.636814},{"StationId":2395,"StationOrder":34,"StationDirection":0,"RouteId":91,"StationName":"Trạm chợ Võ Thành Trang","pathPoints":"106.63681030,10.80075932 106.63687134,10.80073738 106.63751984,10.79827690 106.63749695,10.79821110","Address":"885-887, đường Âu Cơ, Quận Tân Phú","Lat":10.798211,"Lng":106.637497},{"StationId":4312,"StationOrder":35,"StationDirection":0,"RouteId":91,"StationName":"Âu Cơ","pathPoints":"106.63749695,10.79821110 106.63749695,10.79821110 106.63749695,10.79821110 106.63754272,10.79821873 106.63824463,10.79587364 106.63799286,10.79436684","Address":"1033, đường Lũy Bán Bích, Quận Tân Phú","Lat":10.794367,"Lng":106.637898},{"StationId":4313,"StationOrder":36,"StationDirection":0,"RouteId":91,"StationName":"Thống Nhất","pathPoints":"106.63790131,10.79436684 106.63796234,10.79436207 106.63716888,10.78997231 106.63708496,10.78999329","Address":"903, đường Lũy Bán Bích, Quận Tân Phú","Lat":10.789993,"Lng":106.637088},{"StationId":4314,"StationOrder":37,"StationDirection":0,"RouteId":91,"StationName":"Vườn Lài","pathPoints":"106.63708496,10.78999329 106.63717651,10.78998280 106.63682556,10.78779030 106.63676453,10.78778458 106.63676453,10.78778458","Address":"821, đường Lũy Bán Bích, Quận Tân Phú","Lat":10.787785,"Lng":106.636766},{"StationId":3574,"StationOrder":38,"StationDirection":0,"RouteId":91,"StationName":"Ủy Ban nhân dân quận Tân Phú","pathPoints":"106.63676453,10.78778458 106.63676453,10.78778458 106.63662720,10.78655720 106.63638306,10.78534031 106.63638306,10.78534031","Address":"đối diện 566, đường Lũy Bán Bích, Quận Tân Phú","Lat":10.78534,"Lng":106.636385},{"StationId":3575,"StationOrder":39,"StationDirection":0,"RouteId":91,"StationName":"Phú thọ Hòa","pathPoints":"106.63638306,10.78534031 106.63638306,10.78534031 106.63623047,10.78390121 106.63594055,10.78248882 106.63594055,10.78248882","Address":"721, đường Lũy Bán Bích, Quận Tân Phú","Lat":10.782489,"Lng":106.63594},{"StationId":3576,"StationOrder":40,"StationDirection":0,"RouteId":91,"StationName":"Thoại Ngọc Hầu","pathPoints":"106.63594055,10.78248882 106.63585663,10.78107738 106.63554382,10.77986526 106.63523865,10.77921104","Address":"611, đường Lũy Bán Bích, Quận Tân Phú","Lat":10.779211,"Lng":106.635237},{"StationId":3577,"StationOrder":41,"StationDirection":0,"RouteId":91,"StationName":"Đình Hòa Thạnh","pathPoints":"106.63523865,10.77921104 106.63511658,10.77856827 106.63445282,10.77738285 106.63415527,10.77706146","Address":"531, đường Lũy Bán Bích, Quận Tân Phú","Lat":10.777061,"Lng":106.634159},{"StationId":3578,"StationOrder":42,"StationDirection":0,"RouteId":91,"StationName":"công ty nhựa Tân Phú","pathPoints":"106.63415527,10.77706146 106.63368988,10.77623940 106.63285065,10.77504826 106.63262177,10.77463245","Address":"425, đường Lũy Bán Bích, Quận Tân Phú","Lat":10.774632,"Lng":106.632625},{"StationId":3579,"StationOrder":43,"StationDirection":0,"RouteId":91,"StationName":"Cây Keo","pathPoints":"106.63262177,10.77463245 106.63237762,10.77376747 106.63198853,10.77242374 106.63182831,10.77163315","Address":"295-297, đường Lũy Bán Bích, Quận Tân Phú","Lat":10.771633,"Lng":106.631831},{"StationId":1570,"StationOrder":44,"StationDirection":0,"RouteId":91,"StationName":"Ngã 4 Hòa Bình","pathPoints":"106.63182831,10.77163315 106.63186646,10.77157021 106.63168335,10.77028465 106.63255310,10.77002621 106.63253784,10.76997280","Address":"69, đường Hòa Bình, Quận Tân Phú","Lat":10.769973,"Lng":106.632539},{"StationId":1567,"StationOrder":45,"StationDirection":0,"RouteId":91,"StationName":"Trường Hoàng Diệu","pathPoints":"106.63253784,10.76997280 106.63254547,10.77003098 106.63325500,10.76980972 106.63396454,10.76964188 106.63396454,10.76958275","Address":"49, đường Hòa Bình, Quận Tân Phú","Lat":10.769583,"Lng":106.633966},{"StationId":1571,"StationOrder":46,"StationDirection":0,"RouteId":91,"StationName":"Thuỷ Tạ","pathPoints":"106.63396454,10.76958275 106.63397980,10.76963615 106.63450623,10.76950932 106.63556671,10.76959419 106.63616180,10.76948357 106.63787842,10.76889801 106.63786316,10.76884556","Address":"ĐD 90 (nhà hàng Thủy Tạ Đầm Sen), đường Hòa Bình, Quận 11","Lat":10.768814,"Lng":106.637866},{"StationId":1569,"StationOrder":47,"StationDirection":0,"RouteId":91,"StationName":"Bãi xe buýt Đầm Sen","pathPoints":"106.63786316,10.76881409 106.63790894,10.76884556 106.63903809,10.76841927 106.63977814,10.76792908","Address":"7B (Bến xe buýt Đầm Sen), đường Hòa Bình, Quận 11","Lat":10.767929,"Lng":106.639776},{"StationId":1043,"StationOrder":48,"StationDirection":0,"RouteId":91,"StationName":"Ngã tư Hòa Bình","pathPoints":"106.63977814,10.76792908 106.64102173,10.76718521 106.64157104,10.76698017","Address":"3 (79), đường Hòa Bình, Quận 11","Lat":10.76698,"Lng":106.641571},{"StationId":1044,"StationOrder":49,"StationDirection":0,"RouteId":91,"StationName":"Tòa án nhân dân Quận 11","pathPoints":"106.64157104,10.76698017 106.64165497,10.76699066 106.64216614,10.76685333 106.64221191,10.76670647 106.64235687,10.76664829 106.64250183,10.76672173 106.64333344,10.76641655 106.64334869,10.76634216","Address":"85, đường Ông Ích Khiêm, Quận 11","Lat":10.766342,"Lng":106.643349},{"StationId":1045,"StationOrder":50,"StationDirection":0,"RouteId":91,"StationName":"Ông Ích Khiêm","pathPoints":"106.64334869,10.76634216 106.64334869,10.76634216 106.64343262,10.76639557 106.64510345,10.76583099 106.64515686,10.76573658 106.64515686,10.76573658","Address":"43, đường Ông Ích Khiêm, Quận 11","Lat":10.765737,"Lng":106.645157},{"StationId":1046,"StationOrder":51,"StationDirection":0,"RouteId":91,"StationName":"Chợ Lãnh Binh Thăng","pathPoints":"106.64515686,10.76573658 106.64515686,10.76573658 106.64520264,10.76577282 106.64633179,10.76536751 106.64674377,10.76516151 106.64675140,10.76505661 106.64675140,10.76505661","Address":"307, đường Lãnh Binh Thăng, Quận 11","Lat":10.765057,"Lng":106.646755},{"StationId":1047,"StationOrder":52,"StationDirection":0,"RouteId":91,"StationName":"Công viên Lãnh Binh Thăng","pathPoints":"106.64675140,10.76505661 106.64679718,10.76508331 106.65018463,10.76328564 106.65016937,10.76323795","Address":"281A (Siêu thị Vinatex), đường Lãnh Binh Thăng, Quận 11","Lat":10.763238,"Lng":106.650167},{"StationId":1048,"StationOrder":53,"StationDirection":0,"RouteId":91,"StationName":"Trường Trung học Phú Thọ","pathPoints":"106.65016937,10.76323795 106.65016937,10.76323795 106.65016937,10.76323795 106.65120697,10.76276970 106.65217590,10.76264286 106.65217590,10.76205826 106.65227509,10.76161003 106.65242004,10.76134109 106.65265656,10.76105118 106.65265656,10.76105118 106.65264130,10.76090431","Address":"316, đường Tôn Thất Hiệp, Quận 11","Lat":10.760904,"Lng":106.65264},{"StationId":153,"StationOrder":54,"StationDirection":0,"RouteId":91,"StationName":"Tạ Uyên","pathPoints":"106.65264130,10.76090431 106.65270233,10.76091957 106.65306854,10.76054573 106.65331268,10.76013947 106.65376282,10.76037121","Address":"1163, đường Đường 3/2, Quận 11","Lat":10.760371,"Lng":106.653763},{"StationId":154,"StationOrder":55,"StationDirection":0,"RouteId":91,"StationName":"Lê Đại Hành","pathPoints":"106.65376282,10.76037121 106.65376282,10.76037121 106.65485382,10.76101971 106.65600586,10.76156235 106.65600586,10.76156235","Address":"1007 (1029), đường Đường 3/2, Quận 11","Lat":10.761562,"Lng":106.656006},{"StationId":1049,"StationOrder":56,"StationDirection":0,"RouteId":91,"StationName":"Chợ Thiết","pathPoints":"106.65600586,10.76156235 106.65600586,10.76156235 106.65600586,10.76156235 106.65702057,10.76217365 106.65698242,10.76103592 106.65698242,10.76103592 106.65698242,10.76103592","Address":"167-169, đường Phó Cơ Điều, Quận 11","Lat":10.761036,"Lng":106.656982},{"StationId":1050,"StationOrder":57,"StationDirection":0,"RouteId":91,"StationName":"Chợ Thiếc","pathPoints":"106.65698242,10.76103592 106.65698242,10.76103592 106.65710449,10.75749969 106.65761566,10.75756836 106.65761566,10.75756836","Address":"231-233(235), đường Nguyễn Chí Thanh, Quận 5","Lat":10.757568,"Lng":106.657616},{"StationId":281,"StationOrder":58,"StationDirection":0,"RouteId":91,"StationName":"Bệnh viện Chợ Rẫy","pathPoints":"106.65761566,10.75756836 106.66012573,10.75807858","Address":"201A, đường Nguyễn Chí Thanh, Quận 5","Lat":10.758079,"Lng":106.660128},{"StationId":616,"StationOrder":59,"StationDirection":0,"RouteId":91,"StationName":"Bệnh viện Hùng Vương","pathPoints":"106.66012573,10.75807858 106.66012573,10.75807858 106.66142273,10.75834274 106.66220856,10.75570202 106.66220856,10.75570202","Address":"Hông Bệnh viện Hùng Vương, đường Lý Thường Kiệt, Quận 5","Lat":10.755702,"Lng":106.66221},{"StationId":434,"StationOrder":60,"StationDirection":0,"RouteId":91,"StationName":"Hùng Vương Plaza","pathPoints":"106.66220856,10.75570202 106.66220856,10.75570202 106.66216278,10.75540161 106.66107178,10.75519562 106.66107178,10.75519562","Address":"132, đường Hồng Bàng, Quận 5","Lat":10.755196,"Lng":106.661072},{"StationId":436,"StationOrder":61,"StationDirection":0,"RouteId":91,"StationName":"Bệnh viện Chợ Rẫy","pathPoints":"106.66107178,10.75519562 106.66107178,10.75519562 106.66106415,10.75515938 106.65954590,10.75484276 106.65950012,10.75487518 106.65950012,10.75487518","Address":"172, đường Hồng Bàng, Quận 5","Lat":10.754875,"Lng":106.659501},{"StationId":397,"StationOrder":62,"StationDirection":0,"RouteId":91,"StationName":"Rạp Đại Quang","pathPoints":"106.65950012,10.75487518 106.65823364,10.75456905 106.65821075,10.75424194 106.65859985,10.75310421 106.65879059,10.75244522","Address":"81, đường Châu Văn Liêm, Quận 5","Lat":10.752445,"Lng":106.658792},{"StationId":137,"StationOrder":63,"StationDirection":0,"RouteId":91,"StationName":"Bưu điện Quận 5","pathPoints":"106.65879059,10.75244522 106.65889740,10.75138092","Address":"13-15, đường Châu Văn Liêm, Quận 5","Lat":10.751381,"Lng":106.658894},{"StationId":617,"StationOrder":64,"StationDirection":0,"RouteId":91,"StationName":"Tùng Thiện Vương","pathPoints":"106.65889740,10.75138092 106.65905762,10.75088501 106.65901947,10.75078487 106.65907288,10.75065899 106.65917206,10.75060558 106.65929413,10.75060558 106.65965271,10.75050068 106.65982056,10.75041103 106.65991974,10.75021553 106.66042328,10.74874020 106.66049957,10.74831867 106.66050720,10.74790764 106.66036224,10.74702168 106.65978241,10.74688530 106.65922546,10.74632645 106.65883636,10.74577808 106.65692902,10.74483013","Address":"388, đường Tùng Thiện Vương, Quận 8","Lat":10.74483,"Lng":106.656926},{"StationId":618,"StationOrder":65,"StationDirection":0,"RouteId":91,"StationName":"Chùa Pháp Quang","pathPoints":"106.65692902,10.74483013 106.65617371,10.74440765 106.65563965,10.74380684 106.65553284,10.74354362 106.65547943,10.74324799 106.65550995,10.74296379 106.65557098,10.74267960 106.65628052,10.74075031 106.65614319,10.73864174","Address":"100, đường Quốc lộ 50, Quận 8","Lat":10.738642,"Lng":106.656142},{"StationId":619,"StationOrder":66,"StationDirection":0,"RouteId":91,"StationName":"Bùi Minh Trực","pathPoints":"106.65614319,10.73864174 106.65614319,10.73864174 106.65624237,10.73858929 106.65626526,10.73806190 106.65621185,10.73653412 106.65612793,10.73645973 106.65612793,10.73645973","Address":"224, đường Quốc lộ 50, Quận 8","Lat":10.73646,"Lng":106.656126},{"StationId":496,"StationOrder":67,"StationDirection":0,"RouteId":91,"StationName":"Bến xe buýt Quận 8","pathPoints":"106.65612793,10.73645973 106.65612793,10.73645973 106.65621185,10.73647022 106.65615082,10.73353958 106.65635681,10.73354530 106.65635681,10.73354530","Address":"BẾN XE BUÝT QUẬN 8, đường Quốc lộ 50, Quận 8","Lat":10.733545,"Lng":106.656357},{"StationId":496,"StationOrder":0,"StationDirection":1,"RouteId":91,"StationName":"Bến xe buýt Quận 8","pathPoints":"","Address":"BẾN XE BUÝT QUẬN 8, đường Quốc lộ 50, Quận 8","Lat":10.733545,"Lng":106.656357},{"StationId":502,"StationOrder":1,"StationDirection":1,"RouteId":91,"StationName":"Bùi Minh Trực","pathPoints":"106.65635681,10.73354530 106.65676880,10.73354053 106.65679932,10.73407269 106.65618134,10.73404121 106.65624237,10.73641777 106.65634918,10.73645973","Address":"193, đường Quốc lộ 50, Quận 8","Lat":10.73646,"Lng":106.656346},{"StationId":499,"StationOrder":2,"StationDirection":1,"RouteId":91,"StationName":"Cầu Nhị Thiên Đường","pathPoints":"106.65634918,10.73645973 106.65624237,10.73646545 106.65631104,10.73877907 106.65642548,10.73876858","Address":"81, đường Quốc lộ 50, Quận 8","Lat":10.738769,"Lng":106.656427},{"StationId":542,"StationOrder":3,"StationDirection":1,"RouteId":91,"StationName":"Tùng Thiện Vương","pathPoints":"106.65642548,10.73876858 106.65630341,10.73880005 106.65641785,10.74069214 106.65628052,10.74123478 106.65570831,10.74260998 106.65558624,10.74295044 106.65554810,10.74326038 106.65557861,10.74351978 106.65567780,10.74376965 106.65579987,10.74396992 106.65583801,10.74407005 106.65602112,10.74423981 106.65647888,10.74448013 106.65679932,10.74451256","Address":"487, đường Tùng Thiện Vương, Quận 8","Lat":10.744513,"Lng":106.656802},{"StationId":501,"StationOrder":4,"StationDirection":1,"RouteId":91,"StationName":"Chợ Xóm Củi","pathPoints":"106.65679932,10.74451256 106.65676117,10.74459743 106.65904999,10.74584961 106.65965271,10.74612045 106.65975952,10.74607277","Address":"337, đường Tùng Thiện Vương, Quận 8","Lat":10.746073,"Lng":106.659763},{"StationId":3,"StationOrder":5,"StationDirection":1,"RouteId":91,"StationName":"Bưu điện Quận 5","pathPoints":"106.65975952,10.74607277 106.65972137,10.74616814 106.66024780,10.74643993 106.66036224,10.74650955 106.66045380,10.74662971 106.66059875,10.74779987 106.66062927,10.74816990 106.66062164,10.74831009 106.66056824,10.74868011 106.66046143,10.74899960 106.66005707,10.75010967 106.66007233,10.75022030 106.66011810,10.75030994 106.66021729,10.75037956 106.66040039,10.75045967 106.66056061,10.75055981 106.66060638,10.75063992 106.66110229,10.75092030 106.66133881,10.75100994 106.66150665,10.75104046 106.66149902,10.75119972 106.66127014,10.75113010 106.66092682,10.75098038 106.66050720,10.75072002 106.66026306,10.75057030 106.66011810,10.75053024 106.65998077,10.75053024 106.65986633,10.75055027 106.65966034,10.75063038 106.65933228,10.75076962 106.65920258,10.75091648 106.65914917,10.75135994 106.65920258,10.75136757","Address":"14-16, đường Châu Văn Liêm, Quận 5","Lat":10.751368,"Lng":106.659203},{"StationId":5,"StationOrder":6,"StationDirection":1,"RouteId":91,"StationName":"Rạp Đại Quang","pathPoints":"106.65920258,10.75136757 106.65912628,10.75135994 106.65893555,10.75256634","Address":"68, đường Châu Văn Liêm, Quận 5","Lat":10.752566,"Lng":106.658937},{"StationId":437,"StationOrder":7,"StationDirection":1,"RouteId":91,"StationName":"Bệnh viện Chợ Rẫy","pathPoints":"106.65893555,10.75256634 106.65840149,10.75444984 106.65921783,10.75459957 106.65923309,10.75455284","Address":"357-359, đường Hồng Bàng, Quận 5","Lat":10.754553,"Lng":106.659232},{"StationId":544,"StationOrder":8,"StationDirection":1,"RouteId":91,"StationName":"Bệnh viện Hùng Vương","pathPoints":"106.65923309,10.75455284 106.65921783,10.75459957 106.66153717,10.75502014 106.66245270,10.75520992 106.66236877,10.75539017 106.66223145,10.75598717 106.66233063,10.75601292","Address":"4, đường Lý Thường Kiệt, Quận 5","Lat":10.756013,"Lng":106.662333},{"StationId":393,"StationOrder":9,"StationDirection":1,"RouteId":91,"StationName":"Bệnh viện Răng Hàm Mặt","pathPoints":"106.66233063,10.75601292 106.66223907,10.75598145 106.66156006,10.75843716 106.66084290,10.75829506 106.66082764,10.75836372","Address":"598, đường Nguyễn Chí Thanh, Quận 11","Lat":10.758364,"Lng":106.660828},{"StationId":1014,"StationOrder":10,"StationDirection":1,"RouteId":91,"StationName":"Đường 3/2","pathPoints":"106.66082764,10.75836372 106.66082764,10.75836372 106.66084290,10.75831032 106.65824890,10.75774670 106.65862274,10.75886917 106.65884399,10.75966549 106.65823364,10.76049042 106.65762329,10.76138973 106.65732574,10.76183128","Address":"170-172, đường Lê Đại Hành, Quận 11","Lat":10.761831,"Lng":106.657323},{"StationId":1016,"StationOrder":11,"StationDirection":1,"RouteId":91,"StationName":"Cổng chào Công viên Đầm sen","pathPoints":"106.65732574,10.76183128 106.65698242,10.76225281 106.65663147,10.76216030 106.65589905,10.76224041 106.65586090,10.76228523","Address":"20, đường Lãnh Binh Thăng, Quận 11","Lat":10.762285,"Lng":106.655858},{"StationId":1023,"StationOrder":12,"StationDirection":1,"RouteId":91,"StationName":"Chợ Phú Thọ","pathPoints":"106.65586090,10.76228523 106.65579224,10.76226330 106.65386200,10.76247978 106.65380096,10.76252174","Address":"134, đường Lãnh Binh Thăng, Quận 11","Lat":10.762522,"Lng":106.653798},{"StationId":1018,"StationOrder":13,"StationDirection":1,"RouteId":91,"StationName":"Công viên Lãnh Binh Thăng","pathPoints":"106.65380096,10.76252174 106.65373230,10.76249027 106.65174866,10.76272011 106.65119934,10.76277447 106.65074921,10.76307011","Address":"Đối diện Trường mầm non (278), đường Lãnh Binh Thăng, Quận 11","Lat":10.76307,"Lng":106.650746},{"StationId":1024,"StationOrder":14,"StationDirection":1,"RouteId":91,"StationName":"Nhà văn hóa Quận 11","pathPoints":"106.65074921,10.76307011 106.65063477,10.76308060 106.64943695,10.76372814 106.64939117,10.76381302","Address":"284, đường Lãnh Binh Thăng, Quận 11","Lat":10.763813,"Lng":106.649389},{"StationId":1027,"StationOrder":15,"StationDirection":1,"RouteId":91,"StationName":"Chợ Lãnh Binh Thăng","pathPoints":"106.64939117,10.76381302 106.64929962,10.76380253 106.64695740,10.76504040 106.64692688,10.76511955","Address":"308-310, đường Lãnh Binh Thăng, Quận 11","Lat":10.76512,"Lng":106.646926},{"StationId":1020,"StationOrder":16,"StationDirection":1,"RouteId":91,"StationName":"Tòa án nhân dân Quận 11","pathPoints":"106.64692688,10.76511955 106.64633942,10.76539993 106.64530182,10.76578426 106.64311981,10.76651669 106.64308167,10.76659012","Address":"150, đường Ông Ích Khiêm, Quận 11","Lat":10.76659,"Lng":106.643082},{"StationId":1029,"StationOrder":17,"StationDirection":1,"RouteId":91,"StationName":"Bãi xe buýt Đầm Sen","pathPoints":"106.64308167,10.76659012 106.64250183,10.76675034 106.64250946,10.76677990 106.64250946,10.76683044 106.64247131,10.76692009 106.64237976,10.76698017 106.64231110,10.76698017 106.64225006,10.76696014 106.64218140,10.76688957 106.64163971,10.76702976 106.64117432,10.76719570","Address":"40A, đường Hòa Bình, Quận 11","Lat":10.767196,"Lng":106.641176},{"StationId":1616,"StationOrder":18,"StationDirection":1,"RouteId":91,"StationName":"Trường Hòa Bình","pathPoints":"106.64117432,10.76719570 106.64102936,10.76721764 106.63943481,10.76818180 106.63925934,10.76836109","Address":"72, đường Hòa Bình, Quận 11","Lat":10.768361,"Lng":106.639261},{"StationId":1604,"StationOrder":19,"StationDirection":1,"RouteId":91,"StationName":"Đầm Sen","pathPoints":"106.63909912,10.76842022 106.63761139,10.76900005 106.63701630,10.76924038","Address":"45 (Đối diện công viên nước Đầm Sen), đường Hòa Bình, Quận Tân Phú","Lat":10.769367,"Lng":106.63707},{"StationId":1617,"StationOrder":20,"StationDirection":1,"RouteId":91,"StationName":"Chùa Huệ Quang","pathPoints":"106.63701630,10.76924038 106.63658905,10.76939964 106.63613892,10.76953030 106.63587189,10.76957989 106.63551331,10.76959038 106.63526917,10.76955986","Address":"116, đường Hòa Bình, Quận Tân Phú","Lat":10.769599,"Lng":106.634604},{"StationId":1619,"StationOrder":21,"StationDirection":1,"RouteId":91,"StationName":"Ngã 4 Hòa Bình","pathPoints":"106.63460541,10.76959896 106.63455200,10.76953030 106.63387299,10.76965237 106.63288116,10.76993084 106.63283539,10.77000999","Address":"126, đường Hòa Bình, Quận Tân Phú","Lat":10.77001,"Lng":106.632839},{"StationId":2583,"StationOrder":22,"StationDirection":1,"RouteId":91,"StationName":"Cây Keo","pathPoints":"106.63283539,10.77000999 106.63283539,10.77000999 106.63275909,10.76998425 106.63181305,10.77025318 106.63207245,10.77182770 106.63207245,10.77182770","Address":"260, đường Lũy Bán Bích, Quận Tân Phú","Lat":10.771828,"Lng":106.632072},{"StationId":4292,"StationOrder":23,"StationDirection":1,"RouteId":91,"StationName":"Công ty Nhựa Tân Phú","pathPoints":"106.63207245,10.77182770 106.63207245,10.77182770 106.63203430,10.77193928 106.63227081,10.77328777 106.63264465,10.77432632 106.63276672,10.77443695 106.63276672,10.77443695","Address":"314, đường Lũy Bán Bích, Quận Tân Phú","Lat":10.774437,"Lng":106.632764},{"StationId":4317,"StationOrder":24,"StationDirection":1,"RouteId":91,"StationName":"Đình Hòa Thạnh","pathPoints":"106.63276672,10.77443695 106.63272858,10.77454281 106.63324738,10.77543831 106.63383484,10.77631283 106.63396454,10.77635479","Address":"394, đường Lũy Bán Bích, Quận Tân Phú","Lat":10.776355,"Lng":106.633966},{"StationId":4318,"StationOrder":25,"StationDirection":1,"RouteId":91,"StationName":"Thoại Ngọc Hầu","pathPoints":"106.63396454,10.77635479 106.63396454,10.77635479 106.63502502,10.77815247 106.63545990,10.77940655 106.63557434,10.77946377 106.63557434,10.77946377","Address":"464, đường Lũy Bán Bích, Quận Tân Phú","Lat":10.779464,"Lng":106.635575},{"StationId":4319,"StationOrder":26,"StationDirection":1,"RouteId":91,"StationName":"Phú thọ Hòa","pathPoints":"106.63557434,10.77946377 106.63557434,10.77946377 106.63557434,10.77946377 106.63553619,10.77959061 106.63574982,10.78028107 106.63591003,10.78098774 106.63620758,10.78303242 106.63627625,10.78304768 106.63627625,10.78304768 106.63627625,10.78304768","Address":"558, đường Lũy Bán Bích, Quận Tân Phú","Lat":10.783048,"Lng":106.636273},{"StationId":4320,"StationOrder":27,"StationDirection":1,"RouteId":91,"StationName":"Ủy Ban nhân dân quận Tân Phú","pathPoints":"106.63627625,10.78304768 106.63627625,10.78304768 106.63621521,10.78316402 106.63649750,10.78500271 106.63660431,10.78505039 106.63660431,10.78505039","Address":"564, đường Lũy Bán Bích, Quận Tân Phú","Lat":10.78505,"Lng":106.636605},{"StationId":4321,"StationOrder":28,"StationDirection":1,"RouteId":91,"StationName":"Vườn Lài","pathPoints":"106.63660431,10.78505039 106.63660431,10.78505039 106.63655090,10.78513432 106.63695526,10.78799057 106.63703156,10.78808594 106.63703156,10.78808594","Address":"620, đường Lũy Bán Bích, Quận Tân Phú","Lat":10.788086,"Lng":106.637029},{"StationId":4322,"StationOrder":29,"StationDirection":1,"RouteId":91,"StationName":"Thống Nhất","pathPoints":"106.63703156,10.78808594 106.63703156,10.78808594 106.63697815,10.78820705 106.63722229,10.78959751 106.63730621,10.78969288 106.63730621,10.78969288","Address":"672, đường Lũy Bán Bích, Quận Tân Phú","Lat":10.789693,"Lng":106.637303},{"StationId":4323,"StationOrder":30,"StationDirection":1,"RouteId":91,"StationName":"Âu Cơ","pathPoints":"106.63730621,10.78969288 106.63730621,10.78969288 106.63725281,10.78974533 106.63768005,10.79211712 106.63805389,10.79450893 106.63811493,10.79454136 106.63811493,10.79454136","Address":"742 (kios 10), đường Lũy Bán Bích, Quận Tân Phú","Lat":10.794541,"Lng":106.638118},{"StationId":2422,"StationOrder":31,"StationDirection":1,"RouteId":91,"StationName":"Ngã ba Ba Vân","pathPoints":"106.63811493,10.79454136 106.63807678,10.79459858 106.63829041,10.79574776 106.63823700,10.79595852 106.63835144,10.79599953","Address":"928, đường Âu Cơ, Quận Tân Bình","Lat":10.796,"Lng":106.638349},{"StationId":2425,"StationOrder":32,"StationDirection":1,"RouteId":91,"StationName":"Chợ Võ Thành Trang","pathPoints":"106.63835144,10.79599953 106.63822174,10.79598999 106.63745117,10.79866123 106.63757324,10.79870892","Address":"988-990, đường Âu Cơ, Quận Tân Bình","Lat":10.798709,"Lng":106.637576},{"StationId":2424,"StationOrder":33,"StationDirection":1,"RouteId":91,"StationName":"Ngã ba Bà Quẹo","pathPoints":"106.63757324,10.79870892 106.63745117,10.79869843 106.63692474,10.80060577 106.63704681,10.80067444","Address":"1064, đường Âu Cơ, Quận Tân Bình","Lat":10.800674,"Lng":106.637045},{"StationId":1302,"StationOrder":34,"StationDirection":1,"RouteId":91,"StationName":"Ngã tư Tân Kỳ Tân Quý","pathPoints":"106.63704681,10.80067444 106.63691711,10.80065823 106.63654327,10.80213451 106.63610840,10.80295563 106.63555908,10.80469513 106.63562775,10.80473232","Address":"638, đường Trường Chinh, Quận Tân Bình","Lat":10.804732,"Lng":106.635629},{"StationId":2202,"StationOrder":35,"StationDirection":1,"RouteId":91,"StationName":"Siêu thị Big C","pathPoints":"106.63562775,10.80473232 106.63556671,10.80474281 106.63513184,10.80617046 106.63518524,10.80620193","Address":"680, đường Trường Chinh, Quận Tân Bình","Lat":10.806202,"Lng":106.635184},{"StationId":268,"StationOrder":36,"StationDirection":1,"RouteId":91,"StationName":"Mũi tàu Cộng Hòa","pathPoints":"106.63518524,10.80620193 106.63511658,10.80621815 106.63491058,10.80690289 106.63487244,10.80759811 106.63466644,10.80801964 106.63469696,10.80807781","Address":"19B1, đường Trường Chinh, Quận Tân Bình","Lat":10.808078,"Lng":106.634696},{"StationId":267,"StationOrder":37,"StationDirection":1,"RouteId":91,"StationName":"Ngã ba Chế Lan Viên","pathPoints":"106.63469696,10.80807781 106.63451385,10.80830956 106.63334656,10.81220436","Address":"Đối diện đường Chế Lan Viên, đường Trường Chinh, Quận Tân Bình","Lat":10.812204,"Lng":106.633349},{"StationId":270,"StationOrder":38,"StationDirection":1,"RouteId":91,"StationName":"UBND Phường 15","pathPoints":"106.63334656,10.81220436 106.63146210,10.81833172","Address":"850, đường Trường Chinh, Quận Tân Bình","Lat":10.818332,"Lng":106.631461},{"StationId":271,"StationOrder":39,"StationDirection":1,"RouteId":91,"StationName":"Khu Công Nghiệp Tân Bình","pathPoints":"106.63146210,10.81833172 106.63044739,10.82164383 106.63025665,10.82245159","Address":"932, đường Trường Chinh, Quận Tân Bình","Lat":10.822452,"Lng":106.630254},{"StationId":3407,"StationOrder":40,"StationDirection":1,"RouteId":91,"StationName":"Đường song hành QL 22","pathPoints":"106.63025665,10.82245159 106.63014984,10.82237816 106.62976837,10.82297993 106.62959290,10.82320023 106.62840271,10.82431984 106.62654877,10.82602024 106.62669373,10.82703972 106.62670135,10.82732010 106.62676239,10.82732296","Address":"1/42, đường Nguyễn Văn Quá, Quận 12","Lat":10.827323,"Lng":106.626762},{"StationId":3406,"StationOrder":41,"StationDirection":1,"RouteId":91,"StationName":"Ngân hàng ACB","pathPoints":"106.62676239,10.82732296 106.62676239,10.82732296 106.62679291,10.82793713 106.62696838,10.82938576 106.62715149,10.82990837 106.62715149,10.82990837","Address":"90A, đường Nguyễn Văn Quá, Quận 12","Lat":10.829908,"Lng":106.627148},{"StationId":3409,"StationOrder":42,"StationDirection":1,"RouteId":91,"StationName":"Sân bóng Cây Sộp","pathPoints":"106.62715149,10.82990837 106.62751007,10.83111382 106.62789154,10.83206844","Address":"184 (Kế 1/97), đường Nguyễn Văn Quá, Quận 12","Lat":10.832068,"Lng":106.627888},{"StationId":3408,"StationOrder":43,"StationDirection":1,"RouteId":91,"StationName":"Nhà hàng Đông Phương","pathPoints":"106.62789154,10.83206844 106.62786102,10.83217812 106.62827301,10.83353996 106.62875366,10.83514023 106.62894440,10.83588791 106.62899780,10.83590889","Address":"344, đường Nguyễn Văn Quá, Quận 12","Lat":10.835909,"Lng":106.628999},{"StationId":3411,"StationOrder":44,"StationDirection":1,"RouteId":91,"StationName":"Trường Phan Bội Châu","pathPoints":"106.62899780,10.83590889 106.62899780,10.83590889 106.62924194,10.83698368 106.62957764,10.83803177 106.62957764,10.83803177","Address":"430 (21A), đường Nguyễn Văn Quá, Quận 12","Lat":10.838032,"Lng":106.629578},{"StationId":3410,"StationOrder":45,"StationDirection":1,"RouteId":91,"StationName":"Cafe Venus","pathPoints":"106.62957764,10.83803177 106.62955475,10.83816910 106.63004303,10.84010983 106.63009644,10.84045029 106.63018799,10.84094048 106.63037109,10.84144592 106.63045502,10.84152985","Address":"566, đường Nguyễn Văn Quá, Quận 12","Lat":10.84153,"Lng":106.630458},{"StationId":3412,"StationOrder":46,"StationDirection":1,"RouteId":91,"StationName":"Chợ An Sương","pathPoints":"106.63045502,10.84152985 106.63043213,10.84163094 106.63134003,10.84384346 106.63182831,10.84432793 106.63194275,10.84436035","Address":"708 (Trung tâm y tế), đường Nguyễn Văn Quá, Quận 12","Lat":10.84436,"Lng":106.631944},{"StationId":3413,"StationOrder":47,"StationDirection":1,"RouteId":91,"StationName":"Quang Trung","pathPoints":"106.63194275,10.84436035 106.63194275,10.84436035 106.63197327,10.84445953 106.63338470,10.84605122 106.63382721,10.84640408 106.63388824,10.84641457 106.63388824,10.84641457","Address":"794 (52), đường Nguyễn Văn Quá, Quận 12","Lat":10.846415,"Lng":106.633886},{"StationId":2092,"StationOrder":48,"StationDirection":1,"RouteId":91,"StationName":"Chợ Cầu","pathPoints":"106.63388824,10.84641457 106.63388824,10.84641457 106.63388824,10.84641457 106.63493347,10.84733105 106.63516235,10.84758377 106.63433075,10.84817410 106.63436127,10.84825325 106.63436127,10.84825325 106.63436127,10.84825325","Address":"84A, đường Tô Ký, Quận 12","Lat":10.848253,"Lng":106.634363},{"StationId":2052,"StationOrder":49,"StationDirection":1,"RouteId":91,"StationName":"Cầu vượt Quang Trung","pathPoints":"106.63436127,10.84825325 106.63424683,10.84826374 106.63220215,10.84974384 106.63218689,10.84982300","Address":"170, đường Tô Ký, Quận 12","Lat":10.849823,"Lng":106.632185},{"StationId":2677,"StationOrder":50,"StationDirection":1,"RouteId":91,"StationName":"Trường Nguyễn Du","pathPoints":"106.63218689,10.84982300 106.63188171,10.85000992 106.63114166,10.85058022 106.63107300,10.85066986 106.63099670,10.85079002 106.63099670,10.85093021 106.63108063,10.85107040 106.63130951,10.85126019 106.63146210,10.85144043 106.63153839,10.85161972 106.63159180,10.85181046 106.63166809,10.85198021 106.63185120,10.85223007 106.63208008,10.85249424 106.63234711,10.85258293","Address":"Trường Nguyễn Du, đường Quốc lộ 1A, Quận 12","Lat":10.852583,"Lng":106.632347},{"StationId":2675,"StationOrder":51,"StationDirection":1,"RouteId":91,"StationName":"Bảo vệ Nam Hải","pathPoints":"106.63234711,10.85258293 106.63459015,10.85383224 106.63468170,10.85380554","Address":"103/4B, đường Quốc lộ 1A, Quận 12","Lat":10.853806,"Lng":106.634679},{"StationId":2676,"StationOrder":52,"StationDirection":1,"RouteId":91,"StationName":"Ngã tư Đình","pathPoints":"106.63468170,10.85380554 106.63468170,10.85380554 106.63482666,10.85401154 106.63980103,10.85671997 106.63983154,10.85666656 106.63983154,10.85666656","Address":"1781, đường Quốc lộ 1A, Quận 12","Lat":10.856667,"Lng":106.639832},{"StationId":2678,"StationOrder":53,"StationDirection":1,"RouteId":91,"StationName":"Cây xăng Năng lượng","pathPoints":"106.63983154,10.85666656 106.63980103,10.85671997 106.64185333,10.85785007 106.64417267,10.85910034 106.64423370,10.85895348","Address":"Kế cây xăng Năng lượng, đường Quốc lộ 1A, Quận 12","Lat":10.858953,"Lng":106.644233},{"StationId":2680,"StationOrder":54,"StationDirection":1,"RouteId":91,"StationName":"Cao su Vina","pathPoints":"106.64423370,10.85895348 106.64423370,10.85895348 106.64427948,10.85909557 106.64528656,10.85972786 106.64777374,10.86102962 106.64778137,10.86096954 106.64778137,10.86096954","Address":"1721, đường Quốc lộ 1A, Quận 12","Lat":10.86097,"Lng":106.647781},{"StationId":1670,"StationOrder":55,"StationDirection":1,"RouteId":91,"StationName":"Metro Hiệp Phú","pathPoints":"106.64778137,10.86096954 106.64777374,10.86102962 106.64784241,10.86104965 106.64851379,10.86139965 106.64910889,10.86168957 106.64977264,10.86188793 106.64968109,10.86273098 106.64966583,10.86361027 106.64970398,10.86371136","Address":"48, đường Lê Văn Khương, Quận 12","Lat":10.863711,"Lng":106.649705},{"StationId":1669,"StationOrder":56,"StationDirection":1,"RouteId":91,"StationName":"Công ty Bia Tiger","pathPoints":"106.64970398,10.86371136 106.64970398,10.86371136 106.64966583,10.86390018 106.64955139,10.86590767 106.64949036,10.86808300 106.64955139,10.86809444 106.64955139,10.86809444","Address":"Công ty Bia Tiger, đường Lê Văn Khương, Quận 12","Lat":10.868094,"Lng":106.649555},{"StationId":1674,"StationOrder":57,"StationDirection":1,"RouteId":91,"StationName":"Bảo hiểm xã hội Quận 12","pathPoints":"106.64955139,10.86809444 106.64955139,10.86809444 106.64946747,10.86812592 106.64925385,10.87202358 106.64933777,10.87206554 106.64933777,10.87206554","Address":"270, đường Lê Văn Khương, Quận 12","Lat":10.872066,"Lng":106.649335},{"StationId":1671,"StationOrder":58,"StationDirection":1,"RouteId":91,"StationName":"UBND Phường Thới An","pathPoints":"106.64933777,10.87206554 106.64933777,10.87206554 106.64933777,10.87206554 106.64925385,10.87213421 106.64912415,10.87513256 106.64918518,10.87519455 106.64918518,10.87519455","Address":"UBND Phường Thới An, đường Lê Văn Khương, Quận 12","Lat":10.875195,"Lng":106.649185},{"StationId":2745,"StationOrder":59,"StationDirection":1,"RouteId":91,"StationName":"Bến xe buýt Thới An","pathPoints":"106.64918518,10.87519455 106.64918518,10.87519455 106.64910126,10.87532711 106.64894104,10.87850857 106.64797974,10.87846661","Address":"BẾN XE BUÝT THỚI AN, đường Lê Văn Khương, Quận 12","Lat":10.878467,"Lng":106.64798}]