[{"StationId":946,"StationOrder":0,"StationDirection":0,"RouteId":14,"StationName":"Bến xe Ngã tư Ga","pathPoints":"","Address":"Bến xe Ngã Tư Ga, đường Quốc lộ 1A, Quận 12","Lat":10.862156867980957,"Lng":106.67835998535156},{"StationId":976,"StationOrder":1,"StationDirection":0,"RouteId":14,"StationName":"Khu QLGTĐT số 3","pathPoints":"106.67835999,10.86215687 106.67832947,10.86167717 106.67647552,10.86183548 106.67456055,10.86187744 106.67456055,10.86196709","Address":"96/2, đường Quốc lộ 1A, Quận 12","Lat":10.861967,"Lng":106.674564},{"StationId":964,"StationOrder":2,"StationDirection":0,"RouteId":14,"StationName":"Tô Ngọc Vân","pathPoints":"106.67456055,10.86196709 106.67456055,10.86186695 106.67193604,10.86182976 106.67193604,10.86190414","Address":"972, đường Quốc lộ 1A, Quận 12","Lat":10.861904,"Lng":106.671935},{"StationId":965,"StationOrder":3,"StationDirection":0,"RouteId":14,"StationName":"Trường Mầm non Ngôi Nhà Trẻ Thơ","pathPoints":"106.67193604,10.86190414 106.67193604,10.86190414 106.67193604,10.86190414 106.67194366,10.86180878 106.66745758,10.86175060 106.66745758,10.86187744 106.66745758,10.86187744","Address":"990, đường Quốc lộ 1A, Quận 12","Lat":10.861877,"Lng":106.667461},{"StationId":977,"StationOrder":4,"StationDirection":0,"RouteId":14,"StationName":"Cơ khí Minh Huy","pathPoints":"106.66745758,10.86187744 106.66745758,10.86187744 106.66747284,10.86177731 106.66139221,10.86169338 106.66139221,10.86181927 106.66139221,10.86181927","Address":"1218/11, đường Quốc lộ 1A, Quận 12","Lat":10.861819,"Lng":106.661389},{"StationId":966,"StationOrder":5,"StationDirection":0,"RouteId":14,"StationName":"Đá hoa cương Chí Thành","pathPoints":"106.66139221,10.86181927 106.66139221,10.86181927 106.66136932,10.86169338 106.65716553,10.86186123 106.65718079,10.86198807 106.65718079,10.86198807","Address":"1360, đường Quốc lộ 1A, Quận 12","Lat":10.861988,"Lng":106.657183},{"StationId":969,"StationOrder":6,"StationDirection":0,"RouteId":14,"StationName":"Quận ủy Quận 12","pathPoints":"106.65718079,10.86198807 106.65718079,10.86198807 106.65718842,10.86187744 106.65445709,10.86198807 106.65341949,10.86204624 106.65342712,10.86211395 106.65342712,10.86211395","Address":"1456 (Quận Ủy quận 12), đường Quốc lộ 1A, Quận 12","Lat":10.862114,"Lng":106.653428},{"StationId":972,"StationOrder":7,"StationDirection":0,"RouteId":14,"StationName":"Tân Thới Hiệp","pathPoints":"106.65342712,10.86211395 106.65342712,10.86211395 106.65342712,10.86204624 106.65267944,10.86205959 106.65244293,10.86209965 106.65189362,10.86211967 106.65074921,10.86218834 106.65075684,10.86227322 106.65075684,10.86227322 106.65075684,10.86227322","Address":"1680, đường Quốc lộ 1A, Quận 12","Lat":10.862273,"Lng":106.650757},{"StationId":973,"StationOrder":8,"StationDirection":0,"RouteId":14,"StationName":"Nhà thờ Nữ Vương Hòa Bình","pathPoints":"106.65075684,10.86227322 106.65075684,10.86217976 106.65035248,10.86217976 106.64972687,10.86210918 106.64981079,10.86133003 106.64991760,10.86085510 106.65023804,10.86047649 106.65110779,10.85962009 106.65166473,10.85908508 106.65387726,10.85691452 106.65382385,10.85683632","Address":"Đối diện nhà thờ Nữ Vương Hòa Bình, đường Lê Đức Thọ, Quận Gò Vấp","Lat":10.856836,"Lng":106.653825},{"StationId":974,"StationOrder":9,"StationDirection":0,"RouteId":14,"StationName":"Ngã ba Lê Đức Thọ","pathPoints":"106.65382385,10.85683632 106.65389252,10.85687733 106.65496826,10.85587120 106.65592957,10.85485458 106.65596771,10.85414886","Address":"603 (đối diện 658), đường Lê Văn Thọ, Quận Gò Vấp","Lat":10.854149,"Lng":106.655965},{"StationId":978,"StationOrder":10,"StationDirection":0,"RouteId":14,"StationName":"Nhà hàng Tư Trì","pathPoints":"106.65596771,10.85414886 106.65605927,10.85280037 106.65609741,10.85144615 106.65612793,10.85074043 106.65669250,10.84880161 106.65663147,10.84877968","Address":"447, đường Lê Văn Thọ, Quận Gò Vấp","Lat":10.84878,"Lng":106.656631},{"StationId":979,"StationOrder":11,"StationDirection":0,"RouteId":14,"StationName":"Câu lạc bộ Tennis","pathPoints":"106.65669250,10.84879589 106.65687561,10.84796906 106.65694427,10.84734726 106.65702057,10.84588718","Address":"329, đường Lê Văn Thọ, Quận Gò Vấp","Lat":10.845888,"Lng":106.656947},{"StationId":981,"StationOrder":12,"StationDirection":0,"RouteId":14,"StationName":"Ngã ba Cây Trâm","pathPoints":"106.65702057,10.84589863 106.65712738,10.84312725","Address":"217, đường Lê Văn Thọ, Quận Gò Vấp","Lat":10.843132,"Lng":106.657071},{"StationId":980,"StationOrder":13,"StationDirection":0,"RouteId":14,"StationName":"Chợ Cây Trâm","pathPoints":"106.65712738,10.84314251 106.65718842,10.84175682 106.65730286,10.84062958 106.65761566,10.83920193 106.65790558,10.83812141","Address":"53, đường Lê Văn Thọ, Quận Gò Vấp","Lat":10.838069,"Lng":106.657843},{"StationId":4628,"StationOrder":14,"StationDirection":0,"RouteId":14,"StationName":"City Mart","pathPoints":"106.65784454,10.83806896 106.65784454,10.83806896 106.65789795,10.83808517 106.65834045,10.83642006 106.66117096,10.83570862 106.66116333,10.83561420 106.66116333,10.83561420","Address":"645, đường Quang Trung, Quận Gò Vấp","Lat":10.835614,"Lng":106.661164},{"StationId":926,"StationOrder":15,"StationDirection":0,"RouteId":14,"StationName":"Chùa Huỳnh Kim","pathPoints":"106.66119385,10.83570862 106.66218567,10.83545017 106.66313934,10.83512878","Address":"621, đường Quang Trung, Quận Gò Vấp","Lat":10.835034,"Lng":106.663127},{"StationId":1665,"StationOrder":16,"StationDirection":0,"RouteId":14,"StationName":"VKSND Quận Gò Vấp","pathPoints":"106.66317749,10.83513451 106.66471100,10.83440208 106.66616821,10.83327961","Address":"523, đường Quang Trung, Quận Gò Vấp","Lat":10.83318,"Lng":106.666126},{"StationId":987,"StationOrder":17,"StationDirection":0,"RouteId":14,"StationName":"UBND Quận Gò Vấp","pathPoints":"106.66616821,10.83327484 106.66783142,10.83198357 106.66945648,10.83064556","Address":"387, đường Quang Trung, Quận Gò Vấp","Lat":10.830593,"Lng":106.669414},{"StationId":984,"StationOrder":18,"StationDirection":0,"RouteId":14,"StationName":"Nhà Thờ Xóm Thuốc","pathPoints":"106.66946411,10.83065605 106.67063904,10.82992363 106.67193604,10.82927513","Address":"305, đường Quang Trung, Quận Gò Vấp","Lat":10.82918,"Lng":106.671903},{"StationId":986,"StationOrder":19,"StationDirection":0,"RouteId":14,"StationName":"Xóm thuốc","pathPoints":"106.67194366,10.82926464 106.67401123,10.82847404","Address":"205, đường Quang Trung, Quận Gò Vấp","Lat":10.82839,"Lng":106.673995},{"StationId":988,"StationOrder":20,"StationDirection":0,"RouteId":14,"StationName":"Công ty 32","pathPoints":"106.67401123,10.82846355 106.67671204,10.82755280","Address":"67, đường Quang Trung, Quận Gò Vấp","Lat":10.827468,"Lng":106.676688},{"StationId":991,"StationOrder":21,"StationDirection":0,"RouteId":14,"StationName":"Siêu thị Văn Lang","pathPoints":"106.67671204,10.82757378 106.67881012,10.82683086","Address":"Đối diện Siêu thị Văn Lang, đường Quang Trung, Quận Gò Vấp","Lat":10.826757,"Lng":106.678813},{"StationId":219,"StationOrder":22,"StationDirection":0,"RouteId":14,"StationName":"Cầu vượt ngã sáu Gò Vấp","pathPoints":"106.67881012,10.82682514 106.67942047,10.82662487 106.67978668,10.82629871 106.67920685,10.82455444 106.67902374,10.82372665","Address":"1001, đường Nguyễn Kiệm, Quận Gò Vấp","Lat":10.823738,"Lng":106.678968},{"StationId":221,"StationOrder":23,"StationDirection":0,"RouteId":14,"StationName":"Bệnh Viện 175","pathPoints":"106.67897034,10.82373810 106.67877960,10.82199860 106.67879486,10.82070827 106.67872620,10.82004356","Address":"883-885, đường Nguyễn Kiệm, Quận Gò Vấp","Lat":10.820044,"Lng":106.678727},{"StationId":223,"StationOrder":24,"StationDirection":0,"RouteId":14,"StationName":"Chợ Tân Sơn Nhất","pathPoints":"106.67872620,10.82004356 106.67875671,10.81974888 106.67871094,10.81818962 106.67859650,10.81677246","Address":"79-81, đường Nguyễn Kiệm, Quận Gò Vấp","Lat":10.816772,"Lng":106.678598},{"StationId":4735,"StationOrder":25,"StationDirection":0,"RouteId":14,"StationName":"Chợ Tân Sơn Nhất","pathPoints":"106.67859650,10.81677246 106.67861176,10.81563950 106.67862701,10.81470108 106.67855835,10.81440639 106.67789459,10.81462669","Address":"20, đường Nguyễn Thái Sơn, Quận Gò Vấp","Lat":10.814627,"Lng":106.677895},{"StationId":917,"StationOrder":26,"StationDirection":0,"RouteId":14,"StationName":"Ngân hàng Quân Đội","pathPoints":"106.67789459,10.81462669 106.67632294,10.81507492 106.67539215,10.81542301 106.67542267,10.81552792","Address":"179, đường Bạch Đằng, Quận Tân Bình","Lat":10.815528,"Lng":106.675422},{"StationId":918,"StationOrder":27,"StationDirection":0,"RouteId":14,"StationName":"Ngã tư Hồng Hà","pathPoints":"106.67542267,10.81552792 106.67542267,10.81552792 106.67542267,10.81552792 106.67539215,10.81540203 106.67478180,10.81553936 106.67412567,10.81548119 106.67172241,10.81461143 106.67015076,10.81427479 106.66907501,10.81418991 106.66907501,10.81428528 106.66907501,10.81428528 106.66907501,10.81428528","Address":"122/21, đường Bạch Đằng, Quận Tân Bình","Lat":10.814285,"Lng":106.669076},{"StationId":990,"StationOrder":28,"StationDirection":0,"RouteId":14,"StationName":"Công ty Satsco","pathPoints":"106.66907501,10.81428528 106.66907501,10.81428528 106.66906738,10.81422710 106.66636658,10.81406879 106.66634369,10.81413746 106.66634369,10.81413746","Address":"Công ty Satsco, đường Bạch Đằng, Quận Tân Bình","Lat":10.814137,"Lng":106.666346},{"StationId":995,"StationOrder":29,"StationDirection":0,"RouteId":14,"StationName":"Trường Ngô Sỹ Liên","pathPoints":"106.66634369,10.81413746 106.66635895,10.81402111 106.66549683,10.81393719 106.66527557,10.81406403 106.66473389,10.81384754 106.66497803,10.81319427 106.66476440,10.81024837 106.66467285,10.81025696","Address":"53, đường Trường Sơn, Quận Tân Bình","Lat":10.810257,"Lng":106.664673},{"StationId":997,"StationOrder":30,"StationDirection":0,"RouteId":14,"StationName":"Siêu thị Super Bow","pathPoints":"106.66467285,10.81025696 106.66467285,10.81025696 106.66474915,10.81023788 106.66455078,10.80803585 106.66448975,10.80804920 106.66448975,10.80804920","Address":"Siêu thị super Bow, đường Trường Sơn, Quận Tân Bình","Lat":10.808049,"Lng":106.66449},{"StationId":999,"StationOrder":31,"StationDirection":0,"RouteId":14,"StationName":"Trần Quốc Hoàn","pathPoints":"106.66448975,10.80804920 106.66448975,10.80804920 106.66455078,10.80805111 106.66426849,10.80458450 106.66400146,10.80363560 106.66392517,10.80364418 106.66392517,10.80364418","Address":"65, đường Trần Quốc Hoàn, Quận Tân Bình","Lat":10.803644,"Lng":106.663925},{"StationId":258,"StationOrder":32,"StationDirection":0,"RouteId":14,"StationName":"Vòng xoay Lăng Cha Cả","pathPoints":"106.66392517,10.80364418 106.66398621,10.80362034 106.66381073,10.80311012 106.66359711,10.80268192 106.66332245,10.80233955 106.66234589,10.80132771 106.66231537,10.80136490","Address":"20, đường Trần Quốc Hoàn, Quận Tân Bình","Lat":10.801365,"Lng":106.662312},{"StationId":600,"StationOrder":33,"StationDirection":0,"RouteId":14,"StationName":"Vòng xoay Lăng Cha Cả","pathPoints":"106.66231537,10.80136490 106.66231537,10.80136490 106.66234589,10.80133820 106.66177368,10.80084801 106.66126251,10.80067444 106.66099548,10.80068016 106.66082001,10.80049038 106.66081238,10.80020523 106.66036224,10.79984760 106.65911102,10.79867744 106.65907288,10.79872513","Address":"288-290, đường Hoàng Văn Thụ, Quận Tân Bình","Lat":10.798725,"Lng":106.659071},{"StationId":602,"StationOrder":34,"StationDirection":0,"RouteId":14,"StationName":"Công an Quận Tân Bình","pathPoints":"106.65907288,10.79872513 106.65909576,10.79869270 106.65748596,10.79712772 106.65742493,10.79716969","Address":"340H, đường Hoàng Văn Thụ, Quận Tân Bình","Lat":10.79717,"Lng":106.657425},{"StationId":604,"StationOrder":35,"StationDirection":0,"RouteId":14,"StationName":"Hội Chợ Triển lãm Tân Bình","pathPoints":"106.65742493,10.79716969 106.65748596,10.79711723 106.65576935,10.79542637 106.65510559,10.79609489 106.65514374,10.79612160","Address":"20 (B9), đường Xuân Diệu, Quận Tân Bình","Lat":10.796122,"Lng":106.655145},{"StationId":603,"StationOrder":36,"StationDirection":0,"RouteId":14,"StationName":"Trường Phạm Ngũ Lão","pathPoints":"106.65514374,10.79612160 106.65510559,10.79609013 106.65467072,10.79649544 106.65409851,10.79598427 106.65406799,10.79603195","Address":"149 (E62), đường Xuân Hồng, Quận Tân Bình","Lat":10.796032,"Lng":106.654066},{"StationId":606,"StationOrder":37,"StationDirection":0,"RouteId":14,"StationName":"Cây xăng Đôi","pathPoints":"106.65406799,10.79603195 106.65410614,10.79599476 106.65222931,10.79421902 106.65218353,10.79425621","Address":"23, đường Xuân Hồng, Quận Tân Bình","Lat":10.794256,"Lng":106.652184},{"StationId":996,"StationOrder":38,"StationDirection":0,"RouteId":14,"StationName":"Bệnh viện Thống Nhất","pathPoints":"106.65218353,10.79425621 106.65218353,10.79425621 106.65171814,10.79374027 106.65216827,10.79350758 106.65295410,10.79307556 106.65415192,10.79245949 106.65412903,10.79239082 106.65412903,10.79239082","Address":"1125 (đối diện 544), đường Cách Mạng Tháng Tám, Quận Tân Bình","Lat":10.792391,"Lng":106.654131},{"StationId":998,"StationOrder":39,"StationDirection":0,"RouteId":14,"StationName":"Y tế Phường 4","pathPoints":"106.65412903,10.79239082 106.65412903,10.79239082 106.65419006,10.79243279 106.65589142,10.79154205 106.65588379,10.79146290 106.65588379,10.79146290","Address":"1057, đường Cách Mạng Tháng Tám, Quận Tân Bình","Lat":10.791463,"Lng":106.655885},{"StationId":1000,"StationOrder":40,"StationDirection":0,"RouteId":14,"StationName":"Hồ Bơi Cộng Hòa","pathPoints":"106.65588379,10.79146290 106.65588379,10.79146290 106.65593719,10.79151630 106.65847778,10.79016209 106.65846252,10.79011440 106.65846252,10.79011440","Address":"1003, đường Cách Mạng Tháng Tám, Quận Tân Bình","Lat":10.790114,"Lng":106.65846},{"StationId":1002,"StationOrder":41,"StationDirection":0,"RouteId":14,"StationName":"Ông Tạ","pathPoints":"106.65846252,10.79011440 106.65846252,10.79011440 106.65851593,10.79015160 106.66006470,10.78934002 106.66007233,10.78926086 106.66007233,10.78926086","Address":"907, đường Cách Mạng Tháng Tám, Quận Tân Bình","Lat":10.789261,"Lng":106.660075},{"StationId":1001,"StationOrder":42,"StationDirection":0,"RouteId":14,"StationName":"Ngã ba Bành Văn Trân","pathPoints":"106.66007233,10.78926086 106.66014099,10.78930283 106.66233063,10.78815365 106.66231537,10.78808022 106.66231537,10.78808022","Address":"771, đường Cách Mạng Tháng Tám, Quận Tân Bình","Lat":10.78808,"Lng":106.662315},{"StationId":1003,"StationOrder":43,"StationDirection":0,"RouteId":14,"StationName":"Công viên Lê Thị Riêng","pathPoints":"106.66231537,10.78808022 106.66236877,10.78812790 106.66576385,10.78632545 106.66577911,10.78623581","Address":"875, đường Cách Mạng Tháng Tám, Quận 10","Lat":10.786236,"Lng":106.665777},{"StationId":1004,"StationOrder":44,"StationDirection":0,"RouteId":14,"StationName":"Công viên Lê Thị Riêng","pathPoints":"106.66577911,10.78623581 106.66625977,10.78598309 106.66640472,10.78571415 106.66575623,10.78457069","Address":"Đối diện 69, đường Trường Sơn, Quận 10","Lat":10.784571,"Lng":106.665756},{"StationId":1005,"StationOrder":45,"StationDirection":0,"RouteId":14,"StationName":"Ngã tư Nguyễn Giản Thanh","pathPoints":"106.66575623,10.78457069 106.66454315,10.78226757 106.66369629,10.78197289","Address":"BB14ter, đường Trường Sơn, Quận 10","Lat":10.781973,"Lng":106.663696},{"StationId":1009,"StationOrder":46,"StationDirection":0,"RouteId":14,"StationName":"Ngã tư Đồng Nai","pathPoints":"106.66371155,10.78192997 106.66181946,10.78120041","Address":"F4, đường Trường Sơn, Quận 10","Lat":10.781213,"Lng":106.661819},{"StationId":1006,"StationOrder":47,"StationDirection":0,"RouteId":14,"StationName":"Trường THPT Nguyễn Du","pathPoints":"106.66181946,10.78121281 106.66147614,10.78105068 106.66239929,10.77922440","Address":"XX1, đường Đồng Nai, Quận 10","Lat":10.779224,"Lng":106.662399},{"StationId":1011,"StationOrder":48,"StationDirection":0,"RouteId":14,"StationName":"Thành Thái nối dài","pathPoints":"106.66239929,10.77922440 106.66261292,10.77882195 106.66163635,10.77818394 106.66208649,10.77769661","Address":"197B27, đường Thành Thái nd, Quận 10","Lat":10.777697,"Lng":106.662086},{"StationId":1007,"StationOrder":49,"StationDirection":0,"RouteId":14,"StationName":"Ngân hàng Quân Đội","pathPoints":"106.66211700,10.77773952 106.66355896,10.77641010 106.66349030,10.77635956 106.66287231,10.77550030","Address":"136, đường Tô Hiến Thành, Quận 10","Lat":10.775531,"Lng":106.662819},{"StationId":1013,"StationOrder":50,"StationDirection":0,"RouteId":14,"StationName":"Đại học Bách Khoa (cổng sau)","pathPoints":"106.66281891,10.77553082 106.66112518,10.77332211","Address":"350 , đường Tô Hiến Thành, Quận 10","Lat":10.773322,"Lng":106.661125},{"StationId":1008,"StationOrder":51,"StationDirection":0,"RouteId":14,"StationName":"Bệnh viện Trưng Vương","pathPoints":"106.66112518,10.77332211 106.66112518,10.77332211 106.66112518,10.77332211 106.66112518,10.77332211 106.66065216,10.77264500 106.66030884,10.77230835 106.65909576,10.77124405 106.65909576,10.77124405 106.65909576,10.77124405 106.65909576,10.77124405","Address":"142, đường Tô Hiến Thành, Quận 10","Lat":10.771244,"Lng":106.659096},{"StationId":613,"StationOrder":52,"StationDirection":0,"RouteId":14,"StationName":"Bệnh viện Trưng Vương","pathPoints":"106.65912628,10.77120018 106.65834045,10.77048016 106.65815735,10.77038956 106.65827942,10.76998997 106.65836334,10.76966953","Address":"Đối diện 266, đường Lý Thường Kiệt, Quận 11","Lat":10.769639,"Lng":106.658295},{"StationId":614,"StationOrder":53,"StationDirection":0,"RouteId":14,"StationName":"Điện Lực Phú Thọ (Nhà hàng phong lan)","pathPoints":"106.65829468,10.76963902 106.65936279,10.76579189","Address":"215C, đường Lý Thường Kiệt, Quận 11","Lat":10.765792,"Lng":106.659363},{"StationId":100,"StationOrder":54,"StationDirection":0,"RouteId":14,"StationName":"Nhà sách Phương Nam","pathPoints":"106.65936279,10.76579189 106.65943146,10.76581955 106.65957642,10.76527977 106.65994263,10.76388168 106.65846252,10.76304913 106.65840912,10.76311493","Address":"940 (6B), đường Đường 3/2, Quận 11","Lat":10.763115,"Lng":106.658409},{"StationId":101,"StationOrder":55,"StationDirection":0,"RouteId":14,"StationName":"Lê Đại Hành","pathPoints":"106.65840912,10.76311493 106.65840912,10.76311493 106.65846252,10.76304340 106.65607452,10.76175213 106.65602875,10.76184177 106.65602875,10.76184177","Address":"972-974(970), đường Đường 3/2, Quận 11","Lat":10.761842,"Lng":106.65603},{"StationId":103,"StationOrder":56,"StationDirection":0,"RouteId":14,"StationName":"Tạ Uyên","pathPoints":"106.65606689,10.76178932 106.65360260,10.76044559","Address":"1114A-1116A, đường Đường 3/2, Quận 11","Lat":10.760535,"Lng":106.653557},{"StationId":1015,"StationOrder":57,"StationDirection":0,"RouteId":14,"StationName":"Trạm Trần Quý - Tạ Uyên","pathPoints":"106.65359497,10.76047134 106.65328979,10.76029205 106.65351868,10.75806808","Address":"193, đường Tạ Uyên, Quận 11","Lat":10.758068,"Lng":106.653492},{"StationId":1017,"StationOrder":58,"StationDirection":0,"RouteId":14,"StationName":"Tạ Uyên","pathPoints":"106.65349579,10.75806808 106.65349579,10.75806808 106.65356445,10.75805283 106.65367126,10.75682449 106.65375519,10.75531769 106.65369415,10.75520134 106.65369415,10.75520134","Address":"79, đường Tạ Uyên, Quận 5","Lat":10.755201,"Lng":106.653696},{"StationId":7282,"StationOrder":59,"StationDirection":0,"RouteId":14,"StationName":"Bến xe buýt Chợ Lớn - A","pathPoints":"106.65369415,10.75520134 106.65375519,10.75519657 106.65376282,10.75379467 106.65365601,10.75368881 106.65376282,10.75357342 106.65326691,10.75166035 106.65302277,10.75136471 106.65261078,10.75125885","Address":"BẾN XE BUÝT CHỢ LỚN A, đường Lê Quang Sung, Quận 6","Lat":10.751259,"Lng":106.652607},{"StationId":7282,"StationOrder":0,"StationDirection":1,"RouteId":14,"StationName":"Bến xe buýt Chợ Lớn - A","pathPoints":"","Address":"BẾN XE BUÝT CHỢ LỚN A, đường Lê Quang Sung, Quận 6","Lat":10.751259,"Lng":106.652607},{"StationId":4774,"StationOrder":1,"StationDirection":1,"RouteId":14,"StationName":"Nguyễn Thị Nhỏ","pathPoints":"106.65261078,10.75125885 106.65216827,10.75122261 106.65193176,10.75101185 106.65094757,10.75098515 106.65045166,10.75102234 106.65052795,10.75181770","Address":"14-16, đường Nguyễn Thị Nhỏ, Quận 6","Lat":10.751802,"Lng":106.650585},{"StationId":464,"StationOrder":2,"StationDirection":1,"RouteId":14,"StationName":"Bến xe Chợ Lớn","pathPoints":"106.65053558,10.75181770 106.65069580,10.75330448 106.65180206,10.75334072 106.65232086,10.75340462","Address":"555, đường Hồng Bàng, Quận 5","Lat":10.753331,"Lng":106.652334},{"StationId":897,"StationOrder":3,"StationDirection":1,"RouteId":14,"StationName":"Tạ Uyên","pathPoints":"106.65232849,10.75339413 106.65380096,10.75356197 106.65389252,10.75368881 106.65378571,10.75381565 106.65377045,10.75462723","Address":"20-22, đường Tạ Uyên, Quận 5","Lat":10.754606,"Lng":106.65383},{"StationId":896,"StationOrder":4,"StationDirection":1,"RouteId":14,"StationName":"Trạm Trần Quý - Tạ Uyên","pathPoints":"106.65377808,10.75460625 106.65371704,10.75630283 106.65355682,10.75800037","Address":"114, đường Tạ Uyên, Quận 11","Lat":10.758002,"Lng":106.653603},{"StationId":153,"StationOrder":5,"StationDirection":1,"RouteId":14,"StationName":"Tạ Uyên","pathPoints":"106.65355682,10.75800037 106.65333557,10.76018715 106.65375519,10.76040840","Address":"1163, đường Đường 3/2, Quận 11","Lat":10.760371,"Lng":106.653763},{"StationId":154,"StationOrder":6,"StationDirection":1,"RouteId":14,"StationName":"Lê Đại Hành","pathPoints":"106.65372467,10.76040268 106.65599060,10.76161003","Address":"1007 (1029), đường Đường 3/2, Quận 11","Lat":10.761562,"Lng":106.656006},{"StationId":155,"StationOrder":7,"StationDirection":1,"RouteId":14,"StationName":"Phú Thọ","pathPoints":"106.65597534,10.76161480 106.65786743,10.76263714","Address":"957, đường Đường 3/2, Quận 11","Lat":10.762574,"Lng":106.657881},{"StationId":546,"StationOrder":8,"StationDirection":1,"RouteId":14,"StationName":"Điện lực Phú Thọ","pathPoints":"106.65786743,10.76264858 106.66002655,10.76382351 106.65965271,10.76522541","Address":"192, đường Lý Thường Kiệt, Quận 10","Lat":10.76523,"Lng":106.659763},{"StationId":504,"StationOrder":9,"StationDirection":1,"RouteId":14,"StationName":"Nhà thi đấu Phú Thọ","pathPoints":"106.65963745,10.76519871 106.65904236,10.76736450","Address":"260, đường Lý Thường Kiệt, Quận 10","Lat":10.767367,"Lng":106.659065},{"StationId":505,"StationOrder":10,"StationDirection":1,"RouteId":14,"StationName":"Bệnh viện Trưng Vương","pathPoints":"106.65904236,10.76736450 106.65837860,10.76963043","Address":"BV Trưng Vương, đường Lý Thường Kiệt, Quận 10","Lat":10.769652,"Lng":106.658524},{"StationId":900,"StationOrder":11,"StationDirection":1,"RouteId":14,"StationName":"Bệnh viện Trưng Vương","pathPoints":"106.65840912,10.76963615 106.65818787,10.77039528 106.65887451,10.77100658","Address":"531, đường Tô Hiến Thành, Quận 10","Lat":10.770922,"Lng":106.658913},{"StationId":898,"StationOrder":12,"StationDirection":1,"RouteId":14,"StationName":"Đại học Bách Khoa (cổng sau)","pathPoints":"106.65885925,10.77095890 106.66069794,10.77264500 106.66099548,10.77307701","Address":"523, đường Tô Hiến Thành, Quận 10","Lat":10.773046,"Lng":106.661057},{"StationId":902,"StationOrder":13,"StationDirection":1,"RouteId":14,"StationName":"Ngân hàng Quân Đội","pathPoints":"106.66101074,10.77307701 106.66294098,10.77560711","Address":"405, đường Tô Hiến Thành, Quận 10","Lat":10.775549,"Lng":106.663017},{"StationId":899,"StationOrder":14,"StationDirection":1,"RouteId":14,"StationName":"Thành Thái nối dài","pathPoints":"106.66296387,10.77562809 106.66359711,10.77646065 106.66228485,10.77768040","Address":"218A, đường Thành Thái nd, Quận 10","Lat":10.77768,"Lng":106.662285},{"StationId":904,"StationOrder":15,"StationDirection":1,"RouteId":14,"StationName":"Trường THPT Nguyễn Du","pathPoints":"106.66228485,10.77768040 106.66172028,10.77821541 106.66225433,10.77854538","Address":"Đối diện THPT Nguyễn Du, đường Tam Đảo, Quận 10","Lat":10.778545,"Lng":106.662254},{"StationId":901,"StationOrder":16,"StationDirection":1,"RouteId":14,"StationName":"Ngã tư Đồng Nai","pathPoints":"106.66225433,10.77854538 106.66264343,10.77882195 106.66149902,10.78105545 106.66175842,10.78115654","Address":"G3, đường Trường Sơn, Quận 10","Lat":10.781157,"Lng":106.661758},{"StationId":905,"StationOrder":17,"StationDirection":1,"RouteId":14,"StationName":"Ngã tư Nguyễn Giản Thanh","pathPoints":"106.66175842,10.78116989 106.66320038,10.78172970 106.66454315,10.78223991 106.66464233,10.78232956 106.66481781,10.78262997","Address":"Đối diện 20, đường Trường Sơn, Quận 10","Lat":10.782587,"Lng":106.664886},{"StationId":903,"StationOrder":18,"StationDirection":1,"RouteId":14,"StationName":"Công viên Lê Thị Riêng","pathPoints":"106.66478729,10.78265762 106.66619873,10.78525543","Address":"19, đường Trường Sơn, Quận 10","Lat":10.785224,"Lng":106.666237},{"StationId":906,"StationOrder":19,"StationDirection":1,"RouteId":14,"StationName":"Bắc Hải","pathPoints":"106.66623688,10.78522396 106.66618347,10.78526592 106.66655731,10.78588295 106.66464233,10.78691959 106.66369629,10.78744030 106.66372681,10.78748608","Address":"690, đường Cách Mạng Tháng Tám, Quận Tân Bình","Lat":10.787486,"Lng":106.663727},{"StationId":907,"StationOrder":20,"StationDirection":1,"RouteId":14,"StationName":"Ngã ba Bành Văn Trân","pathPoints":"106.66372681,10.78748608 106.66372681,10.78748608 106.66370392,10.78743172 106.66140747,10.78864956 106.66145325,10.78869247","Address":"814, đường Cách Mạng Tháng Tám, Quận Tân Bình","Lat":10.788692,"Lng":106.661453},{"StationId":910,"StationOrder":21,"StationDirection":1,"RouteId":14,"StationName":"Ông Tạ","pathPoints":"106.66145325,10.78869247 106.66143036,10.78864956 106.65964508,10.78957653 106.65969086,10.78962994","Address":"962, đường Cách Mạng Tháng Tám, Quận Tân Bình","Lat":10.78963,"Lng":106.659694},{"StationId":909,"StationOrder":22,"StationDirection":1,"RouteId":14,"StationName":"Cư xá Tự Do","pathPoints":"106.65969086,10.78962994 106.65966034,10.78957653 106.65618896,10.79140568 106.65621948,10.79144764 106.65621948,10.79144764","Address":"1130, đường Cách Mạng Tháng Tám, Quận Tân Bình","Lat":10.791448,"Lng":106.656218},{"StationId":908,"StationOrder":23,"StationDirection":1,"RouteId":14,"StationName":"Bệnh viện Thống Nhất","pathPoints":"106.65621948,10.79144764 106.65621948,10.79144764 106.65618896,10.79140568 106.65396118,10.79261208 106.65399170,10.79264927","Address":"1236 (544), đường Cách Mạng Tháng Tám, Quận Tân Bình","Lat":10.792649,"Lng":106.653991},{"StationId":510,"StationOrder":24,"StationDirection":1,"RouteId":14,"StationName":"Bệnh viện Quận Tân Bình","pathPoints":"106.65399170,10.79264927 106.65399170,10.79264927 106.65396118,10.79260731 106.65372467,10.79274940 106.65365601,10.79313946 106.65438080,10.79400826 106.65515137,10.79472542 106.65519714,10.79471970 106.65519714,10.79471970","Address":"605, đường Hoàng Văn Thụ, Quận Tân Bình","Lat":10.79472,"Lng":106.655198},{"StationId":555,"StationOrder":25,"StationDirection":1,"RouteId":14,"StationName":"Nhà hàng Đông Phương","pathPoints":"106.65519714,10.79471970 106.65514374,10.79477787 106.65914917,10.79860401 106.65921783,10.79855633","Address":"429, đường Hoàng Văn Thụ, Quận Tân Bình","Lat":10.798556,"Lng":106.659216},{"StationId":187,"StationOrder":26,"StationDirection":1,"RouteId":14,"StationName":"Công viên Hoàng Văn Thụ","pathPoints":"106.65921783,10.79855633 106.65914154,10.79859829 106.66065216,10.80004215 106.66082764,10.80018425 106.66102600,10.80024719 106.66129303,10.80046940 106.66175079,10.80065823 106.66281891,10.80064297 106.66354370,10.80058479 106.66357422,10.80046940","Address":"259, đường Hoàng Văn Thụ, Quận Tân Bình","Lat":10.800469,"Lng":106.663578},{"StationId":911,"StationOrder":27,"StationDirection":1,"RouteId":14,"StationName":"Quán Vườn Dừa","pathPoints":"106.66357422,10.80046940 106.66357422,10.80046940 106.66359711,10.80056381 106.66520691,10.80041599 106.66684723,10.80028439 106.66699219,10.80042171 106.66699982,10.80055332 106.66699219,10.80062199 106.66663361,10.80089092 106.66619110,10.80113316 106.66599274,10.80127525 106.66585541,10.80146980 106.66560364,10.80183887 106.66533661,10.80224514 106.66513062,10.80267143 106.66497040,10.80315590 106.66484070,10.80363083 106.66490936,10.80364132 106.66490936,10.80364132","Address":"12 (1A), đường Phan Đình Giót, Quận Tân Bình","Lat":10.803641,"Lng":106.664909},{"StationId":913,"StationOrder":28,"StationDirection":1,"RouteId":14,"StationName":"Sông Đáy","pathPoints":"106.66490936,10.80364132 106.66490936,10.80364132 106.66484070,10.80364609 106.66455841,10.80487442 106.66467285,10.80696106 106.66467285,10.80696106","Address":"Hông số 2 Sông Đáy, đường Trường Sơn, Quận Tân Bình","Lat":10.806961,"Lng":106.664673},{"StationId":912,"StationOrder":29,"StationDirection":1,"RouteId":14,"StationName":"Parkson Trường Sơn","pathPoints":"106.66467285,10.80696106 106.66473389,10.80834103 106.66484070,10.80972195","Address":"38, đường Trường Sơn, Quận Tân Bình","Lat":10.80969,"Lng":106.66494},{"StationId":993,"StationOrder":30,"StationDirection":1,"RouteId":14,"StationName":"Đoàn tiếp viên","pathPoints":"106.66485596,10.80970573 106.66522217,10.81349945 106.66915894,10.81318378","Address":"76-78, đường Hồng Hà, Quận Tân Bình","Lat":10.813099,"Lng":106.669146},{"StationId":4748,"StationOrder":31,"StationDirection":1,"RouteId":14,"StationName":"Ngã ba Kênh Nhật Bản - Hồng Hà","pathPoints":"106.66912842,10.81318378 106.67185974,10.81297302 106.67227173,10.81294155 106.67272949,10.81299973 106.67356873,10.81337833 106.67433929,10.81381035","Address":"Giữa công viên Gia Định, đường Hồng Hà, Quận Tân Bình","Lat":10.813732,"Lng":106.674371},{"StationId":4749,"StationOrder":32,"StationDirection":1,"RouteId":14,"StationName":"Vòng xoay Nguyễn Thái Sơn","pathPoints":"106.67436981,10.81373215 106.67436981,10.81373215 106.67436981,10.81373692 106.67435455,10.81381607 106.67488098,10.81404305 106.67543030,10.81420040 106.67620850,10.81427479 106.67757416,10.81409550 106.67761230,10.81400585 106.67761230,10.81400585","Address":"Vòng xoay Nguyễn Thái Sơn, đường Hồng Hà, Quận Tân Bình","Lat":10.814006,"Lng":106.677616},{"StationId":56,"StationOrder":33,"StationDirection":1,"RouteId":14,"StationName":"Cầu vượt Nguyễn Thái Sơn - Nguyễn Kiệm","pathPoints":"106.67761230,10.81400585 106.67761230,10.81400585 106.67763519,10.81407928 106.67826843,10.81398964 106.67842865,10.81360531 106.67874146,10.81344700 106.67906189,10.81357384 106.67920685,10.81387424 106.67915344,10.81414795 106.67897034,10.81435299 106.67900848,10.81454849 106.68038177,10.81631374 106.68044281,10.81628227","Address":"86 - 86C, đường Nguyễn Thái Sơn, Quận Gò Vấp","Lat":10.816282,"Lng":106.680443},{"StationId":57,"StationOrder":34,"StationDirection":1,"RouteId":14,"StationName":"Ngã ba Phạm Ngũ Lão","pathPoints":"106.68038940,10.81632900 106.68309021,10.81975937","Address":"182, đường Nguyễn Thái Sơn, Quận Gò Vấp","Lat":10.819712,"Lng":106.683147},{"StationId":60,"StationOrder":35,"StationDirection":1,"RouteId":14,"StationName":"Cầu vượt ngã sáu Gò Vấp","pathPoints":"106.68314362,10.81971169 106.68314362,10.81971169 106.68308258,10.81980133 106.68352509,10.82033920 106.68116760,10.82458115 106.68122101,10.82460690","Address":"140-142, đường Phạm Ngũ Lão , Quận Gò Vấp","Lat":10.824607,"Lng":106.681221},{"StationId":921,"StationOrder":36,"StationDirection":1,"RouteId":14,"StationName":"Siêu thị Văn Lang","pathPoints":"106.68122101,10.82460690 106.68122101,10.82460690 106.68116760,10.82456970 106.68007660,10.82654572 106.67992401,10.82668304 106.67974854,10.82659340 106.67917633,10.82679367 106.67920685,10.82684612 106.67920685,10.82684612","Address":"Siêu thị Văn Lang, đường Quang Trung, Quận Gò Vấp","Lat":10.826846,"Lng":106.679209},{"StationId":920,"StationOrder":37,"StationDirection":1,"RouteId":14,"StationName":"Công ty 32","pathPoints":"106.67920685,10.82684612 106.67920685,10.82684612 106.67919159,10.82678795 106.67543793,10.82804775 106.67548370,10.82810020 106.67548370,10.82810020","Address":"138, đường Quang Trung, Quận Gò Vấp","Lat":10.8281,"Lng":106.675487},{"StationId":922,"StationOrder":38,"StationDirection":1,"RouteId":14,"StationName":"Nhà thờ Xóm Thuốc","pathPoints":"106.67548370,10.82810020 106.67548370,10.82810020 106.67546844,10.82803726 106.67255402,10.82908535 106.67260742,10.82918644 106.67260742,10.82918644 106.67260742,10.82918644","Address":"190, đường Quang Trung, Quận Gò Vấp","Lat":10.829186,"Lng":106.672606},{"StationId":923,"StationOrder":39,"StationDirection":1,"RouteId":14,"StationName":"UBND Quận Gò Vấp","pathPoints":"106.67260742,10.82918644 106.67260742,10.82918644 106.67260742,10.82918644 106.67255402,10.82904911 106.67098236,10.82980728 106.67026520,10.83017635 106.66963196,10.83058167 106.66916656,10.83096123 106.66923523,10.83102989 106.66923523,10.83102989","Address":"328, đường Quang Trung, Quận Gò Vấp","Lat":10.83103,"Lng":106.669232},{"StationId":924,"StationOrder":40,"StationDirection":1,"RouteId":14,"StationName":"VKSND Quận Gò Vấp","pathPoints":"106.66923523,10.83102989 106.66923523,10.83102989 106.66923523,10.83102989 106.66918182,10.83098793 106.66673279,10.83289528 106.66679382,10.83294773 106.66679382,10.83294773 106.66679382,10.83294773","Address":"402 - 404, đường Quang Trung, Quận Gò Vấp","Lat":10.832948,"Lng":106.666791},{"StationId":4745,"StationOrder":41,"StationDirection":1,"RouteId":14,"StationName":"Chùa Huỳnh Kim","pathPoints":"106.66679382,10.83294773 106.66679382,10.83294773 106.66672516,10.83288956 106.66493225,10.83430195 106.66413879,10.83473396 106.66331482,10.83512402 106.66336823,10.83520317 106.66336823,10.83520317","Address":"548, đường Quang Trung, Quận Gò Vấp","Lat":10.835203,"Lng":106.663368},{"StationId":925,"StationOrder":42,"StationDirection":1,"RouteId":14,"StationName":"City Mart","pathPoints":"106.66336823,10.83520317 106.66336823,10.83520317 106.66331482,10.83513927 106.66217041,10.83550835 106.66102600,10.83581352 106.66104126,10.83588791 106.66104126,10.83588791","Address":"628A, đường Quang Trung, Quận Gò Vấp","Lat":10.835888,"Lng":106.66104},{"StationId":929,"StationOrder":43,"StationDirection":1,"RouteId":14,"StationName":"Chợ Cây Trâm","pathPoints":"106.66104126,10.83588791 106.66104126,10.83588791 106.66101074,10.83579254 106.65833282,10.83648872 106.65808868,10.83736992 106.65774536,10.83869076 106.65781403,10.83869076 106.65781403,10.83869076","Address":"68, đường Lê Văn Thọ, Quận Gò Vấp","Lat":10.838691,"Lng":106.657811},{"StationId":928,"StationOrder":44,"StationDirection":1,"RouteId":14,"StationName":"Ngã ba Cây Trâm","pathPoints":"106.65781403,10.83869076 106.65775299,10.83868027 106.65740967,10.84010983 106.65731049,10.84064960 106.65721130,10.84127998 106.65718079,10.84165955 106.65714264,10.84298992 106.65711212,10.84349537 106.65716553,10.84350586","Address":"218-218A, đường Lê Văn Thọ, Quận Gò Vấp","Lat":10.843506,"Lng":106.657167},{"StationId":927,"StationOrder":45,"StationDirection":1,"RouteId":14,"StationName":"Câu lạc bộ Tenis","pathPoints":"106.65716553,10.84350586 106.65710449,10.84350109 106.65701294,10.84609795 106.65707397,10.84610367","Address":"322, đường Lê Văn Thọ, Quận Gò Vấp","Lat":10.846104,"Lng":106.657076},{"StationId":931,"StationOrder":46,"StationDirection":1,"RouteId":14,"StationName":"Nhà hàng Tư Trì","pathPoints":"106.65707397,10.84610367 106.65702057,10.84609795 106.65690613,10.84765816 106.65679932,10.84840107 106.65658569,10.84922791 106.65663910,10.84923840","Address":"444, đường Lê Văn Thọ, Quận Gò Vấp","Lat":10.849238,"Lng":106.656636},{"StationId":934,"StationOrder":47,"StationDirection":1,"RouteId":14,"StationName":"Ngã ba Lê Đức Thọ","pathPoints":"106.65663910,10.84923840 106.65657043,10.84921741 106.65612030,10.85078716 106.65605927,10.85352707 106.65600586,10.85408020 106.65610504,10.85409641","Address":"660, đường Lê Văn Thọ, Quận Gò Vấp","Lat":10.854096,"Lng":106.656105},{"StationId":2742,"StationOrder":48,"StationDirection":1,"RouteId":14,"StationName":"Nhà thờ Nữ Vương Hòa Bình","pathPoints":"106.65610504,10.85409641 106.65600586,10.85409641 106.65591431,10.85481739 106.65587616,10.85496521 106.65522003,10.85567093 106.65448761,10.85638237 106.65452576,10.85641861 106.65452576,10.85641861","Address":"1410 (408), đường Lê Đức Thọ, Quận Gò Vấp","Lat":10.856419,"Lng":106.654528},{"StationId":932,"StationOrder":49,"StationDirection":1,"RouteId":14,"StationName":"Ngã tư Tân Thới Hiệp","pathPoints":"106.65452576,10.85641861 106.65452576,10.85641861 106.65448761,10.85637188 106.65184784,10.85890102 106.64992523,10.86082363 106.64979553,10.86137199 106.64977264,10.86190891 106.65045166,10.86201477 106.65118408,10.86196136 106.65119934,10.86188126 106.65119934,10.86188126","Address":"79/1, đường Quốc lộ 1A, Quận 12","Lat":10.861881,"Lng":106.651199},{"StationId":935,"StationOrder":50,"StationDirection":1,"RouteId":14,"StationName":"UBND Quận 12","pathPoints":"106.65119934,10.86188126 106.65119934,10.86198235 106.65265656,10.86190891 106.65405273,10.86180782","Address":"1251, đường Quốc lộ 1A, Quận 12","Lat":10.861808,"Lng":106.654053},{"StationId":933,"StationOrder":51,"StationDirection":1,"RouteId":14,"StationName":"Bãi xe Tri Ân","pathPoints":"106.65406036,10.86186028 106.65550995,10.86178970 106.65712738,10.86172009","Address":"1797, đường Quốc lộ 1A, Quận 12","Lat":10.861651,"Lng":106.657127},{"StationId":936,"StationOrder":52,"StationDirection":1,"RouteId":14,"StationName":"Cầu Bến Cát","pathPoints":"106.65712738,10.86165142 106.65712738,10.86165142 106.65712738,10.86165142 106.65712738,10.86172009 106.66223907,10.86149311 106.66224670,10.86133480 106.66224670,10.86133480 106.66224670,10.86133480","Address":"953 (973), đường Quốc lộ 1A, Quận 12","Lat":10.861335,"Lng":106.662247},{"StationId":942,"StationOrder":53,"StationDirection":1,"RouteId":14,"StationName":"Gò Sao","pathPoints":"106.66224670,10.86133480 106.66224670,10.86133480 106.66224670,10.86133480 106.66225433,10.86152458 106.66640472,10.86158752 106.66645813,10.86150265 106.66645813,10.86150265 106.66645813,10.86150265","Address":"109, đường Quốc lộ 1A, Quận 12","Lat":10.861503,"Lng":106.666458},{"StationId":937,"StationOrder":54,"StationDirection":1,"RouteId":14,"StationName":"Cây xăng Thạnh Xuân","pathPoints":"106.66645813,10.86150265 106.66644287,10.86163998 106.66763306,10.86161900 106.67015076,10.86163998 106.67188263,10.86166954 106.67188263,10.86157703","Address":"Cây xăng Thạnh Xuân, đường Quốc lộ 1A, Quận 12","Lat":10.861577,"Lng":106.671882},{"StationId":938,"StationOrder":55,"StationDirection":1,"RouteId":14,"StationName":"Cầu Cả Bốn","pathPoints":"106.67188263,10.86157703 106.67188263,10.86157703 106.67189789,10.86167240 106.67445374,10.86170864 106.67444611,10.86161900 106.67444611,10.86161900","Address":"109, đường Quốc lộ 1A, Quận 12","Lat":10.861619,"Lng":106.674446},{"StationId":944,"StationOrder":56,"StationDirection":1,"RouteId":14,"StationName":"Bến xe Ngã tư Ga","pathPoints":"106.67445374,10.86170006 106.67534637,10.86168957 106.67703247,10.86161041 106.67807770,10.86153984","Address":"Đối diện Bx Ngã tư Ga, đường Quốc lộ 1A, Quận 12","Lat":10.861472,"Lng":106.678078},{"StationId":946,"StationOrder":57,"StationDirection":1,"RouteId":14,"StationName":"Bến xe Ngã tư Ga","pathPoints":"106.67807770,10.86147213 106.67807770,10.86148834 106.67807007,10.86156178 106.67901611,10.86151886 106.67916870,10.86134529 106.67920685,10.86118698 106.67913818,10.86001205 106.67913055,10.85939121 106.67913055,10.85905361 106.67916870,10.85892200 106.67926025,10.85880089 106.67954254,10.85871124 106.67970276,10.85861111 106.67978668,10.85848427 106.67994690,10.85846901 106.68014526,10.86029148 106.68038177,10.86217785 106.68051147,10.86345291 106.68056488,10.86402130 106.68081665,10.86423206 106.68143463,10.86423206 106.68167877,10.86420059 106.68186188,10.86411095 106.68193054,10.86381054 106.68187714,10.86330509 106.68178558,10.86247253 106.68172455,10.86181450 106.68162537,10.86162472 106.68140411,10.86149311 106.68000031,10.86161900 106.67835236,10.86174011 106.67835999,10.86215687","Address":"Bến xe Ngã Tư Ga, đường Quốc lộ 1A, Quận 12","Lat":10.862156867980957,"Lng":106.67835998535156}]