[{"StationId":7209,"StationOrder":0,"StationDirection":0,"RouteId":95,"StationName":"Bến xe Hậu Nghĩa","pathPoints":"","Address":"Bến xe Hậu Nghĩa, đường 3 tháng 2, Ngoại thành","Lat":10.900982,"Lng":106.393039},{"StationId":3928,"StationOrder":1,"StationDirection":0,"RouteId":95,"StationName":"Cầu Thầy Cai","pathPoints":"106.39303589,10.90098190 106.39043427,10.90028572 106.39162445,10.89731503 106.39289856,10.89441776 106.41222382,10.89976978 106.41463470,10.90044975 106.41692352,10.90109730 106.41748810,10.90142441 106.41829681,10.90207672 106.41900635,10.90285110 106.43704987,10.92328358 106.44618988,10.93355465 106.45529175,10.94387817","Address":"34, đường Tỉnh lộ 8, Huyện Củ Chi","Lat":10.943862,"Lng":106.455304},{"StationId":3930,"StationOrder":2,"StationDirection":0,"RouteId":95,"StationName":"Công ty Kim Tường","pathPoints":"106.45530701,10.94386196 106.45536804,10.94400978 106.45700073,10.94573689 106.45955658,10.94813919","Address":"122 (Đối diện 83), đường Tỉnh lộ 8, Huyện Củ Chi","Lat":10.948139,"Lng":106.459558},{"StationId":3929,"StationOrder":3,"StationDirection":0,"RouteId":95,"StationName":"Trạm cấp nước","pathPoints":"106.45955658,10.94813919 106.46222687,10.95090008 106.46321869,10.95186996 106.46425629,10.95324039 106.46479797,10.95386982 106.46540070,10.95440006 106.46561432,10.95452213","Address":"178, đường Tỉnh lộ 8, Huyện Củ Chi","Lat":10.954522,"Lng":106.465614},{"StationId":3925,"StationOrder":4,"StationDirection":0,"RouteId":95,"StationName":"cafe Giọt Đắng","pathPoints":"106.46561432,10.95452213 106.46605682,10.95497036 106.46688843,10.95563984 106.46733856,10.95602989 106.46779633,10.95646954 106.46858978,10.95746613 106.46908569,10.95808220","Address":"256, đường Tỉnh lộ 8, Huyện Củ Chi","Lat":10.958082,"Lng":106.469085},{"StationId":3926,"StationOrder":5,"StationDirection":0,"RouteId":95,"StationName":"UBND xã Tân An Hội","pathPoints":"106.46908569,10.95808220 106.46945190,10.95870018 106.46977234,10.95913982 106.47026062,10.96014023 106.47071075,10.96107960 106.47093201,10.96133995 106.47123718,10.96142006 106.47245026,10.96144199","Address":"336, đường Tỉnh lộ 8, Huyện Củ Chi","Lat":10.961442,"Lng":106.472449},{"StationId":3927,"StationOrder":6,"StationDirection":0,"RouteId":95,"StationName":"Cây xăng Tài Lộc 18","pathPoints":"106.47245026,10.96144199 106.47262573,10.96151638 106.47328186,10.96157360 106.47360992,10.96156883 106.47431183,10.96146870 106.47492981,10.96132660 106.47552490,10.96114254 106.47561646,10.96104717","Address":"374, đường Tỉnh lộ 8, Huyện Củ Chi","Lat":10.961047,"Lng":106.475614},{"StationId":3932,"StationOrder":7,"StationDirection":0,"RouteId":95,"StationName":"Nhà hàng Xuân Anh","pathPoints":"106.47561646,10.96104717 106.47630310,10.96091080 106.47803497,10.96086788 106.47922516,10.96085739 106.48036194,10.96097374 106.48109436,10.96139526 106.48224640,10.96210098","Address":"79, đường Tỉnh lộ 8, Huyện Củ Chi","Lat":10.962101,"Lng":106.482244},{"StationId":3931,"StationOrder":8,"StationDirection":0,"RouteId":95,"StationName":"Công an huyện Củ Chi","pathPoints":"106.48224640,10.96210098 106.48342896,10.96288013 106.48406982,10.96328068 106.48455811,10.96377563 106.48503876,10.96541882 106.48527527,10.96608162","Address":"532, đường Tỉnh lộ 8, Huyện Củ Chi","Lat":10.966082,"Lng":106.485275},{"StationId":732,"StationOrder":9,"StationDirection":0,"RouteId":95,"StationName":"Bến xe Củ Chi","pathPoints":"106.48527527,10.96608162 106.48529053,10.96622944 106.48572540,10.96744061 106.48597717,10.96806240 106.48609924,10.96817780 106.48624420,10.96821022 106.48631287,10.96839428 106.48627472,10.96858883 106.48605347,10.96869469 106.48583221,10.96860504 106.48493958,10.96910477 106.48413849,10.96963215 106.48387909,10.96971607 106.48248291,10.97072220 106.48178101,10.97132778 106.48197937,10.97140026 106.48210144,10.97142029 106.48220062,10.97148037 106.48226166,10.97154999 106.48210144,10.97161674","Address":"Bến xe Củ Chi, đường Quốc lộ 22, Huyện Củ Chi","Lat":10.971617,"Lng":106.482099},{"StationId":732,"StationOrder":0,"StationDirection":1,"RouteId":95,"StationName":"Bến xe Củ Chi","pathPoints":"","Address":"Bến xe Củ Chi, đường Quốc lộ 22, Huyện Củ Chi","Lat":10.971617,"Lng":106.482099},{"StationId":7617,"StationOrder":1,"StationDirection":1,"RouteId":95,"StationName":"chợ Củ Chi","pathPoints":"106.48210144,10.97161674 106.48188782,10.97178078 106.48249054,10.97271252 106.48316956,10.97370815 106.48303986,10.97376060 106.48152161,10.97139072 106.48188782,10.97103214 106.48246765,10.97056961","Address":"chợ Củ Chi, đường Quốc lộ 22, Huyện Củ Chi","Lat":10.970495,"Lng":106.482453},{"StationId":5826,"StationOrder":2,"StationDirection":1,"RouteId":95,"StationName":"Công an Huyện Củ Chi","pathPoints":"106.48245239,10.97049522 106.48401642,10.96943188 106.48479462,10.96889973 106.48551178,10.96849918 106.48577118,10.96830940 106.48586273,10.96818352 106.48591614,10.96804142 106.48519135,10.96626091","Address":"423, đường Tỉnh lộ 8, Huyện Củ Chi","Lat":10.966261,"Lng":106.485189},{"StationId":3917,"StationOrder":3,"StationDirection":1,"RouteId":95,"StationName":"Nhà hàng Xuân Anh","pathPoints":"106.48519135,10.96626091 106.48463440,10.96416473 106.48442841,10.96370125 106.48390198,10.96327019 106.48235321,10.96233177","Address":"345, đường Tỉnh lộ 8, Huyện Củ Chi","Lat":10.962332,"Lng":106.482357},{"StationId":3918,"StationOrder":4,"StationDirection":1,"RouteId":95,"StationName":"Cây xăng Tài Lộc 18","pathPoints":"106.48235321,10.96233177 106.48075867,10.96125793 106.48020935,10.96095276 106.47618866,10.96098423 106.47546387,10.96123219","Address":"281, đường Tỉnh lộ 8, Huyện Củ Chi","Lat":10.961232,"Lng":106.475464},{"StationId":3921,"StationOrder":5,"StationDirection":1,"RouteId":95,"StationName":"UBND xã Tân An Hội","pathPoints":"106.47546387,10.96123219 106.47486877,10.96139526 106.47382355,10.96158409 106.47346497,10.96160030 106.47241974,10.96153736 106.47233582,10.96156883","Address":"Đối diện 332, đường Tỉnh lộ 8, Huyện Củ Chi","Lat":10.961569,"Lng":106.472336},{"StationId":3919,"StationOrder":6,"StationDirection":1,"RouteId":95,"StationName":"Vật liệu xây dựng Thu Hà","pathPoints":"106.47233582,10.96156883 106.47142792,10.96144009 106.47123718,10.96142006 106.47093201,10.96133995 106.47071075,10.96107960 106.47046661,10.96059036 106.46977234,10.95913982 106.46974182,10.95909977 106.46925354,10.95858288","Address":"Đối diện 276, đường Tỉnh lộ 8, Huyện Củ Chi","Lat":10.958583,"Lng":106.469254},{"StationId":3920,"StationOrder":7,"StationDirection":1,"RouteId":95,"StationName":"Trạm Cấp nước","pathPoints":"106.46925354,10.95858288 106.46921539,10.95843506 106.46830750,10.95716000 106.46779633,10.95646954 106.46733856,10.95602989 106.46655273,10.95536995 106.46566010,10.95472240","Address":"137, đường Tỉnh lộ 8, Huyện Củ Chi","Lat":10.954722,"Lng":106.465657},{"StationId":3922,"StationOrder":8,"StationDirection":1,"RouteId":95,"StationName":"Công ty sắt An Huy","pathPoints":"106.46566010,10.95472240 106.46540070,10.95440006 106.46479797,10.95386982 106.46425629,10.95324039 106.46321869,10.95186996 106.46286011,10.95151043 106.46080017,10.94954014","Address":"111, đường Tỉnh lộ 8, Huyện Củ Chi","Lat":10.94954,"Lng":106.460803},{"StationId":3923,"StationOrder":9,"StationDirection":1,"RouteId":95,"StationName":"Cầu Thầy Cai","pathPoints":"106.46080017,10.94954014 106.45783234,10.94662762 106.45494080,10.94364071","Address":"03, đường Tỉnh lộ 8, Huyện Củ Chi","Lat":10.943641,"Lng":106.454939},{"StationId":7209,"StationOrder":10,"StationDirection":1,"RouteId":95,"StationName":"Bến xe Hậu Nghĩa","pathPoints":"106.45494080,10.94364071 106.45485687,10.94346714 106.44219971,10.92905617 106.42173767,10.90596485 106.41952515,10.90344715 106.41843414,10.90220356 106.41713715,10.90116024 106.40597534,10.89802074 106.39833069,10.89594555 106.39287567,10.89440250 106.39048767,10.90006447 106.39303589,10.90098190","Address":"Bến xe Hậu Nghĩa, đường 3 tháng 2, Ngoại thành","Lat":10.900982,"Lng":106.393039}]