[{"StationId":6863,"StationOrder":0,"StationDirection":0,"RouteId":179,"StationName":"An Nghĩa","pathPoints":"","Address":"Trường THPT An Nghĩa, đường Tam Thôn Hiệp, Huyện Cần Giờ","Lat":10.588982,"Lng":106.830593},{"StationId":6886,"StationOrder":1,"StationDirection":0,"RouteId":179,"StationName":"Rừng Sác","pathPoints":"106.83058929,10.58898163 106.82989502,10.58891296 106.82907867,10.58879757 106.82859039,10.58864975 106.82656860,10.58765793 106.82615662,10.58758926 106.82539368,10.58757877","Address":"Đối diện Phúc Hải, đường Tam Thôn Hiệp, Huyện Cần Giờ","Lat":10.587579,"Lng":106.82539},{"StationId":3667,"StationOrder":2,"StationDirection":0,"RouteId":179,"StationName":"Ngã 3 An Thời Đông","pathPoints":"106.82539368,10.58757877 106.82476044,10.58753204 106.82474518,10.58737373 106.82481384,10.58710480 106.82504272,10.58673573 106.82526398,10.58609200 106.82579041,10.58394623 106.82656860,10.58079815 106.82647705,10.57970619 106.82636261,10.57941055 106.82609558,10.57898903 106.82567596,10.57853031 106.82496643,10.57782936 106.82469940,10.57722282 106.82464600,10.57695866 106.82463074,10.57642078 106.82463074,10.57557201","Address":"Ngã 3 An Thời Đông, đường Rừng Sác, Huyện Cần Giờ","Lat":10.575572,"Lng":106.824633},{"StationId":3669,"StationOrder":3,"StationDirection":0,"RouteId":179,"StationName":"Ngã 3 Lý Nhơn","pathPoints":"106.82463074,10.57557201 106.82479858,10.57357883 106.82492828,10.57316780 106.82579803,10.57106876 106.82629395,10.56978226 106.82659912,10.56898022 106.82665253,10.56868458 106.82647705,10.56590080 106.82650757,10.56536770 106.82656097,10.56492996 106.82745361,10.56320572 106.82788849,10.56233025 106.82827759,10.56144524","Address":"Đ/d Ngã 3 Lý Nhơn, đường Rừng Sác, Huyện Cần Giờ","Lat":10.561445,"Lng":106.828276},{"StationId":6900,"StationOrder":4,"StationDirection":0,"RouteId":179,"StationName":"Trạm kiểm lâm Tắc Cá Cháy 1","pathPoints":"106.82827759,10.56144524 106.82851410,10.56107044 106.82175446,10.55911350 106.81626129,10.55753708","Address":"Trường tiểu học Doi Lầu cơ sở Tắc Cá Cháy 1, đường Lý Nhơn, Huyện Cần Giờ","Lat":10.557811,"Lng":106.817214},{"StationId":7101,"StationOrder":5,"StationDirection":0,"RouteId":179,"StationName":"Lý Nhơn","pathPoints":"106.81721497,10.55781078 106.81044769,10.55582809","Address":"Trụ điện T084D, đường Lý Nhơn, Huyện Cần Giờ","Lat":10.555828,"Lng":106.810445},{"StationId":7103,"StationOrder":6,"StationDirection":0,"RouteId":179,"StationName":"Lý Nhơn","pathPoints":"106.81044769,10.55582809 106.79933929,10.55257988","Address":"Đối diện trụ điện T098b, đường Lý Nhơn, Huyện Cần Giờ","Lat":10.55258,"Lng":106.79934},{"StationId":6901,"StationOrder":7,"StationDirection":0,"RouteId":179,"StationName":"Cây xăng Cẩm Thanh","pathPoints":"106.79933929,10.55257988 106.79872131,10.55241108 106.79413605,10.55362415 106.78929138,10.55356026 106.78826141,10.55337048 106.78621674,10.55286980 106.78433228,10.55236340 106.78215790,10.55170918 106.78192902,10.55168343 106.77648926,10.55306530","Address":"Đối diện Cây xăng Cẩm Thanh, đường Lý Nhơn, Huyện Cần Giờ","Lat":10.553065,"Lng":106.776488},{"StationId":6902,"StationOrder":8,"StationDirection":0,"RouteId":179,"StationName":"Trường THCS Doi Lầu","pathPoints":"106.77648926,10.55306530 106.77606201,10.55318069 106.77585602,10.55330181 106.77568817,10.55347061 106.77557373,10.55362892 106.77392578,10.55590248 106.77233124,10.55811691 106.77224731,10.55824375 106.77117157,10.55905056 106.77030182,10.55969334 106.76942444,10.56036854 106.76877594,10.56070614 106.76832581,10.56081676 106.76624298,10.56108093 106.76510620,10.56127071 106.76494598,10.56127071 106.76189423,10.56018925 106.76147461,10.55997849 106.75940704,10.55826950 106.75917816,10.55802727 106.75903320,10.55778980 106.75891113,10.55736256 106.75848389,10.55471039","Address":"Trường THCS Doi Lầu, đường Lý Nhơn, Huyện Cần Giờ","Lat":10.55471,"Lng":106.758485},{"StationId":6903,"StationOrder":9,"StationDirection":0,"RouteId":179,"StationName":"Chợ Vàm Sác","pathPoints":"106.75848389,10.55471039 106.75848389,10.55471039 106.75803375,10.55195713 106.75769806,10.54972172 106.75769806,10.54954243 106.75772095,10.54936790 106.75786591,10.54895115 106.75813293,10.54845047 106.75887299,10.54735851 106.76014709,10.54550743 106.76120758,10.54395199 106.76200867,10.54278660 106.76252747,10.54204273 106.76305389,10.54135132 106.76478577,10.53954315 106.76623535,10.53788185 106.76704407,10.53675842 106.76737213,10.53620434 106.76728821,10.53597832 106.76728821,10.53597832","Address":"Đối diện Chợ Vàm Sác, đường Lý Nhơn, Huyện Cần Giờ","Lat":10.535978,"Lng":106.767288},{"StationId":6904,"StationOrder":10,"StationDirection":0,"RouteId":179,"StationName":"Dương Văn Hạnh","pathPoints":"106.76728821,10.53597832 106.76728821,10.53597832 106.76728821,10.53597832 106.76761627,10.53562927 106.76782227,10.53464890 106.76771545,10.53328800 106.76609039,10.53285503 106.76609039,10.53285503 106.76609039,10.53285503","Address":"Đối diện số 7, đường Dương Văn Hạnh, Huyện Cần Giờ","Lat":10.532855,"Lng":106.766092},{"StationId":6905,"StationOrder":11,"StationDirection":0,"RouteId":179,"StationName":"Bến đò Rạch Cát- Vàm Sác","pathPoints":"106.76609039,10.53285503 106.75966644,10.53066158 106.75749969,10.52900028 106.75749969,10.52845669","Address":"Bến đò Rạch Cát - Vàm Sát, đường Lý Nhơn, Huyện Cần Giờ","Lat":10.528457,"Lng":106.757498},{"StationId":6906,"StationOrder":12,"StationDirection":0,"RouteId":179,"StationName":"Cống Ông Tư Kính","pathPoints":"106.75749969,10.52845669 106.75759888,10.52685833 106.75775146,10.52588844 106.75802612,10.52285576 106.75801086,10.52125740 106.75813293,10.51986027 106.75833130,10.51523399 106.75843048,10.51291847 106.75849152,10.51125717 106.75840759,10.51064587","Address":"Đối diện Cống Ông Tư Kính, đường Dương Văn Hạnh, Huyện Cần Giờ","Lat":10.510646,"Lng":106.758404},{"StationId":6907,"StationOrder":13,"StationDirection":0,"RouteId":179,"StationName":"Tổ nhân dân 25","pathPoints":"106.75840759,10.51064587 106.75840759,10.51064587 106.75831604,10.50938511 106.75826263,10.50846195 106.75829315,10.50763416 106.75846100,10.49966908 106.75871277,10.49839306 106.75858307,10.49688435 106.75858307,10.49498558 106.75846100,10.49323463 106.75851440,10.49178886 106.75867462,10.49148273 106.75867462,10.49148273","Address":"Đối diện Tổ nhân dân số 25, đường Dương Văn Hạnh, Huyện Cần Giờ","Lat":10.491483,"Lng":106.758678},{"StationId":6908,"StationOrder":14,"StationDirection":0,"RouteId":179,"StationName":"Tổ nhân dân 24","pathPoints":"106.75867462,10.49148273 106.75867462,10.49148273 106.75869751,10.49058628 106.75980377,10.48617649 106.76027679,10.48500538 106.76080322,10.48384476 106.76165771,10.48191547","Address":"Đối diện Tổ nhân dân số 24, đường Dương Văn Hạnh, Huyện Cần Giờ","Lat":10.481915,"Lng":106.761661},{"StationId":6909,"StationOrder":15,"StationDirection":0,"RouteId":179,"StationName":"Trạm y tế xã Lý Nhơn","pathPoints":"106.76187134,10.48147202 106.76261902,10.47983646 106.76315308,10.47900295 106.76428223,10.47695637 106.76473999,10.47630215 106.76519775,10.47579575 106.76677704,10.47392845 106.76835632,10.47228241 106.76989746,10.47094345","Address":"Trạm y tế xã Lý Nhơn, đường Dương Văn Hạnh, Huyện Cần Giờ","Lat":10.470943,"Lng":106.7699},{"StationId":6862,"StationOrder":16,"StationDirection":0,"RouteId":179,"StationName":"Tân Điền","pathPoints":"106.76989746,10.47094345 106.76989746,10.47094345 106.77087402,10.47005653 106.77195740,10.46922302 106.77578735,10.46678543 106.77929688,10.46441174 106.77646637,10.46635342","Address":"Trạm Y tế Ấp Tân Điền, đường Dương Văn Hạnh, Huyện Cần Giờ","Lat":10.466353,"Lng":106.776466},{"StationId":6862,"StationOrder":0,"StationDirection":1,"RouteId":179,"StationName":"Tân Điền","pathPoints":"","Address":"Trạm Y tế Ấp Tân Điền, đường Dương Văn Hạnh, Huyện Cần Giờ","Lat":10.466353,"Lng":106.776466},{"StationId":6890,"StationOrder":1,"StationDirection":1,"RouteId":179,"StationName":"Ngã 3 Lý Nhơn","pathPoints":"106.77933502,10.46433258 106.77918243,10.46457005 106.77575684,10.46695423 106.77195740,10.46947575 106.77156067,10.46966648 106.77121735,10.47002506 106.76959991,10.47134876","Address":"Ngã 3 Lý Nhơn Dương Văn Hạnh, đường Dương Văn Hạnh, Huyện Cần Giờ","Lat":10.471349,"Lng":106.7696},{"StationId":6891,"StationOrder":2,"StationDirection":1,"RouteId":179,"StationName":"Tổ nhân dân 24","pathPoints":"106.76959991,10.47134876 106.76959991,10.47134876 106.76827240,10.47252560 106.76679230,10.47409153 106.76483154,10.47631836 106.76432800,10.47705078 106.76328278,10.47897625 106.76274109,10.47985744 106.76215363,10.48090172 106.76165009,10.48206711 106.76174927,10.48219872","Address":"Tổ nhân dân 24, đường Dương Văn Hạnh, Huyện Cần Giờ","Lat":10.482199,"Lng":106.761746},{"StationId":6892,"StationOrder":3,"StationDirection":1,"RouteId":179,"StationName":"Tổ nhân dân 25","pathPoints":"106.76174927,10.48219872 106.76174927,10.48219872 106.76174927,10.48219872 106.76142120,10.48237896 106.76101685,10.48312759 106.76052094,10.48473644 106.75988770,10.48627663 106.75897980,10.48829746 106.75855255,10.49049187 106.75846100,10.49266434 106.75852203,10.49289131 106.75881195,10.49288559 106.75881195,10.49288559 106.75881195,10.49288559 106.75881195,10.49288559","Address":"Tổ nhân dân 25, đường Dương Văn Hạnh, Huyện Cần Giờ","Lat":10.492886,"Lng":106.758812},{"StationId":6893,"StationOrder":4,"StationDirection":1,"RouteId":179,"StationName":"Cống Ông Tư Kính","pathPoints":"106.75881195,10.49288559 106.75881195,10.49288559 106.75881195,10.49288559 106.75881195,10.49288559 106.75881195,10.49288559 106.75852203,10.49290180 106.75849152,10.49320221 106.75849915,10.49386692 106.75853729,10.49452114 106.75860596,10.49580860 106.75871277,10.49724293 106.75869751,10.49855137 106.75856781,10.49969578 106.75846100,10.50270748 106.75845337,10.50535011 106.75836945,10.50841999 106.75842285,10.50949574 106.75856781,10.51085663 106.75856781,10.51085663 106.75856781,10.51085663 106.75856781,10.51085663 106.75856781,10.51085663","Address":"Cống Ông Tư Kính, đường Dương Văn Hạnh, Huyện Cần Giờ","Lat":10.510857,"Lng":106.758571},{"StationId":6894,"StationOrder":5,"StationDirection":1,"RouteId":179,"StationName":"Bến đò Rạch Cát- Vàm Sác","pathPoints":"106.75856781,10.51085663 106.75856781,10.51131058 106.75852966,10.51276588 106.75846100,10.51459122 106.75827026,10.51828289 106.75821686,10.51989651 106.75810242,10.52128410 106.75808716,10.52185917 106.75810242,10.52283955 106.75797272,10.52438545 106.75785065,10.52589893 106.75768280,10.52691174 106.75761414,10.52861500","Address":"Bến đò Rạch Cát - Vàm Sát, đường Dương Văn Hạnh, Huyện Cần Giờ","Lat":10.528615,"Lng":106.757616},{"StationId":6895,"StationOrder":6,"StationDirection":1,"RouteId":179,"StationName":"Ngã 3 Lý Nhơn","pathPoints":"106.75761414,10.52861500 106.75759888,10.52896309 106.75968933,10.53057671 106.76683807,10.53296566","Address":"7, đường Dương Văn Hạnh, Huyện Cần Giờ","Lat":10.532966,"Lng":106.766837},{"StationId":6896,"StationOrder":7,"StationDirection":1,"RouteId":179,"StationName":"Chợ Vàm Sác","pathPoints":"106.76683807,10.53296566 106.76683807,10.53296566 106.76749420,10.53322983 106.76765442,10.53342533 106.76778412,10.53446960 106.76769257,10.53560829 106.76753998,10.53610420 106.76753998,10.53610420","Address":"Chợ Vàm Sác, đường Lý Nhơn, Huyện Cần Giờ","Lat":10.536104,"Lng":106.76754},{"StationId":6897,"StationOrder":8,"StationDirection":1,"RouteId":179,"StationName":"Trường THCS Doi Lầu","pathPoints":"106.76753998,10.53610420 106.76753998,10.53610420 106.76573944,10.53847790 106.76488495,10.53956413 106.76313019,10.54139423 106.76277924,10.54183674 106.76160431,10.54354572 106.75897980,10.54732704 106.75832367,10.54829216 106.75795746,10.54894066 106.75780487,10.54939461 106.75778198,10.54968929 106.75796509,10.55095577 106.75819397,10.55230522 106.75868225,10.55529594 106.75868225,10.55529594","Address":"Đối diện Trường THCS Doi Lầu, đường Lý Nhơn, Huyện Cần Giờ","Lat":10.555296,"Lng":106.758683},{"StationId":6898,"StationOrder":9,"StationDirection":1,"RouteId":179,"StationName":"Cây xăng Cẩm Thanh","pathPoints":"106.75868225,10.55529594 106.75898743,10.55727863 106.75905609,10.55756283 106.75912476,10.55777931 106.75925446,10.55800056 106.75946808,10.55822277 106.76150513,10.55987835 106.76198578,10.56013680 106.76440430,10.56099129 106.76506042,10.56120205 106.76792145,10.56078053 106.76828766,10.56073761 106.76873779,10.56063271 106.76937103,10.56028938 106.77075958,10.55924034 106.77216339,10.55820656 106.77332306,10.55658722 106.77450562,10.55496311 106.77521515,10.55398273 106.77564240,10.55340195 106.77579498,10.55324936 106.77603149,10.55310154 106.77684784,10.55286980 106.77716064,10.55276394","Address":"Cây xăng Cẩm Thanh, đường Lý Nhơn, Huyện Cần Giờ","Lat":10.552764,"Lng":106.777164},{"StationId":7104,"StationOrder":10,"StationDirection":1,"RouteId":179,"StationName":"Lý Nhơn","pathPoints":"106.77716064,10.55276394 106.78199005,10.55157757 106.78559875,10.55259514 106.78727722,10.55301762 106.78892517,10.55340195 106.78956604,10.55348682 106.79405975,10.55350780 106.79640961,10.55292225 106.79869080,10.55231571 106.79964447,10.55250645","Address":"Trụ điện T098b, đường Lý Nhơn, Huyện Cần Giờ","Lat":10.552506,"Lng":106.799641},{"StationId":7102,"StationOrder":11,"StationDirection":1,"RouteId":179,"StationName":"Lý Nhơn","pathPoints":"106.79964447,10.55250645 106.81035614,10.55562782","Address":"Đối diện trụ điện T083P, đường Lý Nhơn, Huyện Cần Giờ","Lat":10.555628,"Lng":106.810359},{"StationId":6899,"StationOrder":12,"StationDirection":1,"RouteId":179,"StationName":"Trạm kiểm lâm Tắc Cá Cháy 1","pathPoints":"106.81035614,10.55562782 106.81750488,10.55773163","Address":"Trạm kiểm lâm Tắc Cá Cháy 1, đường Lý Nhơn, Huyện Cần Giờ","Lat":10.557732,"Lng":106.817504},{"StationId":3684,"StationOrder":13,"StationDirection":1,"RouteId":179,"StationName":"Ngã 3 Lý Nhơn","pathPoints":"106.81720734,10.55764198 106.81952667,10.55837536 106.82472229,10.55989456 106.82751465,10.56068516 106.82878876,10.56106472 106.82869720,10.56134987","Address":"Ngã 3 Lý Nhơn, đường Rừng Sác, Huyện Cần Giờ","Lat":10.56135,"Lng":106.828694},{"StationId":3682,"StationOrder":14,"StationDirection":1,"RouteId":179,"StationName":"Ngã 3 An Thời Đông","pathPoints":"106.82869720,10.56134987 106.82723236,10.56407642 106.82696533,10.56439781 106.82679749,10.56467724 106.82668304,10.56492519 106.82659912,10.56532574 106.82659912,10.56576920 106.82662201,10.56616974 106.82676697,10.56871128 106.82670593,10.56908607 106.82658386,10.56969738 106.82636261,10.57039928 106.82515717,10.57333660 106.82505035,10.57367325 106.82494354,10.57466507 106.82493591,10.57575130","Address":"Đ/d Ngã 3 An Thời Đông, đường Rừng Sác, Huyện Cần Giờ","Lat":10.575751,"Lng":106.824934},{"StationId":6867,"StationOrder":15,"StationDirection":1,"RouteId":179,"StationName":"Tam Thôn Hiệp","pathPoints":"106.82493591,10.57575130 106.82485962,10.57644749 106.82491302,10.57707977 106.82515717,10.57765007 106.82544708,10.57821369 106.82573700,10.57848835 106.82611084,10.57889938 106.82644653,10.57935810 106.82658386,10.57971668 106.82667542,10.58084488 106.82559967,10.58518505 106.82536316,10.58607101 106.82514954,10.58667755 106.82489777,10.58712578 106.82481384,10.58744240 106.82553864,10.58743668","Address":"Cửa hàng Kim Nguyên, đường Tam Thôn Hiệp, Huyện Cần Giờ","Lat":10.587437,"Lng":106.825535},{"StationId":6863,"StationOrder":16,"StationDirection":1,"RouteId":179,"StationName":"An Nghĩa","pathPoints":"106.82553864,10.58743668 106.82614136,10.58748913 106.82657623,10.58757401 106.82861328,10.58856010 106.82910919,10.58872890 106.83039856,10.58887672 106.83059692,10.58887100 106.83058929,10.58898163","Address":"Trường THPT An Nghĩa, đường Tam Thôn Hiệp, Huyện Cần Giờ","Lat":10.588982,"Lng":106.830593}]