[{"StationId":1615,"StationOrder":0,"StationDirection":0,"RouteId":31,"StationName":"Bến xe buýt Hiệp Thành","pathPoints":"","Address":"BẾN XE BUÝT HIỆP THÀNH, đường Hiệp Thành 17, Quận 12","Lat":10.877756,"Lng":106.641739},{"StationId":1744,"StationOrder":1,"StationDirection":0,"RouteId":31,"StationName":"Hiệp Thành 31","pathPoints":"106.64203644,10.87744999 106.64181519,10.87708664 106.64395905,10.87681770 106.64396667,10.87673855","Address":"28A, đường Nguyễn Ảnh Thủ, Quận 12","Lat":10.876739,"Lng":106.643965},{"StationId":1743,"StationOrder":2,"StationDirection":0,"RouteId":31,"StationName":"Lê Văn Khương","pathPoints":"106.64396667,10.87673855 106.64402008,10.87680244 106.64671326,10.87646484 106.64810944,10.87624931 106.64810944,10.87618065","Address":"17 - 21, đường Nguyễn Ảnh Thủ, Quận 12","Lat":10.876181,"Lng":106.648112},{"StationId":7255,"StationOrder":3,"StationDirection":0,"RouteId":31,"StationName":"Nguyễn Thị Kiêu","pathPoints":"106.64810944,10.87618065 106.64810944,10.87618065 106.64812469,10.87624931 106.64903259,10.87612820 106.64904785,10.87582207 106.65116882,10.87544823 106.65188599,10.87548542 106.65192413,10.87543774 106.65192413,10.87543774","Address":"68A, đường Nguyễn Thị Kiêu, Quận 12","Lat":10.875438,"Lng":106.651921},{"StationId":7252,"StationOrder":4,"StationDirection":0,"RouteId":31,"StationName":"Trường trung học cơ sở Nguyễn Trung Trực","pathPoints":"106.65192413,10.87543774 106.65192413,10.87547970 106.65248108,10.87555408 106.65303040,10.87566948 106.65478516,10.87628078 106.65483093,10.87575340 106.65479279,10.87573814","Address":"345, đường Lê Thị Riêng, Quận 12","Lat":10.875738,"Lng":106.654796},{"StationId":7253,"StationOrder":5,"StationDirection":0,"RouteId":31,"StationName":"Bia Heniken Việt Nam","pathPoints":"106.65479279,10.87573814 106.65484619,10.87573242 106.65500641,10.87412643 106.65502930,10.87350941 106.65454102,10.87172413 106.65435791,10.87004852 106.65432739,10.86894226","Address":"Bia Heniken Việt Nam, đường Lê Thị Riêng, Quận 12","Lat":10.868942,"Lng":106.654329},{"StationId":7254,"StationOrder":6,"StationDirection":0,"RouteId":31,"StationName":"Ủy Ban nhân dân Quận 12","pathPoints":"106.65432739,10.86894226 106.65438843,10.86891079 106.65448761,10.86513805 106.65451050,10.86451721 106.65470123,10.86337852 106.65464020,10.86334705","Address":"01, đường Lê Thị Riêng, Quận 12","Lat":10.863347,"Lng":106.65464},{"StationId":933,"StationOrder":7,"StationDirection":0,"RouteId":31,"StationName":"Bãi xe Tri Ân","pathPoints":"106.65464020,10.86334705 106.65469360,10.86333179 106.65497589,10.86182499 106.65712738,10.86165142","Address":"1797, đường Quốc lộ 1A, Quận 12","Lat":10.861651,"Lng":106.657127},{"StationId":936,"StationOrder":8,"StationDirection":0,"RouteId":31,"StationName":"Cầu Bến Cát","pathPoints":"106.65712738,10.86165142 106.65712738,10.86165142 106.65712738,10.86165142 106.65712738,10.86172009 106.66223907,10.86149311 106.66224670,10.86133480 106.66224670,10.86133480 106.66224670,10.86133480","Address":"953 (973), đường Quốc lộ 1A, Quận 12","Lat":10.861335,"Lng":106.662247},{"StationId":942,"StationOrder":9,"StationDirection":0,"RouteId":31,"StationName":"Gò Sao","pathPoints":"106.66224670,10.86133480 106.66224670,10.86133480 106.66230774,10.86152458 106.66640472,10.86158752 106.66645813,10.86150265 106.66645813,10.86150265","Address":"109, đường Quốc lộ 1A, Quận 12","Lat":10.861503,"Lng":106.666458},{"StationId":7248,"StationOrder":10,"StationDirection":0,"RouteId":31,"StationName":"Cầu Bến Phân","pathPoints":"106.66645813,10.86150265 106.66652679,10.86155033 106.67042542,10.86159325 106.66756439,10.85904789 106.66726685,10.85877419 106.66709900,10.85847950 106.66706085,10.85846901","Address":"9/1, đường Tô Ngọc Vân, Quận 12","Lat":10.858469,"Lng":106.667059},{"StationId":2623,"StationOrder":11,"StationDirection":0,"RouteId":31,"StationName":"Nhà Thờ Hà Nội","pathPoints":"106.66706085,10.85846901 106.66709900,10.85844803 106.66638184,10.85695171 106.66545868,10.85482311 106.66549683,10.85397530 106.66545868,10.85321045 106.66516113,10.85108280 106.66510773,10.85108185","Address":"687, đường Thống Nhất, Quận Gò Vấp","Lat":10.851082,"Lng":106.665106},{"StationId":2758,"StationOrder":12,"StationDirection":0,"RouteId":31,"StationName":"Chùa Tiên Long","pathPoints":"106.66510773,10.85108185 106.66514587,10.85103989 106.66495514,10.84983921 106.66449738,10.84798527 106.66449738,10.84798527","Address":"537, đường Thống Nhất, Quận Gò Vấp","Lat":10.847985,"Lng":106.6645},{"StationId":2759,"StationOrder":13,"StationDirection":0,"RouteId":31,"StationName":"Trường Đại học Hồng Bàng","pathPoints":"106.66449738,10.84798527 106.66459656,10.84690952 106.66472626,10.84583473 106.66471100,10.84520817","Address":"429, đường Thống Nhất, Quận Gò Vấp","Lat":10.844581,"Lng":106.664661},{"StationId":2760,"StationOrder":14,"StationDirection":0,"RouteId":31,"StationName":"UBND Phường 16","pathPoints":"106.66465759,10.84458065 106.66472626,10.84447575 106.66464233,10.84366417 106.66464233,10.84249973","Address":"375 (109A), đường Thống Nhất, Quận Gò Vấp","Lat":10.8425,"Lng":106.66464},{"StationId":1754,"StationOrder":15,"StationDirection":0,"RouteId":31,"StationName":"Ngã ba Nguyễn Văn Lượng","pathPoints":"106.66466522,10.84211540 106.66500092,10.84042931 106.66528320,10.83973408 106.66524506,10.83922291","Address":"303, đường Thống Nhất, Quận Gò Vấp","Lat":10.839223,"Lng":106.665245},{"StationId":1755,"StationOrder":16,"StationDirection":0,"RouteId":31,"StationName":"Điện Lực Gò Vấp","pathPoints":"106.66524506,10.83922291 106.66524506,10.83922291 106.66526031,10.83865929 106.66581726,10.83863258 106.66580963,10.83857536","Address":"287, đường Nguyễn Văn Lượng, Quận Gò Vấp","Lat":10.838575,"Lng":106.665809},{"StationId":1757,"StationOrder":17,"StationDirection":0,"RouteId":31,"StationName":"Lotte Mart","pathPoints":"106.66580963,10.83857536 106.66582489,10.83864880 106.67110443,10.83860111 106.67115021,10.83852673","Address":"Đối diện 274, đường Nguyễn Văn Lượng, Quận Gò Vấp","Lat":10.838527,"Lng":106.671147},{"StationId":1756,"StationOrder":18,"StationDirection":0,"RouteId":31,"StationName":"Ngã sáu Gò Vấp","pathPoints":"106.67115021,10.83852673 106.67118073,10.83859539 106.67288208,10.83860111 106.67454529,10.83854866 106.67456055,10.83847523","Address":"159, đường Nguyễn Văn Lượng, Quận Gò Vấp","Lat":10.838475,"Lng":106.674564},{"StationId":1758,"StationOrder":19,"StationDirection":0,"RouteId":31,"StationName":"Đài Liệt sĩ","pathPoints":"106.67456055,10.83847523 106.67459869,10.83856964 106.67584229,10.83854866 106.67591095,10.83847046 106.67591095,10.83847046","Address":"133, đường Nguyễn Văn Lượng, Quận Gò Vấp","Lat":10.83847,"Lng":106.675911},{"StationId":1759,"StationOrder":20,"StationDirection":0,"RouteId":31,"StationName":"UBND Phường 17","pathPoints":"106.67591095,10.83847046 106.67591095,10.83847046 106.67601776,10.83853817 106.67763519,10.83856392 106.67936707,10.83853245 106.67943573,10.83847523","Address":"27, đường Nguyễn Văn Lượng, Quận Gò Vấp","Lat":10.838475,"Lng":106.679435},{"StationId":1760,"StationOrder":21,"StationDirection":0,"RouteId":31,"StationName":"Trường văn thư lưu trữ","pathPoints":"106.67943573,10.83847523 106.67945862,10.83853817 106.68009949,10.83858013 106.68043518,10.83794785 106.68067932,10.83733177 106.68061066,10.83730030","Address":"181, đường Lê Đức Thọ, Quận Gò Vấp","Lat":10.8373,"Lng":106.68061},{"StationId":4743,"StationOrder":22,"StationDirection":0,"RouteId":31,"StationName":"XP Garden","pathPoints":"106.68061066,10.83730030 106.68069458,10.83731556 106.68099213,10.83650398 106.68298340,10.83722115 106.68351746,10.83620930 106.68345642,10.83617210","Address":"211, đường Dương Quãng Hàm, Quận Gò Vấp","Lat":10.836172,"Lng":106.683458},{"StationId":1763,"StationOrder":23,"StationDirection":0,"RouteId":31,"StationName":"Ngã ba Phạm Huy Thông","pathPoints":"106.68345642,10.83617210 106.68351746,10.83621407 106.68472290,10.83386421 106.68466187,10.83384323","Address":"127, đường Dương Quảng Hàm, Quận Gò Vấp","Lat":10.833843,"Lng":106.68466},{"StationId":1764,"StationOrder":24,"StationDirection":0,"RouteId":31,"StationName":"Chợ Bến Cát","pathPoints":"106.68466187,10.83384323 106.68472290,10.83389568 106.68498993,10.83340073 106.68734741,10.83102989 106.68833923,10.82993889 106.68829346,10.82987118","Address":"Đối diện 270, đường Dương Quảng Hàm, Quận Gò Vấp","Lat":10.829871,"Lng":106.688297},{"StationId":1765,"StationOrder":25,"StationDirection":0,"RouteId":31,"StationName":"Vincom Plaza","pathPoints":"106.68829346,10.82987118 106.68836975,10.82990265 106.69024658,10.82785225 106.69062805,10.82758427 106.68981934,10.82682037 106.68975830,10.82682037","Address":"Đối diện 472, đường Nguyễn Thái Sơn, Quận Gò Vấp","Lat":10.82682,"Lng":106.689756},{"StationId":540,"StationOrder":26,"StationDirection":0,"RouteId":31,"StationName":"UBND Phường 5","pathPoints":"106.68975830,10.82682037 106.68880463,10.82584000 106.68825531,10.82551289","Address":"247, đường Nguyễn Thái Sơn, Quận Gò Vấp","Lat":10.825513,"Lng":106.688259},{"StationId":2101,"StationOrder":27,"StationDirection":0,"RouteId":31,"StationName":"Trường Đại học Công nghiệp","pathPoints":"106.68825531,10.82551289 106.68684387,10.82460213 106.68643951,10.82421207 106.68746185,10.82345867 106.68802643,10.82294750 106.68825531,10.82239437","Address":"5, đường Nguyễn Văn Nghi, Quận Gò Vấp","Lat":10.822394,"Lng":106.688254},{"StationId":2104,"StationOrder":28,"StationDirection":0,"RouteId":31,"StationName":"Ngã Ba Nguyên Hồng","pathPoints":"106.68833923,10.82215691 106.68833923,10.82215691 106.68878174,10.82137680 106.68909454,10.82078171 106.68921661,10.82066059 106.68945313,10.82046604 106.68977356,10.82014942 106.68990326,10.81997013 106.68999481,10.81977558 106.69001007,10.81965446 106.68990326,10.81960678 106.68983459,10.81951237 106.68984985,10.81939602 106.68991852,10.81931210 106.68980408,10.81906891 106.68945313,10.81847954 106.68917084,10.81789970 106.68909454,10.81778908","Address":"497, đường Lê Quang Định, Quận Gò Vấp","Lat":10.817789,"Lng":106.689091},{"StationId":2106,"StationOrder":29,"StationDirection":0,"RouteId":31,"StationName":"Chùa Già Lam","pathPoints":"106.68909454,10.81778908 106.68909454,10.81778908 106.68856812,10.81651878 106.68860626,10.81596088 106.68867493,10.81575489 106.68879700,10.81551266 106.68901825,10.81517029 106.68901825,10.81517029","Address":"435, đường Lê Quang Định, Quận Bình Thạnh","Lat":10.81517,"Lng":106.689016},{"StationId":2105,"StationOrder":30,"StationDirection":0,"RouteId":31,"StationName":"Ngã Tư Xóm Gà","pathPoints":"106.68901825,10.81517029 106.68947601,10.81485367 106.68961334,10.81441116 106.68980408,10.81354713 106.68995667,10.81294155 106.69042969,10.81201935","Address":"337, đường Lê Quang Định, Quận Bình Thạnh","Lat":10.812019,"Lng":106.690426},{"StationId":422,"StationOrder":31,"StationDirection":0,"RouteId":31,"StationName":"UBND Quận Bình Thạnh","pathPoints":"106.69042969,10.81201935 106.69100189,10.81121349 106.69036102,10.81088066 106.68929291,10.80952644 106.68888855,10.80916882 106.68827820,10.80867290 106.68795013,10.80833626 106.68891144,10.80780888 106.69095612,10.80556965 106.69166565,10.80465794 106.69203186,10.80407810 106.69241333,10.80306721 106.69515228,10.80266571","Address":"3, đường Phan Đăng Lưu, Quận Bình Thạnh","Lat":10.802666,"Lng":106.695153},{"StationId":517,"StationOrder":32,"StationDirection":0,"RouteId":31,"StationName":"Lăng Ông Bà Chiểu","pathPoints":"106.69515228,10.80266571 106.69715881,10.80240822","Address":"1, đường Phan Đăng Lưu, Quận Bình Thạnh","Lat":10.802408,"Lng":106.697159},{"StationId":518,"StationOrder":33,"StationDirection":0,"RouteId":31,"StationName":"Chợ Bà Chiểu","pathPoints":"106.69715881,10.80240822 106.69719696,10.80250263 106.69804382,10.80240250 106.69943237,10.80296135 106.69947052,10.80289268","Address":"473C, đường Bạch Đằng, Quận Bình Thạnh","Lat":10.802893,"Lng":106.699471},{"StationId":519,"StationOrder":34,"StationDirection":0,"RouteId":31,"StationName":"Tòa Án nhân dân Quận Bình Thạnh","pathPoints":"106.69947052,10.80289268 106.69947052,10.80289268 106.69944000,10.80297756 106.70116425,10.80368805 106.70120239,10.80361462 106.70120239,10.80361462","Address":"449, đường Bạch Đằng, Quận Bình Thạnh","Lat":10.803615,"Lng":106.701204},{"StationId":520,"StationOrder":35,"StationDirection":0,"RouteId":31,"StationName":"Chùa Bồ Đề","pathPoints":"106.70120239,10.80361462 106.70120239,10.80361462 106.70120239,10.80361462 106.70114899,10.80368328 106.70157623,10.80383587 106.70273590,10.80353069 106.70341492,10.80342007 106.70396423,10.80336666 106.70398712,10.80329323 106.70398712,10.80329323 106.70398712,10.80329323","Address":"375, đường Bạch Đằng, Quận Bình Thạnh","Lat":10.803293,"Lng":106.703988},{"StationId":521,"StationOrder":36,"StationDirection":0,"RouteId":31,"StationName":"Nhà thờ Hàng Xanh","pathPoints":"106.70398712,10.80329323 106.70398712,10.80329323 106.70398712,10.80329323 106.70398712,10.80334568 106.70668030,10.80315113 106.70671082,10.80307674 106.70671082,10.80307674 106.70671082,10.80307674","Address":"235, đường Bạch Đằng, Quận Bình Thạnh","Lat":10.803077,"Lng":106.706713},{"StationId":366,"StationOrder":37,"StationDirection":0,"RouteId":31,"StationName":"Chợ Hàng Xanh","pathPoints":"106.70671082,10.80307674 106.70671082,10.80307674 106.70671082,10.80307674 106.70671844,10.80315113 106.71046448,10.80286121 106.71051025,10.80279255 106.71051025,10.80279255 106.71051025,10.80279255","Address":"39, đường Bạch Đằng, Quận Bình Thạnh","Lat":10.802793,"Lng":106.710511},{"StationId":299,"StationOrder":38,"StationDirection":0,"RouteId":31,"StationName":"Ngã Ba Hàng Xanh","pathPoints":"106.71051025,10.80279255 106.71051025,10.80279255 106.71051025,10.80279255 106.71051025,10.80285549 106.71139526,10.80277729 106.71144104,10.80325127 106.71150970,10.80326176 106.71150970,10.80326176 106.71150970,10.80326176","Address":"334-336, đường Xô Viết Nghệ Tĩnh, Quận Bình Thạnh","Lat":10.803262,"Lng":106.711509},{"StationId":302,"StationOrder":39,"StationDirection":0,"RouteId":31,"StationName":"Đài Liệt sĩ","pathPoints":"106.71150970,10.80326176 106.71144104,10.80327225 106.71160889,10.80783558 106.71171570,10.80833626 106.71189117,10.80881596 106.71196747,10.80883121 106.71196747,10.80883121","Address":"504, đường Xô Viết Nghệ Tĩnh, Quận Bình Thạnh","Lat":10.808831,"Lng":106.711965},{"StationId":301,"StationOrder":40,"StationDirection":0,"RouteId":31,"StationName":"Siêu thị Coop Mart","pathPoints":"106.71196747,10.80883121 106.71192169,10.80886269 106.71209717,10.80930519 106.71223450,10.80979061 106.71231079,10.81028557 106.71235657,10.81078625 106.71240997,10.81079102","Address":"222/13A (52), đường Quốc lộ 13, Quận Bình Thạnh","Lat":10.810791,"Lng":106.71241},{"StationId":303,"StationOrder":41,"StationDirection":0,"RouteId":31,"StationName":"Cổng ra - Bến xe Miền Đông 2","pathPoints":"106.71240997,10.81079102 106.71240997,10.81079102 106.71237946,10.81083870 106.71256256,10.81228828 106.71260834,10.81231976 106.71260834,10.81231976","Address":"126-128, đường Quốc lộ 13, Quận Bình Thạnh","Lat":10.81232,"Lng":106.712608},{"StationId":305,"StationOrder":42,"StationDirection":0,"RouteId":31,"StationName":"Cổng ra - Bến xe Miền Đông 1","pathPoints":"106.71260834,10.81231976 106.71260834,10.81231976 106.71260834,10.81231976 106.71269226,10.81306744 106.71279144,10.81385326 106.71279144,10.81385326 106.71279144,10.81385326","Address":"152, đường Quốc lộ 13, Quận Bình Thạnh","Lat":10.813853,"Lng":106.712791},{"StationId":361,"StationOrder":43,"StationDirection":0,"RouteId":31,"StationName":"Cổng vào-Bến xe Miền Đông","pathPoints":"106.71279144,10.81385326 106.71313477,10.81739330 106.71292114,10.81740475 106.71209717,10.81723022 106.71125793,10.81666088","Address":"78/3, đường Đinh Bộ Lĩnh, Quận Bình Thạnh","Lat":10.816661,"Lng":106.711257},{"StationId":1403,"StationOrder":44,"StationDirection":0,"RouteId":31,"StationName":"Bến xe Miền Đông","pathPoints":"106.71125793,10.81666088 106.71125793,10.81666088 106.71125793,10.81666088 106.71116638,10.81653500 106.71083832,10.81598663 106.71065521,10.81568146 106.71050262,10.81536484 106.71013641,10.81460094 106.70992279,10.81421661 106.70979309,10.81382656 106.71014404,10.81394291 106.71070099,10.81506443 106.71129608,10.81473255 106.71129608,10.81473255 106.71129608,10.81473255","Address":"Bến xe Miền Đông, đường Đinh Bộ Lĩnh, Quận Bình Thạnh","Lat":10.814733,"Lng":106.711294},{"StationId":1403,"StationOrder":0,"StationDirection":1,"RouteId":31,"StationName":"Bến xe Miền Đông","pathPoints":"","Address":"Bến xe Miền Đông, đường Đinh Bộ Lĩnh, Quận Bình Thạnh","Lat":10.814733,"Lng":106.711294},{"StationId":362,"StationOrder":1,"StationDirection":1,"RouteId":31,"StationName":"Ngã Tư Nguyễn Xí","pathPoints":"106.71129608,10.81473255 106.71129608,10.81473255 106.71073151,10.81503296 106.71122742,10.81597137 106.71091461,10.81612396 106.71002960,10.81436443 106.70922089,10.81262493 106.70922089,10.81262493","Address":"291-293, đường Đinh Bộ Lĩnh, Quận Bình Thạnh","Lat":10.812625,"Lng":106.709223},{"StationId":363,"StationOrder":2,"StationDirection":1,"RouteId":31,"StationName":"Ngã Tư Chu Văn An","pathPoints":"106.70922089,10.81262493 106.70911407,10.81200886 106.70914459,10.80975914","Address":"183, đường Đinh Bộ Lĩnh, Quận Bình Thạnh","Lat":10.809759,"Lng":106.709143},{"StationId":364,"StationOrder":3,"StationDirection":1,"RouteId":31,"StationName":"Cầu Đinh Bộ Lĩnh","pathPoints":"106.70914459,10.80975914 106.70934296,10.80690765","Address":"85, đường Đinh Bộ Lĩnh, Quận Bình Thạnh","Lat":10.806908,"Lng":106.709341},{"StationId":365,"StationOrder":4,"StationDirection":1,"RouteId":31,"StationName":"Trạm xăng dầu","pathPoints":"106.70934296,10.80690765 106.70949554,10.80552769 106.70939636,10.80442142","Address":"17, đường Đinh Bộ Lĩnh, Quận Bình Thạnh","Lat":10.804421,"Lng":106.709395},{"StationId":588,"StationOrder":5,"StationDirection":1,"RouteId":31,"StationName":"Nhà thờ Hàng Xanh","pathPoints":"106.70939636,10.80442142 106.70938110,10.80305576 106.70803070,10.80317688","Address":"96, đường Bạch Đằng, Quận Bình Thạnh","Lat":10.803177,"Lng":106.708032},{"StationId":589,"StationOrder":6,"StationDirection":1,"RouteId":31,"StationName":"Chùa Bồ Đề","pathPoints":"106.70803070,10.80317688 106.70401764,10.80348301","Address":"246, đường Bạch Đằng, Quận Bình Thạnh","Lat":10.803483,"Lng":106.704015},{"StationId":590,"StationOrder":7,"StationDirection":1,"RouteId":31,"StationName":"Tòa Án nhân dân Quận Bình Thạnh","pathPoints":"106.70401764,10.80348301 106.70401764,10.80348301 106.70288086,10.80356216 106.70153809,10.80391026 106.70118713,10.80387306","Address":"288, đường Bạch Đằng, Quận Bình Thạnh","Lat":10.803873,"Lng":106.701187},{"StationId":592,"StationOrder":8,"StationDirection":1,"RouteId":31,"StationName":"Chợ Bà Chiểu","pathPoints":"106.70096588,10.80375671 106.69937134,10.80312538","Address":"368, đường Bạch Đằng, Quận Bình Thạnh","Lat":10.803125,"Lng":106.699374},{"StationId":591,"StationOrder":9,"StationDirection":1,"RouteId":31,"StationName":"UBND Quận Bình Thạnh","pathPoints":"106.69937134,10.80312538 106.69941711,10.80306149 106.69815063,10.80252361 106.69786072,10.80250835 106.69747162,10.80255604 106.69577789,10.80274010 106.69578552,10.80281925","Address":"6-8, đường Phan Đăng Lưu, Quận Bình Thạnh","Lat":10.802819,"Lng":106.695786},{"StationId":594,"StationOrder":10,"StationDirection":1,"RouteId":31,"StationName":"Bệnh Viện Gia Định","pathPoints":"106.69578552,10.80281925 106.69577789,10.80276108 106.69352722,10.80304050 106.69354248,10.80311871","Address":"10, đường Phan Đăng Lưu, Quận Bình Thạnh","Lat":10.803119,"Lng":106.693543},{"StationId":2038,"StationOrder":11,"StationDirection":1,"RouteId":31,"StationName":"Ngã Tư Xóm Gà","pathPoints":"106.69354248,10.80311871 106.69241333,10.80322456 106.69227600,10.80372524 106.69174957,10.80466366 106.69081116,10.80581188 106.68962860,10.80708694 106.68893433,10.80784607 106.68802643,10.80834103 106.68846130,10.80875778 106.68903351,10.80918407 106.68939209,10.80954838 106.69040680,10.81084442 106.69111633,10.81119156 106.69084930,10.81166553","Address":"424, đường Lê Quang Định, Quận Bình Thạnh","Lat":10.811666,"Lng":106.69085},{"StationId":2043,"StationOrder":12,"StationDirection":1,"RouteId":31,"StationName":"Chùa Già Lam","pathPoints":"106.69041443,10.81227207 106.69013977,10.81270409 106.68997955,10.81318378 106.68976593,10.81427383","Address":"488, đường Lê Quang Định, Quận Bình Thạnh","Lat":10.814522,"Lng":106.68974},{"StationId":2047,"StationOrder":13,"StationDirection":1,"RouteId":31,"StationName":"Ngã Ba Nguyên Hồng","pathPoints":"106.68974304,10.81452179 106.68968964,10.81462193 106.68959045,10.81481171 106.68946838,10.81494904 106.68930817,10.81509113 106.68889618,10.81544399 106.68869781,10.81582355 106.68865204,10.81606579 106.68864441,10.81633949 106.68867493,10.81660843 106.68900299,10.81729412","Address":"566, đường Lê Quang Định, Quận Gò Vấp","Lat":10.817294,"Lng":106.689},{"StationId":2046,"StationOrder":14,"StationDirection":1,"RouteId":31,"StationName":"Trường Đại học Công nghiệp","pathPoints":"106.68927765,10.81787300 106.68988037,10.81919575 106.69000244,10.81949043 106.69005585,10.81980133 106.68999481,10.81996536 106.68989563,10.82013321 106.68975830,10.82029152 106.68959808,10.82044983 106.68917847,10.82079792 106.68875885,10.82164574","Address":"28, đường Nguyễn Văn Nghi, Quận Gò Vấp","Lat":10.821598,"Lng":106.688774},{"StationId":462,"StationOrder":15,"StationDirection":1,"RouteId":31,"StationName":"UBND Phường 5","pathPoints":"106.68877411,10.82159805 106.68877411,10.82159805 106.68875885,10.82164574 106.68867493,10.82170868 106.68808746,10.82292652 106.68746948,10.82352161 106.68654633,10.82417011 106.68694305,10.82463837 106.68773651,10.82508087 106.68797302,10.82513428 106.68797302,10.82513428","Address":"396, đường Nguyễn Thái Sơn, Quận Gò Vấp","Lat":10.825134,"Lng":106.687975},{"StationId":2729,"StationOrder":16,"StationDirection":1,"RouteId":31,"StationName":"Vincom Plaza","pathPoints":"106.68797302,10.82513428 106.68797302,10.82513428 106.68876648,10.82572365 106.68934631,10.82625103 106.68841553,10.82712555 106.68843842,10.82721996 106.68843842,10.82721996","Address":"12, đường Phan Văn Trị, Quận Gò Vấp","Lat":10.827184,"Lng":106.688409},{"StationId":2731,"StationOrder":17,"StationDirection":1,"RouteId":31,"StationName":"PCCC Quận Gò Vấp","pathPoints":"106.68843842,10.82721996 106.68843842,10.82721996 106.68840027,10.82714176 106.68791962,10.82748413 106.68473053,10.82853794 106.68473816,10.82865429 106.68473816,10.82865429 106.68473816,10.82865429 106.68473816,10.82865429","Address":"B2 - 15-17, đường Phan Văn Trị, Quận Gò Vấp","Lat":10.828496,"Lng":106.684976},{"StationId":1655,"StationOrder":18,"StationDirection":1,"RouteId":31,"StationName":"Ngã ba Phạm Huy Thông","pathPoints":"106.68473816,10.82865429 106.68468475,10.82854843 106.68436432,10.82864857 106.68501282,10.83062935 106.68580627,10.83255768 106.68504333,10.83332157 106.68475342,10.83383274 106.68476105,10.83390713","Address":"428, đường Dương Quảng Hàm, Quận Gò Vấp","Lat":10.833907,"Lng":106.684762},{"StationId":1660,"StationOrder":19,"StationDirection":1,"RouteId":31,"StationName":"XP Garden","pathPoints":"106.68421173,10.83493900 106.68373871,10.83575630 106.68338013,10.83660984","Address":"484, đường Dương Quảng Hàm, Quận Gò Vấp","Lat":10.836583,"Lng":106.683394},{"StationId":1657,"StationOrder":20,"StationDirection":1,"RouteId":31,"StationName":"Trường Văn Thư lưu trữ","pathPoints":"106.68339539,10.83658314 106.68332672,10.83657837 106.68301392,10.83720493 106.68099976,10.83654118 106.68085480,10.83696270 106.68089294,10.83701515","Address":"194, đường Lê Đức Thọ, Quận Gò Vấp","Lat":10.837015,"Lng":106.680894},{"StationId":1662,"StationOrder":21,"StationDirection":1,"RouteId":31,"StationName":"UBND Phường 17","pathPoints":"106.68089294,10.83701515 106.68089294,10.83701515 106.68083954,10.83700466 106.68041992,10.83806324 106.68009949,10.83860111 106.67932129,10.83854294 106.67931366,10.83860111 106.67931366,10.83860111","Address":"54, đường Nguyễn Văn Lượng, Quận Gò Vấp","Lat":10.838601,"Lng":106.679311},{"StationId":1659,"StationOrder":22,"StationDirection":1,"RouteId":31,"StationName":"Đài Liệt sĩ","pathPoints":"106.67931366,10.83860111 106.67927551,10.83856392 106.67783356,10.83854294 106.67639923,10.83855915 106.67636871,10.83861160","Address":"178, đường Nguyễn Văn Lượng, Quận Gò Vấp","Lat":10.838612,"Lng":106.676366},{"StationId":1664,"StationOrder":23,"StationDirection":1,"RouteId":31,"StationName":"Ngã sáu Gò Vấp","pathPoints":"106.67607117,10.83861160 106.67474365,10.83863258","Address":"192, đường Nguyễn Văn Lượng, Quận Gò Vấp","Lat":10.838633,"Lng":106.674183},{"StationId":1661,"StationOrder":24,"StationDirection":1,"RouteId":31,"StationName":"Lotte Mart","pathPoints":"106.67418671,10.83863258 106.67250061,10.83861732 106.67079926,10.83866978","Address":"286, đường Nguyễn Văn Lượng, Quận Gò Vấp","Lat":10.83867,"Lng":106.670798},{"StationId":1666,"StationOrder":25,"StationDirection":1,"RouteId":31,"StationName":"Điện Lực Gò Vấp","pathPoints":"106.67079926,10.83866978 106.67075348,10.83861160 106.66663361,10.83864880 106.66661072,10.83870125","Address":"372, đường Nguyễn Văn Lượng, Quận Gò Vấp","Lat":10.838701,"Lng":106.666608},{"StationId":4744,"StationOrder":26,"StationDirection":1,"RouteId":31,"StationName":"UBND Phường 16","pathPoints":"106.66661072,10.83870125 106.66656494,10.83865929 106.66528320,10.83865356 106.66531372,10.83971786 106.66494751,10.84066105 106.66473389,10.84209919 106.66481018,10.84212589","Address":"328, đường Thống Nhất, Quận Gò Vấp","Lat":10.842126,"Lng":106.664811},{"StationId":2741,"StationOrder":27,"StationDirection":1,"RouteId":31,"StationName":"Trường Đại học Hồng Bàng","pathPoints":"106.66481018,10.84212589 106.66481018,10.84212589 106.66481018,10.84212589 106.66473389,10.84214211 106.66464233,10.84360123 106.66474152,10.84452343 106.66478729,10.84549236 106.66483307,10.84550285 106.66483307,10.84550285 106.66483307,10.84550285","Address":"452, đường Thống Nhất, Quận Gò Vấp","Lat":10.845503,"Lng":106.664833},{"StationId":4726,"StationOrder":28,"StationDirection":1,"RouteId":31,"StationName":"Chùa Tiên Long","pathPoints":"106.66483307,10.84550285 106.66483307,10.84550285 106.66477966,10.84549236 106.66458893,10.84709930 106.66457367,10.84756279 106.66460419,10.84796906 106.66464996,10.84799480 106.66464996,10.84799480","Address":"540, đường Thống Nhất, Quận Gò Vấp","Lat":10.847995,"Lng":106.66465},{"StationId":2632,"StationOrder":29,"StationDirection":1,"RouteId":31,"StationName":"Nhà Thờ Hà Nội","pathPoints":"106.66464996,10.84799480 106.66464996,10.84799480 106.66464996,10.84799480 106.66458130,10.84805298 106.66495514,10.84982300 106.66525269,10.85176182 106.66531372,10.85183620 106.66531372,10.85183620 106.66531372,10.85183620","Address":"716, đường Thống Nhất, Quận Gò Vấp","Lat":10.851836,"Lng":106.665316},{"StationId":7245,"StationOrder":30,"StationDirection":1,"RouteId":31,"StationName":"Cầu Bến Phân","pathPoints":"106.66531372,10.85183620 106.66525269,10.85189342 106.66545868,10.85318470 106.66551971,10.85392189 106.66545868,10.85470200 106.66550446,10.85496044 106.66629028,10.85672474 106.66686249,10.85791588 106.66694641,10.85789967","Address":"48, đường Tô Ngọc Vân, Quận 12","Lat":10.8579,"Lng":106.666946},{"StationId":7246,"StationOrder":31,"StationDirection":1,"RouteId":31,"StationName":"Tịnh xá Ngọc Phước","pathPoints":"106.66694641,10.85789967 106.66687775,10.85797882 106.66728210,10.85879517 106.66811371,10.85961246 106.66849518,10.85982323 106.66886139,10.86013317 106.66894531,10.86009121","Address":"39/1, đường Tô Ngọc Vân, Quận 12","Lat":10.860091,"Lng":106.668942},{"StationId":965,"StationOrder":32,"StationDirection":1,"RouteId":31,"StationName":"Trường Mầm non Ngôi Nhà Trẻ Thơ","pathPoints":"106.66894531,10.86009121 106.66894531,10.86009121 106.66894531,10.86009121 106.66889954,10.86016560 106.67039490,10.86152935 106.67100525,10.86164570 106.67121887,10.86185646 106.66749573,10.86182499 106.66745758,10.86187744 106.66745758,10.86187744 106.66745758,10.86187744","Address":"990, đường Quốc lộ 1A, Quận 12","Lat":10.861877,"Lng":106.667461},{"StationId":977,"StationOrder":33,"StationDirection":1,"RouteId":31,"StationName":"Cơ khí Minh Huy","pathPoints":"106.66745758,10.86187744 106.66745758,10.86187744 106.66747284,10.86177731 106.66139221,10.86169338 106.66139221,10.86181927 106.66139221,10.86181927","Address":"1218/11, đường Quốc lộ 1A, Quận 12","Lat":10.861819,"Lng":106.661389},{"StationId":966,"StationOrder":34,"StationDirection":1,"RouteId":31,"StationName":"Đá hoa cương Chí Thành","pathPoints":"106.66139221,10.86181927 106.66139221,10.86181927 106.66136932,10.86169338 106.65716553,10.86186123 106.65718079,10.86198807 106.65718079,10.86198807","Address":"1360, đường Quốc lộ 1A, Quận 12","Lat":10.861988,"Lng":106.657183},{"StationId":7249,"StationOrder":35,"StationDirection":1,"RouteId":31,"StationName":"UBND Quận 12","pathPoints":"106.65718079,10.86198807 106.65501404,10.86200428 106.65483856,10.86327744","Address":"A101-A100, đường Lê Thị Riêng, Quận 12","Lat":10.863277,"Lng":106.654839},{"StationId":7250,"StationOrder":36,"StationDirection":1,"RouteId":31,"StationName":"Bia Heniken Việt Nam","pathPoints":"106.65483856,10.86327744 106.65457916,10.86486435 106.65450287,10.86917877","Address":"68, đường Lê Thị Riêng, Quận 12","Lat":10.869179,"Lng":106.654501},{"StationId":7251,"StationOrder":37,"StationDirection":1,"RouteId":31,"StationName":"Trường THCS Nguyễn Trung Trực","pathPoints":"106.65450287,10.86917877 106.65450287,10.86917877 106.65438080,10.86934280 106.65464783,10.87211323 106.65504456,10.87329388 106.65511322,10.87379932 106.65492249,10.87545395 106.65501404,10.87550068 106.65501404,10.87550068","Address":"364, đường Lê Thị Riêng, Quận 12","Lat":10.875501,"Lng":106.655014},{"StationId":7256,"StationOrder":38,"StationDirection":1,"RouteId":31,"StationName":"Nguyễn Thị Kiêu","pathPoints":"106.65501404,10.87550068 106.65494537,10.87553215 106.65489197,10.87630177 106.65426636,10.87612820 106.65299225,10.87566948 106.65233612,10.87551117 106.65225983,10.87555885","Address":"83-85, đường Nguyễn Thị Kiêu, Quận 12","Lat":10.875559,"Lng":106.652259},{"StationId":1676,"StationOrder":39,"StationDirection":1,"RouteId":31,"StationName":"Lê Văn Khương","pathPoints":"106.65225983,10.87555885 106.65216064,10.87550068 106.65164185,10.87548542 106.65112305,10.87550640 106.64904785,10.87585926 106.64903259,10.87613297 106.64854431,10.87619591 106.64850616,10.87624931","Address":"98/4, đường Nguyễn Ảnh Thủ, Quận 12","Lat":10.876249,"Lng":106.648509},{"StationId":6835,"StationOrder":40,"StationDirection":1,"RouteId":31,"StationName":"Hiệp Thành 31","pathPoints":"106.64850616,10.87624931 106.64843750,10.87622261 106.64630890,10.87654400 106.64417267,10.87681293 106.64418030,10.87687588","Address":"140, đường Nguyễn Ảnh Thủ, Quận 12","Lat":10.876876,"Lng":106.64418},{"StationId":1615,"StationOrder":41,"StationDirection":1,"RouteId":31,"StationName":"Bến xe buýt Hiệp Thành","pathPoints":"106.64418030,10.87687588 106.64418030,10.87687588 106.64415741,10.87681770 106.64183807,10.87709236 106.64203644,10.87744999","Address":"BẾN XE BUÝT HIỆP THÀNH, đường Hiệp Thành 17, Quận 12","Lat":10.877756,"Lng":106.641739}]