[{"StationId":394,"StationOrder":0,"StationDirection":0,"RouteId":133,"StationName":"Đại học Nông Lâm","pathPoints":"","Address":"Bến xe buýt ĐH Nông Lâm, đường Quốc lộ 1, Quận Thủ Đức","Lat":10.868183135986328,"Lng":106.78744506835938},{"StationId":1101,"StationOrder":1,"StationDirection":0,"RouteId":133,"StationName":"ĐH Nông Lâm","pathPoints":"106.78744507,10.86818314 106.78774261,10.86791515 106.78778076,10.86773586 106.78797913,10.86759377 106.78811646,10.86739826 106.78813171,10.86729813 106.78727722,10.86732960 106.78726196,10.86740398","Address":"Kế 21, đường Quốc lộ 1, Quận Thủ Đức","Lat":10.867404,"Lng":106.787265},{"StationId":1102,"StationOrder":2,"StationDirection":0,"RouteId":133,"StationName":"Công ty điện tử Samsung","pathPoints":"106.78726196,10.86740398 106.78669739,10.86732006 106.78428650,10.86742020 106.78308105,10.86754990 106.78215790,10.86775970 106.78220367,10.86786747","Address":"34/38 (Kế 59/6), đường Quốc lộ 1, Quận Thủ Đức","Lat":10.867867,"Lng":106.782201},{"StationId":1103,"StationOrder":3,"StationDirection":0,"RouteId":133,"StationName":"Đại học Kinh tế -Luật","pathPoints":"106.78215790,10.86775970 106.78076935,10.86818981 106.77931976,10.86865044 106.77787018,10.86913967","Address":"Đại học Kinh tế -Luật, đường Quốc lộ 1, Quận Thủ Đức","Lat":10.869274,"Lng":106.777909},{"StationId":2142,"StationOrder":4,"StationDirection":0,"RouteId":133,"StationName":"Trung tâm kho vận Linh Xuân","pathPoints":"106.77790833,10.86927414 106.77787018,10.86913967 106.77542877,10.86995029 106.77487946,10.87012005 106.77493286,10.87025356","Address":"Trung tâm kho vận Linh Xuân, đường Quốc lộ 1, Quận Thủ Đức","Lat":10.870254,"Lng":106.774932},{"StationId":2147,"StationOrder":5,"StationDirection":0,"RouteId":133,"StationName":"Nghĩa trang Thành phố","pathPoints":"106.77487946,10.87012005 106.77285004,10.87078953","Address":"Cột điện NG/1, đường Quốc lộ 1, Quận Thủ Đức","Lat":10.870912,"Lng":106.772878},{"StationId":2143,"StationOrder":6,"StationDirection":0,"RouteId":133,"StationName":"Công ty Nissan","pathPoints":"106.77285004,10.87078953 106.77078247,10.87147045","Address":"Đối diện công ty Nissan, đường Quốc lộ 1, Quận Thủ Đức","Lat":10.871571,"Lng":106.770823},{"StationId":3385,"StationOrder":7,"StationDirection":0,"RouteId":133,"StationName":"Trạm cầu vượt Linh Xuân","pathPoints":"106.77078247,10.87147045 106.76754761,10.87252998 106.76730347,10.87269974 106.76686859,10.87285042 106.76580811,10.87322998 106.76509857,10.87347031 106.76502991,10.87331009 106.76470184,10.87254047 106.76435852,10.87205982","Address":"1123, đường Kha Vạn Cân, Quận Thủ Đức","Lat":10.871423,"Lng":106.76371},{"StationId":3384,"StationOrder":8,"StationDirection":0,"RouteId":133,"StationName":"Nhà hàng tiệc cưới Phố Đôi","pathPoints":"106.76371002,10.87142277 106.76376343,10.87131977 106.76342010,10.87084007 106.76329803,10.87059021 106.76325989,10.87034988 106.76329041,10.86966991 106.76328278,10.86935997 106.76319122,10.86907959 106.76304626,10.86882019 106.76247406,10.86777782","Address":"7/16, đường Kha Vạn Cân, Quận Thủ Đức","Lat":10.867778,"Lng":106.762476},{"StationId":3387,"StationOrder":9,"StationDirection":0,"RouteId":133,"StationName":"UBND phường Linh Trung","pathPoints":"106.76247406,10.86777782 106.76249695,10.86768341 106.76218414,10.86716175 106.76216888,10.86668015 106.76204681,10.86585045 106.76199341,10.86553955 106.76181030,10.86513042 106.76127625,10.86423779 106.76119995,10.86426353","Address":"1250 (979), đường Kha Vạn Cân, Quận Thủ Đức","Lat":10.864264,"Lng":106.761199},{"StationId":3386,"StationOrder":10,"StationDirection":0,"RouteId":133,"StationName":"Ngã ba Hoàng Diệu II","pathPoints":"106.76110077,10.86388016 106.76098633,10.86363029 106.76090240,10.86326027 106.76090240,10.86297989 106.76097870,10.86252022 106.76103210,10.86233044 106.76106262,10.86205006 106.76103973,10.86145020 106.76091003,10.86087990 106.76081085,10.86069965","Address":"941, đường Kha Vạn Cân, Quận Thủ Đức","Lat":10.860581,"Lng":106.760663},{"StationId":3388,"StationOrder":11,"StationDirection":0,"RouteId":133,"StationName":"Phòng khám đa khoa Á Châu","pathPoints":"106.76066589,10.86058140 106.76065826,10.86044979 106.76035309,10.86005020 106.75959778,10.85945415 106.75924683,10.85898018 106.75871277,10.85837364 106.75860596,10.85841084","Address":"895, đường Kha Vạn Cân, Quận Thủ Đức","Lat":10.858411,"Lng":106.758603},{"StationId":3389,"StationOrder":12,"StationDirection":0,"RouteId":133,"StationName":"Ngã ba Chương Dương","pathPoints":"106.75860596,10.85841084 106.75865173,10.85834789 106.75833893,10.85809994 106.75819397,10.85804749 106.75762939,10.85787868 106.75730133,10.85764980 106.75717926,10.85746765 106.75685883,10.85674953 106.75621796,10.85595036 106.75610352,10.85595608","Address":"783-785, đường Kha Vạn Cân, Quận Thủ Đức","Lat":10.855956,"Lng":106.756103},{"StationId":3391,"StationOrder":13,"StationDirection":0,"RouteId":133,"StationName":"Trường TH Nguyễn Trung Trực","pathPoints":"106.75610352,10.85595608 106.75617981,10.85591888 106.75565338,10.85534954 106.75509644,10.85448551 106.75470734,10.85359955 106.75463104,10.85319042 106.75464630,10.85283184 106.75470734,10.85245037 106.75482178,10.85209942 106.75482941,10.85171032 106.75476074,10.85161495","Address":"719-721, đường Kha Vạn Cân, Quận Thủ Đức","Lat":10.851615,"Lng":106.754757},{"StationId":3277,"StationOrder":14,"StationDirection":0,"RouteId":133,"StationName":"Chợ Thủ Đức","pathPoints":"106.75476074,10.85161495 106.75485229,10.85161972 106.75489807,10.85122013 106.75489044,10.85122013 106.75488281,10.85120964 106.75485229,10.85118008 106.75482941,10.85112000 106.75469208,10.85103035 106.75406647,10.85031319 106.75400543,10.85032654","Address":"20-21, đường Lê Văn Ninh, Quận Thủ Đức","Lat":10.850327,"Lng":106.754005},{"StationId":575,"StationOrder":15,"StationDirection":0,"RouteId":133,"StationName":"Trạm Cầu ngang","pathPoints":"106.75400543,10.85032654 106.75406647,10.85027027 106.75351715,10.84957981 106.75366211,10.84943008 106.75328827,10.84893036 106.75229645,10.84774971 106.75164795,10.84714031 106.75158691,10.84719944","Address":"569, đường Kha Vạn Cân, Quận Thủ Đức","Lat":10.847199,"Lng":106.751587},{"StationId":578,"StationOrder":16,"StationDirection":0,"RouteId":133,"StationName":"Công an Phường Linh Đông","pathPoints":"106.75164795,10.84714031 106.75095367,10.84648037 106.75058746,10.84609032 106.75009918,10.84539032 106.74981689,10.84506989","Address":"525, đường Kha Vạn Cân, Quận Thủ Đức","Lat":10.845116,"Lng":106.749763},{"StationId":577,"StationOrder":17,"StationDirection":0,"RouteId":133,"StationName":"Trạm xăng 27-7","pathPoints":"106.74976349,10.84511566 106.74981689,10.84506989 106.74871063,10.84387970 106.74794769,10.84302044 106.74741364,10.84235001 106.74690247,10.84187031 106.74665833,10.84165001 106.74658966,10.84172058","Address":"459 (Đối diện 624), đường Kha Vạn Cân, Quận Thủ Đức","Lat":10.841721,"Lng":106.74659},{"StationId":579,"StationOrder":18,"StationDirection":0,"RouteId":133,"StationName":"Trường Cao đẳng Vinatex","pathPoints":"106.74658966,10.84172058 106.74658966,10.84164143 106.74571228,10.84079266 106.74519348,10.84071350 106.74456787,10.84079266 106.74454498,10.84085083","Address":"403, đường Kha Vạn Cân, Quận Thủ Đức","Lat":10.840851,"Lng":106.744548},{"StationId":583,"StationOrder":19,"StationDirection":0,"RouteId":133,"StationName":"Nút giao Linh Đông -PVĐ","pathPoints":"106.74454498,10.84085083 106.74349213,10.84095097 106.74268341,10.84076977","Address":"Trụ chiếu sáng A226, đường Phạm Văn Đồng, Quận Thủ Đức","Lat":10.84077,"Lng":106.742682},{"StationId":585,"StationOrder":20,"StationDirection":0,"RouteId":133,"StationName":"Chùa An Lạc","pathPoints":"106.74268341,10.84076977 106.73861694,10.83958626 106.73535156,10.83878517 106.73233032,10.83728409","Address":"Ngã tư Hiệp Bình - PVĐ, đường Phạm Văn Đồng, Quận Thủ Đức","Lat":10.837284,"Lng":106.732328},{"StationId":584,"StationOrder":21,"StationDirection":0,"RouteId":133,"StationName":"Cá sấu Hoa Cà","pathPoints":"106.73233032,10.83728409 106.72791290,10.83363438","Address":"Trụ chiếu sáng B194, đường Phạm Văn Đồng, Quận Thủ Đức","Lat":10.833634,"Lng":106.727916},{"StationId":587,"StationOrder":22,"StationDirection":0,"RouteId":133,"StationName":"Đường số 20","pathPoints":"106.72791290,10.83363438 106.72098541,10.82823181","Address":"218, đường Phạm Văn Đồng, Quận Thủ Đức","Lat":10.828232,"Lng":106.720988},{"StationId":586,"StationOrder":23,"StationDirection":0,"RouteId":133,"StationName":"Ngã tư Bình Triệu","pathPoints":"106.72098541,10.82823181 106.71984863,10.82766819 106.71861267,10.82725716 106.71667480,10.82670975 106.71585083,10.82655716","Address":"599, đường Phạm Văn Đồng, Quận Thủ Đức","Lat":10.826557,"Lng":106.715848},{"StationId":361,"StationOrder":24,"StationDirection":0,"RouteId":133,"StationName":"Cổng vào-Bến xe Miền Đông","pathPoints":"106.71585083,10.82655716 106.71455383,10.82618237 106.71443176,10.82622433 106.71427917,10.82625580 106.71400452,10.82623482 106.71386719,10.82609844 106.71380615,10.82588768 106.71384430,10.82567692 106.71395111,10.82548714 106.71340942,10.82298946 106.71314240,10.82068157 106.71276093,10.81784725 106.71211243,10.81724644 106.71125793,10.81666088 106.71125793,10.81666088","Address":"78/3, đường Đinh Bộ Lĩnh, Quận Bình Thạnh","Lat":10.816661,"Lng":106.711257},{"StationId":362,"StationOrder":25,"StationDirection":0,"RouteId":133,"StationName":"Ngã Tư Nguyễn Xí","pathPoints":"106.71125793,10.81666088 106.71125793,10.81666088 106.71118164,10.81653976 106.71065521,10.81563377 106.70987701,10.81407928 106.70922089,10.81262493 106.70922089,10.81262493","Address":"291-293, đường Đinh Bộ Lĩnh, Quận Bình Thạnh","Lat":10.812625,"Lng":106.709223},{"StationId":363,"StationOrder":26,"StationDirection":0,"RouteId":133,"StationName":"Ngã Tư Chu Văn An","pathPoints":"106.70922089,10.81262493 106.70924377,10.81254578 106.70917511,10.81226158 106.70912933,10.81158161 106.70917511,10.81058025 106.70919037,10.80980968 106.70914459,10.80975914","Address":"183, đường Đinh Bộ Lĩnh, Quận Bình Thạnh","Lat":10.809759,"Lng":106.709143},{"StationId":364,"StationOrder":27,"StationDirection":0,"RouteId":133,"StationName":"Cầu Đinh Bộ Lĩnh","pathPoints":"106.70914459,10.80975914 106.70919800,10.80975914 106.70927429,10.80835152 106.70941925,10.80691814 106.70934296,10.80690765","Address":"85, đường Đinh Bộ Lĩnh, Quận Bình Thạnh","Lat":10.806908,"Lng":106.709341},{"StationId":365,"StationOrder":28,"StationDirection":0,"RouteId":133,"StationName":"Trạm xăng dầu","pathPoints":"106.70934296,10.80690765 106.70940399,10.80690765 106.70951080,10.80552197 106.70944977,10.80443192 106.70939636,10.80442142","Address":"17, đường Đinh Bộ Lĩnh, Quận Bình Thạnh","Lat":10.804421,"Lng":106.709395},{"StationId":1872,"StationOrder":29,"StationDirection":0,"RouteId":133,"StationName":"Đại học Hồng Bàng","pathPoints":"106.70944214,10.80442047 106.70935059,10.80296993 106.70932007,10.80241013 106.70932007,10.80202961 106.70931244,10.80144978 106.70937347,10.80125046 106.70861816,10.80097961 106.70812988,10.80078030 106.70787811,10.80064964 106.70706177,10.80016994 106.70671082,10.79996014 106.70635986,10.79969025","Address":"205, đường Điện Biên Phủ, Quận Bình Thạnh","Lat":10.799747,"Lng":106.706268},{"StationId":1875,"StationOrder":30,"StationDirection":0,"RouteId":133,"StationName":"Trạm Điện Nguyễn Cửu Vân","pathPoints":"106.70626831,10.79974747 106.70558167,10.79914665 106.70502472,10.79858208 106.70417786,10.79772377","Address":"119, đường Điện Biên Phủ, Quận Bình Thạnh","Lat":10.796775,"Lng":106.703247},{"StationId":1874,"StationOrder":31,"StationDirection":0,"RouteId":133,"StationName":"Cầu Điện Biên Phủ","pathPoints":"106.70324707,10.79677486 106.70174408,10.79515743 106.70165253,10.79508877","Address":"47, đường Điện Biên Phủ, Quận Bình Thạnh","Lat":10.795089,"Lng":106.701654},{"StationId":1877,"StationOrder":32,"StationDirection":0,"RouteId":133,"StationName":"Nguyễn Văn Thủ","pathPoints":"106.70118713,10.79428959 106.70089722,10.79389954 106.69998932,10.79294968 106.69970703,10.79273033 106.69946289,10.79261017 106.69937134,10.79259014 106.69928741,10.79255009 106.69921112,10.79246998 106.69915771,10.79236984 106.69917297,10.79228973 106.69924164,10.79220963 106.69936371,10.79218006 106.69947052,10.79218960 106.69959259,10.79222965 106.70001221,10.79185009 106.70063019,10.79127979","Address":"75, đường Nguyễn Bỉnh Khiêm, Quận 1","Lat":10.791216,"Lng":106.700569},{"StationId":1879,"StationOrder":33,"StationDirection":0,"RouteId":133,"StationName":"UBND Phường Dakao","pathPoints":"106.70056915,10.79121590 106.70063019,10.79127979 106.70150757,10.79050922 106.69984436,10.78874969 106.69973755,10.78884983","Address":"52 -54, đường Nguyễn Đình Chiểu, Quận 1","Lat":10.78885,"Lng":106.699738},{"StationId":1876,"StationOrder":34,"StationDirection":0,"RouteId":133,"StationName":"Mạc Đỉnh Chi","pathPoints":"106.69973755,10.78884983 106.69984436,10.78874969 106.69795990,10.78675270 106.69786072,10.78684807","Address":"102, đường Nguyễn Đình Chiểu, Quận 1","Lat":10.786848,"Lng":106.697861},{"StationId":1878,"StationOrder":35,"StationDirection":0,"RouteId":133,"StationName":"Hai Bà Trưng","pathPoints":"106.69786072,10.78684807 106.69795990,10.78677845 106.69651031,10.78524017 106.69645691,10.78529263","Address":"116 - 118, đường Nguyễn Đình Chiểu, Quận 1","Lat":10.785293,"Lng":106.696457},{"StationId":1881,"StationOrder":36,"StationDirection":0,"RouteId":133,"StationName":"Đại học Kinh tế","pathPoints":"106.69645691,10.78529263 106.69652557,10.78524017 106.69429779,10.78288460 106.69419098,10.78298092","Address":"138B, đường Nguyễn Đình Chiểu, Quận 3","Lat":10.782981,"Lng":106.694191},{"StationId":195,"StationOrder":37,"StationDirection":0,"RouteId":133,"StationName":"Coop Mart Nguyễn Đình Chiểu","pathPoints":"106.69419098,10.78298092 106.69419098,10.78298092 106.69429779,10.78289986 106.69292450,10.78146648 106.69323730,10.78119850 106.69315338,10.78112984 106.69315338,10.78112984","Address":"143, đường Nam Kỳ Khởi Nghĩa, Quận 3","Lat":10.78113,"Lng":106.693152},{"StationId":197,"StationOrder":38,"StationDirection":0,"RouteId":133,"StationName":"Trường THPT Lê Quý Đôn","pathPoints":"106.69315338,10.78112984 106.69324493,10.78116131 106.69460297,10.77992821 106.69451904,10.77984428","Address":"Đối diện 166 - 168, đường Nam Kỳ Khởi Nghĩa, Quận 3","Lat":10.779844,"Lng":106.69452},{"StationId":200,"StationOrder":39,"StationDirection":0,"RouteId":133,"StationName":"Tòa án Nhân dân Thành Phố","pathPoints":"106.69451904,10.77984428 106.69459534,10.77992249 106.69866943,10.77617645 106.69864655,10.77605247","Address":"131, đường Nam Kỳ Khởi Nghĩa, Quận 1","Lat":10.776052,"Lng":106.698647},{"StationId":199,"StationOrder":40,"StationDirection":0,"RouteId":133,"StationName":"Chùa Ông","pathPoints":"106.69864655,10.77605247 106.69875336,10.77610207 106.69905090,10.77583885 106.69981384,10.77404690 106.69972229,10.77395725","Address":"Đối diện 96A, đường Nam Kỳ Khởi Nghĩa, Quận 1","Lat":10.773957,"Lng":106.699722},{"StationId":201,"StationOrder":41,"StationDirection":0,"RouteId":133,"StationName":"Trường CĐKT Cao Thắng","pathPoints":"106.69972229,10.77395725 106.69972229,10.77395725 106.69984436,10.77394199 106.70088959,10.77151203 106.70085144,10.77141571 106.70085144,10.77141571","Address":"Đối diện 86, đường Nam Kỳ Khởi Nghĩa, Quận 1","Lat":10.771416,"Lng":106.700851},{"StationId":80,"StationOrder":42,"StationDirection":0,"RouteId":133,"StationName":"Trạm Trung chuyển trên đường Hàm Nghi","pathPoints":"106.70085144,10.77141571 106.70091248,10.77141190 106.70107269,10.77111721 106.70008087,10.77122211","Address":"Hàm Nghi 10, đường Hàm Nghi, Quận 1","Lat":10.771222,"Lng":106.700082},{"StationId":7273,"StationOrder":43,"StationDirection":0,"RouteId":133,"StationName":"Khách sạn New World","pathPoints":"106.70008087,10.77122211 106.69882965,10.77128601 106.69879913,10.77164364 106.69863892,10.77192879 106.69828796,10.77189732 106.69802856,10.77170753 106.69594574,10.77096367 106.69594574,10.77096367 106.69594574,10.77096367","Address":"Đối diện cây xanh số 105, đường Lê Lai, Quận 1","Lat":10.770964,"Lng":106.695946},{"StationId":7274,"StationOrder":44,"StationDirection":0,"RouteId":133,"StationName":"Nguyễn Thị Nghĩa","pathPoints":"106.69594574,10.77096367 106.69349670,10.76995182","Address":"94-96, đường Lê Lai, Quận 1","Lat":10.769952,"Lng":106.693495},{"StationId":7275,"StationOrder":45,"StationDirection":0,"RouteId":133,"StationName":"Tôn Thất Tùng","pathPoints":"106.69349670,10.76995182 106.69351196,10.76987362 106.69049835,10.76869774 106.69046783,10.76876068","Address":"202-204, đường Lê Lai, Quận 1","Lat":10.768761,"Lng":106.690469},{"StationId":35,"StationOrder":46,"StationDirection":0,"RouteId":133,"StationName":"Bến xe buýt Sài Gòn","pathPoints":"106.69046783,10.76876068 106.69050598,10.76870823 106.68921661,10.76814461 106.68936157,10.76767635","Address":"BẾN XE BUÝT SÀI GÒN, đường Lê Lai, Quận 1","Lat":10.767676,"Lng":106.689362},{"StationId":35,"StationOrder":0,"StationDirection":1,"RouteId":133,"StationName":"Bến xe buýt Sài Gòn","pathPoints":"","Address":"BẾN XE BUÝT SÀI GÒN, đường Lê Lai, Quận 1","Lat":10.767676,"Lng":106.689362},{"StationId":7276,"StationOrder":1,"StationDirection":1,"RouteId":133,"StationName":"Tôn Thất Tùng","pathPoints":"106.68936157,10.76767635 106.68936157,10.76767635 106.68955994,10.76720715 106.69089508,10.76772308 106.69094086,10.76766968 106.69094086,10.76766968","Address":"277-279-275Y, đường Phạm Ngũ Lão, Quận 1","Lat":10.76767,"Lng":106.690941},{"StationId":7277,"StationOrder":2,"StationDirection":1,"RouteId":133,"StationName":"Nguyễn Thị Nghĩa","pathPoints":"106.69094086,10.76766968 106.69090271,10.76773357 106.69362640,10.76885128 106.69370270,10.76878834","Address":"187, đường Phạm Ngũ Lão, Quận 1","Lat":10.768788,"Lng":106.693699},{"StationId":7278,"StationOrder":3,"StationDirection":1,"RouteId":133,"StationName":"Trường Emst Thalmann","pathPoints":"106.69370270,10.76878834 106.69366455,10.76887226 106.69554138,10.76958847 106.69558716,10.76950359","Address":"Trường Emst Thalmann, đường Phạm Ngũ Lão, Quận 1","Lat":10.769504,"Lng":106.695587},{"StationId":30,"StationOrder":4,"StationDirection":1,"RouteId":133,"StationName":"Trạm Trung chuyển trên đường Hàm Nghi","pathPoints":"106.69558716,10.76950359 106.69558716,10.76950359 106.69554138,10.76956272 106.69613647,10.76978397 106.69644165,10.76908779 106.69740295,10.77022076 106.69905090,10.77082729 106.69918060,10.77093792 106.69956207,10.77094269 106.69956207,10.77094269","Address":"Hàm nghi 1, đường Hàm Nghi, Quận 1","Lat":10.771001,"Lng":106.700356},{"StationId":1256,"StationOrder":5,"StationDirection":1,"RouteId":133,"StationName":"Chợ Cũ","pathPoints":"106.70035553,10.77100086 106.70199585,10.77081108","Address":"89A, đường Hàm Nghi, Quận 1","Lat":10.770811,"Lng":106.701998},{"StationId":4271,"StationOrder":6,"StationDirection":1,"RouteId":133,"StationName":"Đền Thờ Ấn Giáo, Pasteur","pathPoints":"106.70199585,10.77081108 106.70259094,10.77077961 106.70139313,10.77359486","Address":"Đền Thờ Ấn Giáo, đường Pasteur, Quận 1","Lat":10.773595,"Lng":106.70139},{"StationId":2724,"StationOrder":7,"StationDirection":1,"RouteId":133,"StationName":"Lê Thánh Tôn","pathPoints":"106.70139313,10.77359486 106.70076752,10.77508831","Address":"144, đường Pasteur, Quận 1","Lat":10.775088,"Lng":106.700768},{"StationId":4272,"StationOrder":8,"StationDirection":1,"RouteId":133,"StationName":"Lý Tự Trọng","pathPoints":"106.70076752,10.77508831 106.70076752,10.77508831 106.70070648,10.77512741 106.69995117,10.77685070 106.69965363,10.77708912 106.69965363,10.77708912","Address":"158, đường Pasteur, Quận 1","Lat":10.777089,"Lng":106.699657},{"StationId":4273,"StationOrder":9,"StationDirection":1,"RouteId":133,"StationName":"Lê Duẫn","pathPoints":"106.69965363,10.77708912 106.69833374,10.77830791","Address":"178, đường Pasteur, Quận 1","Lat":10.778307999999999,"Lng":106.698333},{"StationId":4274,"StationOrder":10,"StationDirection":1,"RouteId":133,"StationName":"Nguyễn Thị Minh Khai","pathPoints":"106.69833374,10.77830791 106.69665527,10.77978230","Address":"184, đường Pasteur, Quận 1","Lat":10.779782,"Lng":106.696659},{"StationId":243,"StationOrder":11,"StationDirection":1,"RouteId":133,"StationName":"Đại học Kiến Trúc","pathPoints":"106.69665527,10.77978230 106.69665527,10.77978230 106.69662476,10.77984905 106.69456482,10.78173065 106.69458008,10.78180408 106.69458008,10.78180408","Address":"194 D, đường Pasteur, Quận 3","Lat":10.781804,"Lng":106.694579},{"StationId":244,"StationOrder":12,"StationDirection":1,"RouteId":133,"StationName":"Điện Biên Phủ","pathPoints":"106.69458008,10.78180408 106.69458008,10.78180408 106.69458008,10.78180408 106.69438171,10.78187752 106.69274139,10.78336430 106.69274902,10.78341866 106.69274902,10.78341866 106.69274902,10.78341866","Address":"214, đường Pasteur, Quận 3","Lat":10.783419,"Lng":106.692749},{"StationId":1920,"StationOrder":13,"StationDirection":1,"RouteId":133,"StationName":"Phạm Ngọc Thạch","pathPoints":"106.69274902,10.78341866 106.69274902,10.78341866 106.69274902,10.78341866 106.69268799,10.78342724 106.69169617,10.78433895 106.69230652,10.78497124 106.69237518,10.78496456 106.69237518,10.78496456 106.69237518,10.78496456","Address":"209, đường Điện Biên Phủ, Quận 3","Lat":10.784965,"Lng":106.692375},{"StationId":1915,"StationOrder":14,"StationDirection":1,"RouteId":133,"StationName":"Công Viên Lê Văn Tám","pathPoints":"106.69237518,10.78496456 106.69237518,10.78496456 106.69234467,10.78503990 106.69419861,10.78699970 106.69431305,10.78693390 106.69431305,10.78693390","Address":"179 - 181, đường Điện Biên Phủ, Quận 1","Lat":10.786934,"Lng":106.694313},{"StationId":1924,"StationOrder":15,"StationDirection":1,"RouteId":133,"StationName":"Đinh Tiên Hoàng","pathPoints":"106.69431305,10.78693390 106.69431305,10.78693390 106.69431305,10.78708458 106.69668579,10.78947163 106.69678497,10.78947735 106.69678497,10.78947735","Address":"87, đường Điện Biên Phủ, Quận 1","Lat":10.789477,"Lng":106.696783},{"StationId":730,"StationOrder":16,"StationDirection":1,"RouteId":133,"StationName":"Cầu Điện Biên Phủ","pathPoints":"106.69678497,10.78947735 106.69682312,10.78964043 106.69751740,10.79040909 106.69836426,10.79128933 106.69922638,10.79212761 106.69943237,10.79211712 106.69961548,10.79219055 106.69970703,10.79231739 106.69972992,10.79244328 106.69980621,10.79252815 106.70092773,10.79370022 106.70124054,10.79401016 106.70175934,10.79456711 106.70198059,10.79467297 106.70242310,10.79512024 106.70251465,10.79511547","Address":"84, đường Điện Biên Phủ, Quận Bình Thạnh","Lat":10.795115,"Lng":106.702518},{"StationId":1916,"StationOrder":17,"StationDirection":1,"RouteId":133,"StationName":"Trạm Điện Nguyễn Cửu Vân","pathPoints":"106.70251465,10.79511547 106.70456696,10.79728603 106.70456696,10.79728603","Address":"174, đường Điện Biên Phủ, Quận Bình Thạnh","Lat":10.797286,"Lng":106.704567},{"StationId":1918,"StationOrder":18,"StationDirection":1,"RouteId":133,"StationName":"Đại học Hồng Bàng","pathPoints":"106.70456696,10.79728603 106.70456696,10.79728603 106.70458984,10.79739189 106.70520020,10.79804516 106.70591736,10.79876709 106.70662689,10.79940414 106.70740509,10.79991531 106.70752716,10.79987335","Address":"328, đường Điện Biên Phủ, Quận Bình Thạnh","Lat":10.799873,"Lng":106.707528},{"StationId":1925,"StationOrder":19,"StationDirection":1,"RouteId":133,"StationName":"Vòng xoay Hàng Xanh","pathPoints":"106.70752716,10.79987335 106.70754242,10.80003643 106.70823669,10.80045986 106.70861816,10.80064011 106.70899963,10.80078983 106.70964050,10.80099964 106.71012115,10.80110645 106.71026611,10.80107975","Address":"442, đường Điện Biên Phủ, Quận Bình Thạnh","Lat":10.80108,"Lng":106.710269},{"StationId":299,"StationOrder":20,"StationDirection":1,"RouteId":133,"StationName":"Ngã Ba Hàng Xanh","pathPoints":"106.71026611,10.80107975 106.71026611,10.80107975 106.71037292,10.80112743 106.71112061,10.80127525 106.71126556,10.80120182 106.71144104,10.80118561 106.71154785,10.80129051 106.71160889,10.80145454 106.71155548,10.80159092 106.71142578,10.80170727 106.71141052,10.80280304 106.71144104,10.80321407 106.71150970,10.80326176 106.71150970,10.80326176","Address":"334-336, đường Xô Viết Nghệ Tĩnh, Quận Bình Thạnh","Lat":10.803262,"Lng":106.711509},{"StationId":302,"StationOrder":21,"StationDirection":1,"RouteId":133,"StationName":"Đài Liệt sĩ","pathPoints":"106.71150970,10.80326176 106.71144104,10.80327225 106.71160889,10.80783558 106.71171570,10.80833626 106.71189117,10.80881596 106.71196747,10.80883121 106.71196747,10.80883121","Address":"504, đường Xô Viết Nghệ Tĩnh, Quận Bình Thạnh","Lat":10.808831,"Lng":106.711965},{"StationId":301,"StationOrder":22,"StationDirection":1,"RouteId":133,"StationName":"Siêu thị Coop Mart","pathPoints":"106.71196747,10.80883121 106.71192169,10.80886269 106.71209717,10.80930519 106.71223450,10.80979061 106.71231079,10.81028557 106.71235657,10.81078625 106.71240997,10.81079102","Address":"222/13A (52), đường Quốc lộ 13, Quận Bình Thạnh","Lat":10.810791,"Lng":106.71241},{"StationId":305,"StationOrder":23,"StationDirection":1,"RouteId":133,"StationName":"Cổng ra - Bến xe Miền Đông 1","pathPoints":"106.71240997,10.81079102 106.71279144,10.81385326","Address":"152, đường Quốc lộ 13, Quận Bình Thạnh","Lat":10.813853,"Lng":106.712791},{"StationId":523,"StationOrder":24,"StationDirection":1,"RouteId":133,"StationName":"Ngã tư Bình Triệu","pathPoints":"106.71279144,10.81385326 106.71279144,10.81385326 106.71285248,10.81492805 106.71295166,10.81596088 106.71318054,10.81763649 106.71339417,10.81931210 106.71377563,10.82267380 106.71421814,10.82504463 106.71498108,10.82590294 106.71565247,10.82602978","Address":"54, đường Phạm Văn Đồng, Quận Thủ Đức","Lat":10.82603,"Lng":106.715655},{"StationId":524,"StationOrder":25,"StationDirection":1,"RouteId":133,"StationName":"Đường số 20","pathPoints":"106.71565247,10.82602978 106.71702576,10.82654095 106.71881104,10.82701015 106.72003174,10.82745743 106.72103119,10.82787800","Address":"Đối diện 216 - Gigamall , đường Phạm Văn Đồng, Quận Thủ Đức","Lat":10.827878,"Lng":106.721032},{"StationId":525,"StationOrder":26,"StationDirection":1,"RouteId":133,"StationName":"Chùa Ưu Đàm","pathPoints":"106.72103119,10.82787800 106.72142792,10.82817936 106.72213745,10.82865334 106.72280884,10.82914352 106.72476196,10.83067894","Address":"Khu dân cư Opal Tower, đường Phạm Văn Đồng, Quận Thủ Đức","Lat":10.830679,"Lng":106.72476},{"StationId":526,"StationOrder":27,"StationDirection":1,"RouteId":133,"StationName":"Cá sấu Hoa cà","pathPoints":"106.72476196,10.83067894 106.72772217,10.83313751 106.72833252,10.83360577","Address":"Đối diện Cá sấu Hoa Cà, đường Phạm Văn Đồng, Quận Thủ Đức","Lat":10.833606,"Lng":106.728331},{"StationId":527,"StationOrder":28,"StationDirection":1,"RouteId":133,"StationName":"THCS Ngô Chí Quốc","pathPoints":"106.72833252,10.83360577 106.73043823,10.83531857 106.73071289,10.83555031","Address":"412, đường Phạm Văn Đồng, Quận Thủ Đức","Lat":10.83555,"Lng":106.730713},{"StationId":528,"StationOrder":29,"StationDirection":1,"RouteId":133,"StationName":"Chùa An Lạc","pathPoints":"106.73071289,10.83555031 106.73318481,10.83758450 106.73329163,10.83748436","Address":"Chùa Ưu Đàm, đường Phạm Văn Đồng, Quận Thủ Đức","Lat":10.837484,"Lng":106.733288},{"StationId":529,"StationOrder":30,"StationDirection":1,"RouteId":133,"StationName":"Cầu Gò Dưa","pathPoints":"106.73329163,10.83748436 106.73320007,10.83759499 106.73463440,10.83837414 106.73616028,10.83885956 106.73699188,10.83899593 106.74050903,10.83977604","Address":"Trụ chiếu sáng C185, đường Phạm Văn Đồng, Quận Thủ Đức","Lat":10.839776,"Lng":106.740509},{"StationId":531,"StationOrder":31,"StationDirection":1,"RouteId":133,"StationName":"Trường Cao đẳng Vinatex","pathPoints":"106.74050903,10.83977604 106.74050903,10.83977604 106.74050903,10.83977604 106.74226379,10.84027195 106.74290466,10.84052944 106.74344635,10.84080315 106.74356842,10.84088230 106.74385834,10.84081936 106.74401855,10.84076691 106.74401855,10.84076691 106.74401855,10.84076691","Address":"580, đường Kha Vạn Cân, Quận Thủ Đức","Lat":10.840767,"Lng":106.744022},{"StationId":532,"StationOrder":32,"StationDirection":1,"RouteId":133,"StationName":"Trạm xăng 27-7","pathPoints":"106.74401855,10.84076691 106.74401855,10.84076691 106.74411774,10.84085083 106.74476624,10.84076118 106.74539185,10.84072971 106.74560547,10.84077740 106.74578094,10.84085655 106.74620056,10.84125614 106.74634552,10.84129047 106.74634552,10.84129047","Address":"Kế 624, đường Kha Vạn Cân, Quận Thủ Đức","Lat":10.84129,"Lng":106.746346},{"StationId":533,"StationOrder":33,"StationDirection":1,"RouteId":133,"StationName":"Công an phường Linh Đông","pathPoints":"106.74634552,10.84129047 106.74634552,10.84129047 106.74642944,10.84148312 106.74725342,10.84223080 106.74846649,10.84362221 106.74954987,10.84477615 106.74965668,10.84478092 106.74965668,10.84478092","Address":"672-676, đường Kha Vạn Cân, Quận Thủ Đức","Lat":10.844781,"Lng":106.74966},{"StationId":534,"StationOrder":34,"StationDirection":1,"RouteId":133,"StationName":"Trạm Cầu Ngang","pathPoints":"106.74965668,10.84478092 106.74965668,10.84478092 106.74983978,10.84509182 106.75014496,10.84542942 106.75051117,10.84595108 106.75086975,10.84641933 106.75146484,10.84695148 106.75195313,10.84741020 106.75209045,10.84741592 106.75209045,10.84741592","Address":"746 (742), đường Kha Vạn Cân, Quận Thủ Đức","Lat":10.847416,"Lng":106.75209},{"StationId":535,"StationOrder":35,"StationDirection":1,"RouteId":133,"StationName":"Chợ Thủ Đức","pathPoints":"106.75209045,10.84741592 106.75209045,10.84741592 106.75218964,10.84764194 106.75292969,10.84848499 106.75352478,10.84924889 106.75415802,10.85000801 106.75437164,10.85015774 106.75437164,10.85015774","Address":"1002-1004, đường Kha Vạn Cân, Quận Thủ Đức","Lat":10.850158,"Lng":106.754372},{"StationId":3376,"StationOrder":36,"StationDirection":1,"RouteId":133,"StationName":"Trường TH Nguyễn Trung Trực","pathPoints":"106.75437164,10.85015774 106.75440979,10.85032368 106.75488281,10.85087204 106.75502777,10.85115051 106.75498199,10.85120869 106.75493622,10.85126686 106.75484467,10.85206509","Address":"962 (105), đường Kha Vạn Cân, Quận Thủ Đức","Lat":10.852065,"Lng":106.754845},{"StationId":3378,"StationOrder":37,"StationDirection":1,"RouteId":133,"StationName":"Ngã ba Chương Dương","pathPoints":"106.75484467,10.85206509 106.75468445,10.85292625 106.75472260,10.85336876 106.75511169,10.85447025 106.75598907,10.85566998 106.75627136,10.85595989 106.75640869,10.85612965 106.75656128,10.85636997 106.75661469,10.85633278","Address":"1040-1046 (785), đường Kha Vạn Cân, Quận Thủ Đức","Lat":10.856333,"Lng":106.756615},{"StationId":3379,"StationOrder":38,"StationDirection":1,"RouteId":133,"StationName":"Phòng khám đa khoa Á Châu","pathPoints":"106.75661469,10.85633278 106.75656128,10.85636997 106.75685883,10.85674953 106.75691223,10.85686970 106.75711060,10.85732555 106.75732422,10.85763645 106.75760651,10.85785007 106.75802612,10.85801029 106.75832367,10.85808945 106.75860596,10.85831642 106.75895691,10.85855961 106.75896454,10.85855579","Address":"1106, đường Kha Vạn Cân, Quận Thủ Đức","Lat":10.858556,"Lng":106.758965},{"StationId":3380,"StationOrder":39,"StationDirection":1,"RouteId":133,"StationName":"Ngã ba Hoàng Diệu II","pathPoints":"106.75895691,10.85855961 106.75929260,10.85898018 106.75964355,10.85941982 106.75987244,10.85964012 106.76023102,10.85993004 106.76035309,10.86005020 106.76065826,10.86044979","Address":"1176, đường Kha Vạn Cân, Quận Thủ Đức","Lat":10.860415,"Lng":106.760712},{"StationId":3382,"StationOrder":40,"StationDirection":1,"RouteId":133,"StationName":"UBND phường Linh Trung","pathPoints":"106.76065826,10.86044979 106.76091003,10.86087990 106.76103973,10.86145020 106.76106262,10.86205006 106.76103210,10.86233044 106.76097870,10.86252022 106.76090240,10.86297989 106.76090240,10.86326027 106.76098633,10.86363029 106.76116180,10.86400032","Address":"1256, đường Kha Vạn Cân, Quận Thủ Đức","Lat":10.863985,"Lng":106.7612},{"StationId":3383,"StationOrder":41,"StationDirection":1,"RouteId":133,"StationName":"Nhà hàng tiệc cưới Phố Đôi","pathPoints":"106.76119995,10.86398506 106.76119995,10.86398506 106.76116180,10.86400032 106.76165009,10.86485958 106.76197815,10.86538124 106.76221466,10.86637688 106.76221466,10.86668205 106.76223755,10.86690331 106.76236725,10.86711025 106.76245117,10.86732960 106.76280975,10.86789894 106.76316071,10.86843681 106.76339722,10.86878872 106.76339722,10.86878872","Address":"15/3, đường Kha Vạn Cân, Quận Thủ Đức","Lat":10.868789,"Lng":106.763399},{"StationId":3381,"StationOrder":42,"StationDirection":1,"RouteId":133,"StationName":"Trạm cầu vượt Linh Xuân","pathPoints":"106.76339722,10.86878872 106.76339722,10.86878872 106.76352692,10.86938953 106.76354218,10.86960602 106.76351929,10.87006950 106.76354980,10.87038040 106.76362610,10.87078094 106.76382446,10.87115955 106.76399994,10.87135029 106.76399994,10.87135029","Address":"1326-1328 (1129-1131), đường Kha Vạn Cân, Quận Thủ Đức","Lat":10.87135,"Lng":106.763999},{"StationId":2083,"StationOrder":43,"StationDirection":1,"RouteId":133,"StationName":"Vietcombank","pathPoints":"106.76423645,10.87191010 106.76442719,10.87213993 106.76470184,10.87254047 106.76484680,10.87287045 106.76499176,10.87318993 106.76542664,10.87304020 106.76715088,10.87246037 106.76750946,10.87240982 106.76898193,10.87191010 106.76965332,10.87168980","Address":"Ngân hàng Vietcombank, đường Quốc lộ 1, Quận Thủ Đức","Lat":10.871597,"Lng":106.769643},{"StationId":2084,"StationOrder":44,"StationDirection":1,"RouteId":133,"StationName":"Nghĩa trang TP","pathPoints":"106.76964569,10.87159729 106.76964569,10.87159729 106.77136230,10.87109661 106.77304077,10.87050724 106.77304077,10.87050724","Address":"Cổng nghĩa trang thành phố, đường Quốc lộ 1, Quận Thủ Đức","Lat":10.870507,"Lng":106.773039},{"StationId":1040,"StationOrder":45,"StationDirection":1,"RouteId":133,"StationName":"ĐH Kinh tế Luật","pathPoints":"106.77304077,10.87050724 106.77307129,10.87059975 106.77671051,10.86938477 106.77672577,10.86930561","Address":"Đối diện 665-CoopXtra, đường Quốc lộ 1, Quận Thủ Đức","Lat":10.869306,"Lng":106.776724},{"StationId":1041,"StationOrder":46,"StationDirection":1,"RouteId":133,"StationName":"Công ty điện tử Samsung","pathPoints":"106.77672577,10.86930561 106.77672577,10.86930561 106.77677917,10.86936855 106.77867889,10.86874962 106.77865601,10.86869144 106.77865601,10.86869144","Address":"Công ty điện tử Samsung, đường Quốc lộ 1, Quận Thủ Đức","Lat":10.868691,"Lng":106.778656},{"StationId":1042,"StationOrder":47,"StationDirection":1,"RouteId":133,"StationName":"ĐH Nông Lâm","pathPoints":"106.77865601,10.86869144 106.77938843,10.86856270 106.78088379,10.86806297 106.78207397,10.86769390 106.78311920,10.86743546 106.78416443,10.86732483 106.78519440,10.86727905 106.78636932,10.86724091 106.78727722,10.86712170","Address":"Cột điện SI 2, đường Quốc lộ 1, Quận Thủ Đức","Lat":10.867122,"Lng":106.787277},{"StationId":394,"StationOrder":48,"StationDirection":1,"RouteId":133,"StationName":"Đại học Nông Lâm","pathPoints":"106.78727722,10.86712170 106.78727722,10.86712170 106.78727722,10.86717987 106.78814697,10.86713028 106.78814697,10.86728287 106.78809357,10.86747265 106.78775024,10.86775684 106.78772736,10.86808872 106.78744507,10.86818314","Address":"Bến xe buýt ĐH Nông Lâm, đường Quốc lộ 1, Quận Thủ Đức","Lat":10.868183135986328,"Lng":106.78744506835938}]