[{"StationId":2272,"StationOrder":0,"StationDirection":0,"RouteId":45,"StationName":"Bãi xe buýt 19/5","pathPoints":"","Address":"BÃI XE BUÝT 19/5, đường Hương Lộ 60B, Huyện Hóc Môn","Lat":10.893196,"Lng":106.583473},{"StationId":2263,"StationOrder":1,"StationDirection":0,"RouteId":45,"StationName":"Ngã 3 Lam Sơn","pathPoints":"106.58347321,10.89319611 106.58293152,10.89384365 106.58166504,10.89304352 106.58090973,10.89256859 106.58138275,10.89174747","Address":"65/15A, đường Quốc lộ 22, Huyện Hóc Môn","Lat":10.892279,"Lng":106.581003},{"StationId":2328,"StationOrder":2,"StationDirection":0,"RouteId":45,"StationName":"Dân Thắng","pathPoints":"106.58138275,10.89174747 106.58475494,10.88694286","Address":"65/5, đường Quốc lộ 22, Huyện Hóc Môn","Lat":10.888139,"Lng":106.583911},{"StationId":2329,"StationOrder":3,"StationDirection":0,"RouteId":45,"StationName":"Ngã tư Hóc Môn","pathPoints":"106.58475494,10.88694286 106.58583832,10.88536835 106.58672333,10.88416672 106.58695221,10.88374519 106.58726501,10.88405132 106.58779907,10.88491726","Address":"2/18B, đường Lý Thường Kiệt , Huyện Hóc Môn","Lat":10.884794,"Lng":106.5878},{"StationId":2330,"StationOrder":4,"StationDirection":0,"RouteId":45,"StationName":"Ngân hàng BIDV","pathPoints":"106.58779907,10.88491726 106.58776093,10.88494015 106.58834076,10.88566971 106.58872986,10.88617039 106.58889008,10.88630962 106.58904266,10.88644028 106.58937836,10.88668442 106.59066772,10.88702011 106.59068298,10.88698292","Address":"10/6A, đường Lý Thường Kiệt , Huyện Hóc Môn","Lat":10.886938,"Lng":106.590691},{"StationId":2331,"StationOrder":5,"StationDirection":0,"RouteId":45,"StationName":"Ngân hàng Nông Nghiệp","pathPoints":"106.59068298,10.88698292 106.59365082,10.88799953","Address":"39/1, đường Lý Thường Kiệt , Huyện Hóc Môn","Lat":10.888007,"Lng":106.593808},{"StationId":2332,"StationOrder":6,"StationDirection":0,"RouteId":45,"StationName":"Công An Hóc Môn","pathPoints":"106.59364319,10.88801956 106.59484100,10.88842964 106.59491730,10.88848019 106.59500122,10.88846016 106.59506989,10.88850021 106.59573364,10.88840961 106.59732056,10.88833046 106.59803772,10.88829994 106.59851837,10.88825989 106.59893799,10.88819027","Address":"Công An Hóc Môn (số 31), đường Quang Trung, Huyện Hóc Môn","Lat":10.888076,"Lng":106.598985},{"StationId":2333,"StationOrder":7,"StationDirection":0,"RouteId":45,"StationName":"Ngã 3 chùa","pathPoints":"106.59891510,10.88808346 106.60008240,10.88798618 106.60102081,10.88794899 106.60134125,10.88784885","Address":"1/18, đường Quang Trung, Huyện Hóc Môn","Lat":10.887928,"Lng":106.60113},{"StationId":2334,"StationOrder":8,"StationDirection":0,"RouteId":45,"StationName":"Cây xăng","pathPoints":"106.60134125,10.88784885 106.60134125,10.88784885 106.60154724,10.88785458 106.60190582,10.88778591 106.60239410,10.88761234 106.60260010,10.88752270 106.60282898,10.88737011 106.60282898,10.88737011","Address":"30/13, đường Tô Ký, Huyện Hóc Môn","Lat":10.887491,"Lng":106.602648},{"StationId":2335,"StationOrder":9,"StationDirection":0,"RouteId":45,"StationName":"Hoa Viên Trúc Lâm","pathPoints":"106.60286713,10.88747025 106.60331726,10.88729000 106.60356140,10.88712978 106.60578156,10.88492012 106.60595703,10.88473988","Address":"30/11, đường Tô Ký, Huyện Hóc Môn","Lat":10.88404,"Lng":106.606543},{"StationId":2336,"StationOrder":10,"StationDirection":0,"RouteId":45,"StationName":"Cống Đôi","pathPoints":"106.60595703,10.88473988 106.60765076,10.88306999 106.60794830,10.88251019 106.60877228,10.88088036 106.60936737,10.87969017","Address":"307H, đường Tô Ký, Huyện Hóc Môn","Lat":10.88147,"Lng":106.608421},{"StationId":2337,"StationOrder":11,"StationDirection":0,"RouteId":45,"StationName":"Cây kiểng Bảy Châu","pathPoints":"106.60842133,10.88146973 106.61162567,10.87512207","Address":"72, đường Tô Ký, Huyện Hóc Môn","Lat":10.875122,"Lng":106.611629},{"StationId":2253,"StationOrder":12,"StationDirection":0,"RouteId":45,"StationName":"Chùa Thiên Quang","pathPoints":"106.61162567,10.87512207 106.61258698,10.87324047 106.61370850,10.87169170","Address":"5/5, đường Tô Ký, Huyện Hóc Môn","Lat":10.871692,"Lng":106.61371},{"StationId":2260,"StationOrder":13,"StationDirection":0,"RouteId":45,"StationName":"Nghĩa trang liệt sỹ Trung Chánh","pathPoints":"106.61370850,10.87169170 106.61492920,10.87029076 106.61521912,10.86876774","Address":"Nghĩa trang liệt sỹ Trung Chánh, đường Tô Ký, Huyện Hóc Môn","Lat":10.868768,"Lng":106.615217},{"StationId":1635,"StationOrder":14,"StationDirection":0,"RouteId":45,"StationName":"Trường Nguyễn Hữu Cầu","pathPoints":"106.61521912,10.86876774 106.61547852,10.86737251 106.61480713,10.86646557","Address":"Trường Nguyễn Hữu Cầu, đường Nguyễn Ánh Thủ, Huyện Hóc Môn","Lat":10.866466,"Lng":106.61481},{"StationId":1634,"StationOrder":15,"StationDirection":0,"RouteId":45,"StationName":"Trung Mỹ - Tân Xuân","pathPoints":"106.61473846,10.86644459 106.61476898,10.86630821 106.61401367,10.86528111 106.61325073,10.86421108 106.61312103,10.86420631","Address":"75/3, đường Nguyễn Ánh Thủ, Huyện Hóc Môn","Lat":10.864132,"Lng":106.613125},{"StationId":1636,"StationOrder":16,"StationDirection":0,"RouteId":45,"StationName":"Giáo xứ Trung Chánh","pathPoints":"106.61312866,10.86413193 106.61312103,10.86420631 106.61084747,10.86090755","Address":"127/1, đường Nguyễn Ánh Thủ, Huyện Hóc Môn","Lat":10.860908,"Lng":106.610851},{"StationId":1637,"StationOrder":17,"StationDirection":0,"RouteId":45,"StationName":"Trường CĐ GTVT","pathPoints":"106.61084747,10.86090755 106.60893250,10.85794735","Address":"150A/1, đường Nguyễn Ánh Thủ, Huyện Hóc Môn","Lat":10.857947,"Lng":106.60893},{"StationId":1638,"StationOrder":18,"StationDirection":0,"RouteId":45,"StationName":"Trung tâm văn hóa Quận 12","pathPoints":"106.60893250,10.85794735 106.60799408,10.85655594","Address":"155/4, đường Nguyễn Ánh Thủ, Huyện Hóc Môn","Lat":10.856556,"Lng":106.607997},{"StationId":1393,"StationOrder":19,"StationDirection":0,"RouteId":45,"StationName":"Ngã tư Trung Chánh","pathPoints":"106.60799408,10.85655594 106.60720062,10.85522366 106.60815430,10.85359478","Address":"30/10B, đường Quốc lộ 22, Huyện Hóc Môn","Lat":10.853595,"Lng":106.608152},{"StationId":1238,"StationOrder":20,"StationDirection":0,"RouteId":45,"StationName":"Cư xá Bà Điểm","pathPoints":"106.60815430,10.85359478 106.60815430,10.85359478 106.60826874,10.85351658 106.61061859,10.84988117 106.61064148,10.84971333 106.61064148,10.84971333","Address":"3A, đường Quốc lộ 22, Huyện Hóc Môn","Lat":10.849713,"Lng":106.610641},{"StationId":1239,"StationOrder":21,"StationDirection":0,"RouteId":45,"StationName":"Bến xe An Sương","pathPoints":"106.61064148,10.84971333 106.61064148,10.84971333 106.61079407,10.84963894 106.61349487,10.84535027 106.61352539,10.84518719 106.61352539,10.84518719","Address":"1B, đường Quốc lộ 22, Huyện Hóc Môn","Lat":10.845187,"Lng":106.613522},{"StationId":2342,"StationOrder":22,"StationDirection":0,"RouteId":45,"StationName":"Cầu vượt An Sương","pathPoints":"106.61396027,10.84473038 106.61486053,10.84325981 106.61508179,10.84286976 106.61504364,10.84278965 106.61502075,10.84265041 106.61506653,10.84249973 106.61517334,10.84239960 106.61530304,10.84235001 106.61544800,10.84235001 106.61559296,10.84243965 106.61566162,10.84257984 106.61566162,10.84274006 106.61625671,10.84329033 106.61739349,10.84432983 106.61760712,10.84459972","Address":"17A-4/8A (2575), đường Quốc lộ 1A, Quận 12","Lat":10.844618,"Lng":106.617803},{"StationId":2341,"StationOrder":23,"StationDirection":0,"RouteId":45,"StationName":"Trạm đăng kiểm","pathPoints":"106.61766052,10.84456825 106.61959076,10.84617233 106.62046814,10.84683609 106.62150574,10.84741783 106.62150574,10.84741783","Address":"Đối diện trạm đăng kiểm, đường Quốc lộ 1A, Quận 12","Lat":10.847418,"Lng":106.621506},{"StationId":2346,"StationOrder":24,"StationDirection":0,"RouteId":45,"StationName":"Chung cư Thái An","pathPoints":"106.62148285,10.84747982 106.62309265,10.84821987","Address":"B336, đường Quốc lộ 1A, Quận 12","Lat":10.848901,"Lng":106.6249},{"StationId":2344,"StationOrder":25,"StationDirection":0,"RouteId":45,"StationName":"Đài phát thanh Quán Tre","pathPoints":"106.62490082,10.84890079 106.62490082,10.84890079 106.62484741,10.84897518 106.62751007,10.85018158 106.62757111,10.85007095 106.62757111,10.85007095","Address":"Đài phát thanh quán tre, đường Quốc lộ 1A, Quận 12","Lat":10.850071,"Lng":106.627572},{"StationId":2091,"StationOrder":26,"StationDirection":0,"RouteId":45,"StationName":"Cầu vượt Quang Trung","pathPoints":"106.62757111,10.85007095 106.62749481,10.85020828 106.62873077,10.85071373 106.62983704,10.85054016 106.63095093,10.85023975 106.63173676,10.84984398 106.63217163,10.84945965","Address":"B45, đường Tô Ký, Quận 12","Lat":10.84946,"Lng":106.632174},{"StationId":2056,"StationOrder":27,"StationDirection":0,"RouteId":45,"StationName":"Chợ Cầu","pathPoints":"106.63217163,10.84945965 106.63231659,10.84943867 106.63399506,10.84825325 106.63407135,10.84814835","Address":"B79, đường Tô Ký, Quận 12","Lat":10.848148,"Lng":106.634068},{"StationId":2093,"StationOrder":28,"StationDirection":0,"RouteId":45,"StationName":"Chợ Cầu","pathPoints":"106.63407135,10.84814835 106.63415527,10.84813690 106.63650513,10.84652519 106.63764954,10.84577179 106.63882446,10.84511852 106.63890076,10.84498692","Address":"927, đường Quang Trung, Quận Gò Vấp","Lat":10.844987,"Lng":106.638901},{"StationId":2094,"StationOrder":29,"StationDirection":0,"RouteId":45,"StationName":"Ngã tư Cầu cống","pathPoints":"106.63890076,10.84498692 106.63900757,10.84502316 106.64079285,10.84379578 106.64082336,10.84366989","Address":"869-871 (Kế A4-A5), đường Quang Trung, Quận Gò Vấp","Lat":10.84367,"Lng":106.640822},{"StationId":2095,"StationOrder":30,"StationDirection":0,"RouteId":45,"StationName":"Công ty Đồng Tâm","pathPoints":"106.64082336,10.84366989 106.64091492,10.84369087 106.64328766,10.84210491 106.64335632,10.84197330","Address":"819, đường Quang Trung, Quận Gò Vấp","Lat":10.841973,"Lng":106.643359},{"StationId":2098,"StationOrder":31,"StationDirection":0,"RouteId":45,"StationName":"Làng SOS","pathPoints":"106.64335632,10.84197330 106.64344025,10.84199905 106.64487457,10.84101963 106.64492035,10.84090900","Address":"751 (364), đường Quang Trung, Quận Gò Vấp","Lat":10.840909,"Lng":106.64492},{"StationId":2096,"StationOrder":32,"StationDirection":0,"RouteId":45,"StationName":"Ngã ba Tân Sơn","pathPoints":"106.64492035,10.84090900 106.64503479,10.84092426 106.64632416,10.83988094 106.64702606,10.83931255 106.64765930,10.83910656 106.64773560,10.83901215","Address":"Đối diện 972 (Công ty ISUZU), đường Quang Trung, Quận Gò Vấp","Lat":10.839012,"Lng":106.647736},{"StationId":2099,"StationOrder":33,"StationDirection":0,"RouteId":45,"StationName":"Dệt may Phương Đông","pathPoints":"106.64773560,10.83901215 106.64783478,10.83905983 106.64973450,10.83858013 106.64984131,10.83846855","Address":"695 (đối diện 97), đường Quang Trung, Quận Gò Vấp","Lat":10.838469,"Lng":106.649839},{"StationId":2097,"StationOrder":34,"StationDirection":0,"RouteId":45,"StationName":"Trường THPT Nguyễn Công Trứ","pathPoints":"106.64984131,10.83846855 106.64996338,10.83851147 106.65361023,10.83758450 106.65370178,10.83749485","Address":"Đối diện 842, đường Quang Trung, Quận Gò Vấp","Lat":10.837495,"Lng":106.653702},{"StationId":4627,"StationOrder":35,"StationDirection":0,"RouteId":45,"StationName":"Chợ Hạnh Thông Tây","pathPoints":"106.65370178,10.83749485 106.65380096,10.83753681 106.65728760,10.83666706 106.65737915,10.83655167","Address":"Đối diện 746 (12B), đường Quang Trung, Quận Gò Vấp","Lat":10.836552,"Lng":106.657376},{"StationId":4628,"StationOrder":36,"StationDirection":0,"RouteId":45,"StationName":"City Mart","pathPoints":"106.65737915,10.83655167 106.65737915,10.83655167 106.65750122,10.83662033 106.66104126,10.83572483 106.66116333,10.83561420","Address":"645, đường Quang Trung, Quận Gò Vấp","Lat":10.835614,"Lng":106.661164},{"StationId":926,"StationOrder":37,"StationDirection":0,"RouteId":45,"StationName":"Chùa Huỳnh Kim","pathPoints":"106.66116333,10.83561420 106.66127777,10.83565617 106.66217041,10.83543491 106.66303253,10.83513927 106.66312408,10.83503437","Address":"621, đường Quang Trung, Quận Gò Vấp","Lat":10.835034,"Lng":106.663127},{"StationId":1665,"StationOrder":38,"StationDirection":0,"RouteId":45,"StationName":"VKSND Quận Gò Vấp","pathPoints":"106.66312408,10.83503437 106.66332245,10.83503914 106.66436005,10.83454418 106.66493225,10.83418560 106.66606903,10.83332729 106.66612244,10.83318043","Address":"523, đường Quang Trung, Quận Gò Vấp","Lat":10.83318,"Lng":106.666126},{"StationId":987,"StationOrder":39,"StationDirection":0,"RouteId":45,"StationName":"UBND Quận Gò Vấp","pathPoints":"106.66620636,10.83316898 106.66784668,10.83192539 106.66941071,10.83059311","Address":"387, đường Quang Trung, Quận Gò Vấp","Lat":10.830593,"Lng":106.669414},{"StationId":984,"StationOrder":40,"StationDirection":0,"RouteId":45,"StationName":"Nhà Thờ Xóm Thuốc","pathPoints":"106.66941071,10.83059311 106.66954803,10.83058167 106.67022705,10.83013916 106.67116547,10.82966042 106.67179871,10.82929611 106.67190552,10.82917976","Address":"305, đường Quang Trung, Quận Gò Vấp","Lat":10.82918,"Lng":106.671903},{"StationId":986,"StationOrder":41,"StationDirection":0,"RouteId":45,"StationName":"Xóm thuốc","pathPoints":"106.67190552,10.82917976 106.67203522,10.82919598 106.67392731,10.82847404 106.67399597,10.82839012","Address":"205, đường Quang Trung, Quận Gò Vấp","Lat":10.82839,"Lng":106.673995},{"StationId":988,"StationOrder":42,"StationDirection":0,"RouteId":45,"StationName":"Công ty 32","pathPoints":"106.67399597,10.82839012 106.67414093,10.82840061 106.67658997,10.82756329 106.67668915,10.82746792","Address":"67, đường Quang Trung, Quận Gò Vấp","Lat":10.827468,"Lng":106.676688},{"StationId":991,"StationOrder":43,"StationDirection":0,"RouteId":45,"StationName":"Siêu thị Văn Lang","pathPoints":"106.67668915,10.82746792 106.67678833,10.82749462 106.67871857,10.82684135 106.67881012,10.82675743","Address":"Đối diện Siêu thị Văn Lang, đường Quang Trung, Quận Gò Vấp","Lat":10.826757,"Lng":106.678813},{"StationId":2100,"StationOrder":44,"StationDirection":0,"RouteId":45,"StationName":"Chi cục Thuế Quận Gò Vấp","pathPoints":"106.67881012,10.82675743 106.67915344,10.82660961 106.67969513,10.82645607 106.67978668,10.82635593 106.67989349,10.82629299 106.68003845,10.82630920 106.68016052,10.82636166 106.68061066,10.82625580 106.68102264,10.82621956 106.68143463,10.82620335 106.68183136,10.82627201 106.68209076,10.82632446 106.68232727,10.82635117 106.68267059,10.82626724","Address":"159, đường Nguyễn Văn Nghi, Quận Gò Vấp","Lat":10.826267,"Lng":106.68267},{"StationId":2103,"StationOrder":45,"StationDirection":0,"RouteId":45,"StationName":"Chùa Bà Thiên Hậu","pathPoints":"106.68267059,10.82626724 106.68267059,10.82626724 106.68351746,10.82615566 106.68375397,10.82606697 106.68437958,10.82555580 106.68482208,10.82526016 106.68482208,10.82526016","Address":"87, đường Nguyễn Văn Nghi, Quận Gò Vấp","Lat":10.82526,"Lng":106.684821},{"StationId":2101,"StationOrder":46,"StationDirection":0,"RouteId":45,"StationName":"Trường Đại học Công nghiệp","pathPoints":"106.68482208,10.82526016 106.68533325,10.82505512 106.68782043,10.82318401 106.68811798,10.82283115 106.68825531,10.82239437","Address":"5, đường Nguyễn Văn Nghi, Quận Gò Vấp","Lat":10.822394,"Lng":106.688254},{"StationId":2104,"StationOrder":47,"StationDirection":0,"RouteId":45,"StationName":"Ngã Ba Nguyên Hồng","pathPoints":"106.68833923,10.82215691 106.68833923,10.82215691 106.68878174,10.82137680 106.68909454,10.82078171 106.68921661,10.82066059 106.68945313,10.82046604 106.68977356,10.82014942 106.68990326,10.81997013 106.68999481,10.81977558 106.69001007,10.81965446 106.68990326,10.81960678 106.68983459,10.81951237 106.68984985,10.81939602 106.68991852,10.81931210 106.68980408,10.81906891 106.68945313,10.81847954 106.68917084,10.81789970 106.68909454,10.81778908","Address":"497, đường Lê Quang Định, Quận Gò Vấp","Lat":10.817789,"Lng":106.689091},{"StationId":2106,"StationOrder":48,"StationDirection":0,"RouteId":45,"StationName":"Chùa Già Lam","pathPoints":"106.68909454,10.81778908 106.68909454,10.81778908 106.68856812,10.81651878 106.68860626,10.81596088 106.68867493,10.81575489 106.68879700,10.81551266 106.68901825,10.81517029 106.68901825,10.81517029","Address":"435, đường Lê Quang Định, Quận Bình Thạnh","Lat":10.81517,"Lng":106.689016},{"StationId":2105,"StationOrder":49,"StationDirection":0,"RouteId":45,"StationName":"Ngã Tư Xóm Gà","pathPoints":"106.68901825,10.81517029 106.68947601,10.81485367 106.68961334,10.81441116 106.68980408,10.81354713 106.68995667,10.81294155 106.69042969,10.81201935","Address":"337, đường Lê Quang Định, Quận Bình Thạnh","Lat":10.812019,"Lng":106.690426},{"StationId":2108,"StationOrder":50,"StationDirection":0,"RouteId":45,"StationName":"Chùa Hưng Gia Tự","pathPoints":"106.69042969,10.81201935 106.69054413,10.81195068 106.69079590,10.81152916 106.69106293,10.81108665 106.69122314,10.81096554 106.69161987,10.81088638 106.69201660,10.81077576 106.69213104,10.81064415 106.69226837,10.81047535 106.69248962,10.81002235 106.69274139,10.80966377 106.69292450,10.80954266 106.69306946,10.80937862","Address":"235, đường Lê Quang Định, Quận Bình Thạnh","Lat":10.809379,"Lng":106.693071},{"StationId":1770,"StationOrder":51,"StationDirection":0,"RouteId":45,"StationName":"Cây Xăng 178","pathPoints":"106.69306946,10.80937862 106.69328308,10.80932045 106.69396210,10.80887032 106.69419098,10.80873013 106.69465637,10.80850983 106.69508362,10.80832005 106.69529724,10.80819035 106.69544220,10.80807972 106.69644928,10.80697060","Address":"117-119, đường Lê Quang Định, Quận Bình Thạnh","Lat":10.806971,"Lng":106.696451},{"StationId":1771,"StationOrder":52,"StationDirection":0,"RouteId":45,"StationName":"Trường TH Nguyễn Đình Chiểu","pathPoints":"106.69644928,10.80697060 106.69644928,10.80697060 106.69644928,10.80697060 106.69656372,10.80698681 106.69683075,10.80667114 106.69737244,10.80586433 106.69783783,10.80531693 106.69814301,10.80430508 106.69841766,10.80328846 106.69832611,10.80327797 106.69832611,10.80327797 106.69832611,10.80327797","Address":"1A, đường Lê Quang Định, Quận Bình Thạnh","Lat":10.803278,"Lng":106.698328},{"StationId":518,"StationOrder":53,"StationDirection":0,"RouteId":45,"StationName":"Chợ Bà Chiểu","pathPoints":"106.69832611,10.80327797 106.69832611,10.80327797 106.69840240,10.80325603 106.69857025,10.80257702 106.69937134,10.80292416 106.69947052,10.80289268 106.69947052,10.80289268","Address":"473C, đường Bạch Đằng, Quận Bình Thạnh","Lat":10.802893,"Lng":106.699471},{"StationId":519,"StationOrder":54,"StationDirection":0,"RouteId":45,"StationName":"Tòa Án nhân dân Quận Bình Thạnh","pathPoints":"106.69947052,10.80289268 106.69947052,10.80289268 106.69944000,10.80297756 106.70116425,10.80368805 106.70120239,10.80361462 106.70120239,10.80361462","Address":"449, đường Bạch Đằng, Quận Bình Thạnh","Lat":10.803615,"Lng":106.701204},{"StationId":520,"StationOrder":55,"StationDirection":0,"RouteId":45,"StationName":"Chùa Bồ Đề","pathPoints":"106.70120239,10.80361462 106.70120239,10.80361462 106.70120239,10.80361462 106.70114899,10.80368328 106.70157623,10.80383587 106.70273590,10.80353069 106.70341492,10.80342007 106.70396423,10.80336666 106.70398712,10.80329323 106.70398712,10.80329323 106.70398712,10.80329323","Address":"375, đường Bạch Đằng, Quận Bình Thạnh","Lat":10.803293,"Lng":106.703988},{"StationId":521,"StationOrder":56,"StationDirection":0,"RouteId":45,"StationName":"Nhà thờ Hàng Xanh","pathPoints":"106.70398712,10.80329323 106.70398712,10.80329323 106.70398712,10.80329323 106.70398712,10.80334568 106.70668030,10.80315113 106.70671082,10.80307674 106.70671082,10.80307674 106.70671082,10.80307674","Address":"235, đường Bạch Đằng, Quận Bình Thạnh","Lat":10.803077,"Lng":106.706713},{"StationId":366,"StationOrder":57,"StationDirection":0,"RouteId":45,"StationName":"Chợ Hàng Xanh","pathPoints":"106.70671082,10.80307674 106.70671082,10.80307674 106.70671082,10.80307674 106.70671844,10.80315113 106.71046448,10.80286121 106.71051025,10.80279255 106.71051025,10.80279255 106.71051025,10.80279255","Address":"39, đường Bạch Đằng, Quận Bình Thạnh","Lat":10.802793,"Lng":106.710511},{"StationId":299,"StationOrder":58,"StationDirection":0,"RouteId":45,"StationName":"Ngã Ba Hàng Xanh","pathPoints":"106.71051025,10.80279255 106.71051025,10.80279255 106.71051025,10.80279255 106.71051025,10.80285549 106.71139526,10.80277729 106.71144104,10.80325127 106.71150970,10.80326176 106.71150970,10.80326176 106.71150970,10.80326176","Address":"334-336, đường Xô Viết Nghệ Tĩnh, Quận Bình Thạnh","Lat":10.803262,"Lng":106.711509},{"StationId":302,"StationOrder":59,"StationDirection":0,"RouteId":45,"StationName":"Đài Liệt sĩ","pathPoints":"106.71150970,10.80326176 106.71144104,10.80327225 106.71160889,10.80783558 106.71171570,10.80833626 106.71189117,10.80881596 106.71196747,10.80883121 106.71196747,10.80883121","Address":"504, đường Xô Viết Nghệ Tĩnh, Quận Bình Thạnh","Lat":10.808831,"Lng":106.711965},{"StationId":301,"StationOrder":60,"StationDirection":0,"RouteId":45,"StationName":"Siêu thị Coop Mart","pathPoints":"106.71196747,10.80883121 106.71192169,10.80886269 106.71209717,10.80930519 106.71223450,10.80979061 106.71231079,10.81028557 106.71235657,10.81078625 106.71240997,10.81079102","Address":"222/13A (52), đường Quốc lộ 13, Quận Bình Thạnh","Lat":10.810791,"Lng":106.71241},{"StationId":303,"StationOrder":61,"StationDirection":0,"RouteId":45,"StationName":"Cổng ra - Bến xe Miền Đông 2","pathPoints":"106.71240997,10.81079102 106.71240997,10.81079102 106.71237946,10.81083870 106.71256256,10.81228828 106.71260834,10.81231976 106.71260834,10.81231976","Address":"126-128, đường Quốc lộ 13, Quận Bình Thạnh","Lat":10.81232,"Lng":106.712608},{"StationId":1403,"StationOrder":62,"StationDirection":0,"RouteId":45,"StationName":"Bến xe Miền Đông","pathPoints":"106.71260834,10.81231976 106.71260834,10.81231976 106.71253967,10.81233025 106.71305084,10.81651974 106.71314240,10.81726742 106.71308136,10.81737995 106.71288300,10.81739044 106.71269989,10.81735992 106.71225739,10.81723976 106.71196747,10.81715012 106.71172333,10.81700039 106.71130371,10.81665039 106.71118927,10.81651974 106.71092224,10.81604004 106.71041870,10.81526470 106.71013641,10.81468582 106.70996094,10.81432152 106.70970917,10.81385803 106.70983124,10.81379986 106.71016693,10.81389999 106.71050262,10.81452751 106.71077728,10.81510162 106.71129608,10.81473255 106.71129608,10.81473255","Address":"Bến xe Miền Đông, đường Đinh Bộ Lĩnh, Quận Bình Thạnh","Lat":10.814733,"Lng":106.711294},{"StationId":1403,"StationOrder":0,"StationDirection":1,"RouteId":45,"StationName":"Bến xe Miền Đông","pathPoints":"","Address":"Bến xe Miền Đông, đường Đinh Bộ Lĩnh, Quận Bình Thạnh","Lat":10.814733,"Lng":106.711294},{"StationId":362,"StationOrder":1,"StationDirection":1,"RouteId":45,"StationName":"Ngã Tư Nguyễn Xí","pathPoints":"106.71129608,10.81473255 106.71076202,10.81501198 106.71112061,10.81579208 106.71086884,10.81620312 106.71054077,10.81550694 106.70989227,10.81416893 106.70922089,10.81262493","Address":"291-293, đường Đinh Bộ Lĩnh, Quận Bình Thạnh","Lat":10.812625,"Lng":106.709223},{"StationId":363,"StationOrder":2,"StationDirection":1,"RouteId":45,"StationName":"Ngã Tư Chu Văn An","pathPoints":"106.70925140,10.81260014 106.70919037,10.81247044 106.70913696,10.81227016 106.70912933,10.81159019 106.70913696,10.81058025 106.70919037,10.80980968","Address":"183, đường Đinh Bộ Lĩnh, Quận Bình Thạnh","Lat":10.809759,"Lng":106.709143},{"StationId":364,"StationOrder":3,"StationDirection":1,"RouteId":45,"StationName":"Cầu Đinh Bộ Lĩnh","pathPoints":"106.70919037,10.80980968 106.70926666,10.80805969 106.70937347,10.80710983 106.70938873,10.80690956","Address":"85, đường Đinh Bộ Lĩnh, Quận Bình Thạnh","Lat":10.806908,"Lng":106.709341},{"StationId":365,"StationOrder":4,"StationDirection":1,"RouteId":45,"StationName":"Trạm xăng dầu","pathPoints":"106.70938873,10.80690956 106.70948792,10.80566978 106.70947266,10.80506039 106.70944214,10.80442047","Address":"17, đường Đinh Bộ Lĩnh, Quận Bình Thạnh","Lat":10.804421,"Lng":106.709395},{"StationId":588,"StationOrder":5,"StationDirection":1,"RouteId":45,"StationName":"Nhà thờ Hàng Xanh","pathPoints":"106.70939636,10.80442142 106.70944214,10.80442047 106.70932770,10.80307770 106.70831299,10.80316162 106.70803070,10.80317688","Address":"96, đường Bạch Đằng, Quận Bình Thạnh","Lat":10.803177,"Lng":106.708032},{"StationId":589,"StationOrder":6,"StationDirection":1,"RouteId":45,"StationName":"Chùa Bồ Đề","pathPoints":"106.70797729,10.80307961 106.70393372,10.80338955","Address":"246, đường Bạch Đằng, Quận Bình Thạnh","Lat":10.803483,"Lng":106.704015},{"StationId":590,"StationOrder":7,"StationDirection":1,"RouteId":45,"StationName":"Tòa Án nhân dân Quận Bình Thạnh","pathPoints":"106.70401764,10.80348301 106.70373535,10.80351448 106.70278168,10.80364132 106.70172119,10.80392075 106.70153046,10.80396271 106.70114136,10.80384636 106.70096588,10.80375671","Address":"288, đường Bạch Đằng, Quận Bình Thạnh","Lat":10.803873,"Lng":106.701187},{"StationId":592,"StationOrder":8,"StationDirection":1,"RouteId":45,"StationName":"Chợ Bà Chiểu","pathPoints":"106.70096588,10.80375671 106.69937134,10.80312538","Address":"368, đường Bạch Đằng, Quận Bình Thạnh","Lat":10.803125,"Lng":106.699374},{"StationId":1648,"StationOrder":9,"StationDirection":1,"RouteId":45,"StationName":"Trường TH Nguyễn Đình Chiểu","pathPoints":"106.69937134,10.80312538 106.69856262,10.80278778 106.69846344,10.80324078","Address":"22-24, đường Lê Quang Định, Quận Bình Thạnh","Lat":10.803546,"Lng":106.698409},{"StationId":1651,"StationOrder":10,"StationDirection":1,"RouteId":45,"StationName":"Cây Xăng 178","pathPoints":"106.69846344,10.80324078 106.69802856,10.80484962 106.69786072,10.80523014 106.69776154,10.80541039 106.69740295,10.80585003 106.69716644,10.80613041 106.69696045,10.80644989 106.69691467,10.80665016","Address":"164, đường Lê Quang Định, Quận Bình Thạnh","Lat":10.80656,"Lng":106.696976},{"StationId":2041,"StationOrder":11,"StationDirection":1,"RouteId":45,"StationName":"Ngã Tư Bình Hòa","pathPoints":"106.69691467,10.80665016 106.69676971,10.80684471 106.69544220,10.80807972 106.69529724,10.80821991 106.69508362,10.80832005 106.69472504,10.80849934 106.69454956,10.80859375","Address":"276, đường Lê Quang Định, Quận Bình Thạnh","Lat":10.80871,"Lng":106.694418},{"StationId":2036,"StationOrder":12,"StationDirection":1,"RouteId":45,"StationName":"Chùa Hưng Gia Tự ","pathPoints":"106.69454956,10.80859375 106.69417572,10.80880547 106.69393921,10.80892086 106.69360352,10.80912113 106.69309235,10.80950069","Address":"336, đường Lê Quang Định, Quận Bình Thạnh","Lat":10.810033,"Lng":106.692637},{"StationId":2038,"StationOrder":13,"StationDirection":1,"RouteId":45,"StationName":"Ngã Tư Xóm Gà","pathPoints":"106.69309235,10.80950069 106.69290924,10.80964851 106.69274902,10.80978489 106.69252014,10.81005001 106.69229889,10.81046009 106.69212341,10.81070995 106.69204712,10.81079960 106.69196320,10.81085014 106.69185638,10.81085968 106.69129944,10.81097984 106.69119263,10.81105042 106.69103241,10.81116962 106.69075775,10.81161976 106.69050598,10.81211376 106.69041443,10.81227207","Address":"424, đường Lê Quang Định, Quận Bình Thạnh","Lat":10.811666,"Lng":106.69085},{"StationId":2043,"StationOrder":14,"StationDirection":1,"RouteId":45,"StationName":"Chùa Già Lam","pathPoints":"106.69041443,10.81227207 106.69009399,10.81281471 106.68989563,10.81356335 106.68976593,10.81427383","Address":"488, đường Lê Quang Định, Quận Bình Thạnh","Lat":10.814522,"Lng":106.68974},{"StationId":2047,"StationOrder":15,"StationDirection":1,"RouteId":45,"StationName":"Ngã Ba Nguyên Hồng","pathPoints":"106.68976593,10.81427383 106.68966675,10.81465340 106.68955994,10.81481171 106.68934631,10.81504917 106.68891144,10.81543922 106.68875122,10.81570721 106.68864441,10.81608677 106.68863678,10.81634521 106.68866730,10.81658745 106.68927765,10.81787300","Address":"566, đường Lê Quang Định, Quận Gò Vấp","Lat":10.817294,"Lng":106.689},{"StationId":2046,"StationOrder":16,"StationDirection":1,"RouteId":45,"StationName":"Trường Đại học Công nghiệp","pathPoints":"106.68927765,10.81787300 106.68968964,10.81876373 106.68989563,10.81921673 106.69006348,10.81969070 106.68997192,10.81997585 106.68965149,10.82039165 106.68923187,10.82075024 106.68910217,10.82097149 106.68898010,10.82119846 106.68875885,10.82164574","Address":"28, đường Nguyễn Văn Nghi, Quận Gò Vấp","Lat":10.821598,"Lng":106.688774},{"StationId":2040,"StationOrder":17,"StationDirection":1,"RouteId":45,"StationName":"Chùa Bà Thiên Hậu","pathPoints":"106.68875885,10.82164574 106.68846130,10.82221985 106.68795013,10.82318401 106.68748474,10.82356358 106.68655396,10.82420158 106.68618774,10.82463837 106.68587494,10.82489681 106.68499756,10.82532883","Address":"250, đường Nguyễn Văn Nghi, Quận Gò Vấp","Lat":10.825292,"Lng":106.685035},{"StationId":2042,"StationOrder":18,"StationDirection":1,"RouteId":45,"StationName":"Chi cục Thuế Quận Gò Vấp","pathPoints":"106.68499756,10.82532883 106.68470764,10.82550240 106.68376923,10.82615089 106.68354797,10.82623005 106.68273163,10.82638264","Address":"308, đường Nguyễn Văn Nghi, Quận Gò Vấp","Lat":10.826362,"Lng":106.682852},{"StationId":921,"StationOrder":19,"StationDirection":1,"RouteId":45,"StationName":"Siêu thị Văn Lang","pathPoints":"106.68273163,10.82638264 106.68226624,10.82645130 106.68151855,10.82628822 106.68114471,10.82627201 106.68067169,10.82631969 106.68019867,10.82644558 106.68014526,10.82657719 106.68004608,10.82667732 106.67991638,10.82669926 106.67977905,10.82663822 106.67935944,10.82683086","Address":"Siêu thị Văn Lang, đường Quang Trung, Quận Gò Vấp","Lat":10.826846,"Lng":106.679209},{"StationId":920,"StationOrder":20,"StationDirection":1,"RouteId":45,"StationName":"Công ty 32","pathPoints":"106.67920685,10.82684612 106.67902374,10.82684135 106.67552948,10.82802105 106.67548370,10.82810020","Address":"138, đường Quang Trung, Quận Gò Vấp","Lat":10.8281,"Lng":106.675487},{"StationId":922,"StationOrder":21,"StationDirection":1,"RouteId":45,"StationName":"Nhà thờ Xóm Thuốc","pathPoints":"106.67548370,10.82810020 106.67541504,10.82808495 106.67260742,10.82908535 106.67260742,10.82918644 106.67260742,10.82918644","Address":"190, đường Quang Trung, Quận Gò Vấp","Lat":10.829186,"Lng":106.672606},{"StationId":923,"StationOrder":22,"StationDirection":1,"RouteId":45,"StationName":"UBND Quận Gò Vấp","pathPoints":"106.67260742,10.82918644 106.67260742,10.82918644 106.67240906,10.82916451 106.67100525,10.82983875 106.67031097,10.83019257 106.66963959,10.83060837 106.66925049,10.83093548 106.66923523,10.83102989","Address":"328, đường Quang Trung, Quận Gò Vấp","Lat":10.83103,"Lng":106.669232},{"StationId":924,"StationOrder":23,"StationDirection":1,"RouteId":45,"StationName":"VKSND Quận Gò Vấp","pathPoints":"106.66923523,10.83102989 106.66923523,10.83102989 106.66909027,10.83107758 106.66781616,10.83205700 106.66756439,10.83227348 106.66680908,10.83286381 106.66679382,10.83294773 106.66679382,10.83294773","Address":"402 - 404, đường Quang Trung, Quận Gò Vấp","Lat":10.832948,"Lng":106.666791},{"StationId":4745,"StationOrder":24,"StationDirection":1,"RouteId":45,"StationName":"Chùa Huỳnh Kim","pathPoints":"106.66679382,10.83294773 106.66663361,10.83300018 106.66493988,10.83433342 106.66345215,10.83510303 106.66336823,10.83520317","Address":"548, đường Quang Trung, Quận Gò Vấp","Lat":10.835203,"Lng":106.663368},{"StationId":925,"StationOrder":25,"StationDirection":1,"RouteId":45,"StationName":"City Mart","pathPoints":"106.66336823,10.83520317 106.66323853,10.83520794 106.66110229,10.83581924 106.66104126,10.83588791","Address":"628A, đường Quang Trung, Quận Gò Vấp","Lat":10.835888,"Lng":106.66104},{"StationId":2049,"StationOrder":26,"StationDirection":1,"RouteId":45,"StationName":"Chợ Hạnh Thông Tây","pathPoints":"106.66104126,10.83588791 106.66090393,10.83586121 106.65715790,10.83680439 106.65707397,10.83689404","Address":"734, đường Quang Trung, Quận Gò Vấp","Lat":10.836894,"Lng":106.657076},{"StationId":2044,"StationOrder":27,"StationDirection":1,"RouteId":45,"StationName":"Trường THPT Nguyễn Công Trứ","pathPoints":"106.65707397,10.83689404 106.65700531,10.83685207 106.65268707,10.83793163 106.65262604,10.83800030","Address":"872 (96H), đường Quang Trung, Quận Gò Vấp","Lat":10.838,"Lng":106.652629},{"StationId":2045,"StationOrder":28,"StationDirection":1,"RouteId":45,"StationName":"Dệt may Phương Đông","pathPoints":"106.65262604,10.83800030 106.65257263,10.83796310 106.65052032,10.83849049 106.65049744,10.83853817","Address":"930 (Kho 97), đường Quang Trung, Quận Gò Vấp","Lat":10.838538,"Lng":106.650499},{"StationId":2051,"StationOrder":29,"StationDirection":1,"RouteId":45,"StationName":"Làng SOS","pathPoints":"106.65049744,10.83853817 106.65009308,10.83858490 106.64865112,10.83894920 106.64721680,10.83933830 106.64705658,10.83945465 106.64657593,10.83983421 106.64650726,10.83992863","Address":"1010, đường Quang Trung, Quận Gò Vấp","Lat":10.839929,"Lng":106.646508},{"StationId":2048,"StationOrder":30,"StationDirection":1,"RouteId":45,"StationName":"Công ty Đồng Tâm","pathPoints":"106.64650726,10.83992863 106.64637756,10.83995533 106.64525604,10.84088802 106.64337158,10.84216309 106.64334869,10.84227943 106.64332581,10.84227276","Address":"1134, đường Quang Trung, Quận Gò Vấp","Lat":10.842273,"Lng":106.643322},{"StationId":2053,"StationOrder":31,"StationDirection":1,"RouteId":45,"StationName":"Ngã tư Cầu cống","pathPoints":"106.64332581,10.84227276 106.64326477,10.84224129 106.64076233,10.84392738 106.64074707,10.84400654","Address":"1246, đường Quang Trung, Quận Gò Vấp","Lat":10.844007,"Lng":106.640747},{"StationId":2050,"StationOrder":32,"StationDirection":1,"RouteId":45,"StationName":"Chợ Cầu","pathPoints":"106.64074707,10.84400654 106.64067841,10.84399605 106.63931274,10.84494972 106.63854980,10.84541321 106.63848877,10.84551430","Address":"1324, đường Quang Trung, Quận Gò Vấp","Lat":10.845514,"Lng":106.638488},{"StationId":2092,"StationOrder":33,"StationDirection":1,"RouteId":45,"StationName":"Chợ Cầu","pathPoints":"106.63848877,10.84551430 106.63831329,10.84556103 106.63690186,10.84637260 106.63444519,10.84812164 106.63436127,10.84825325","Address":"84A, đường Tô Ký, Quận 12","Lat":10.848253,"Lng":106.634363},{"StationId":2052,"StationOrder":34,"StationDirection":1,"RouteId":45,"StationName":"Cầu vượt Quang Trung","pathPoints":"106.63436127,10.84825325 106.63424683,10.84826374 106.63220215,10.84974384 106.63218689,10.84982300","Address":"170, đường Tô Ký, Quận 12","Lat":10.849823,"Lng":106.632185},{"StationId":2057,"StationOrder":35,"StationDirection":1,"RouteId":45,"StationName":"Công viên Phần mềm Quang Trung","pathPoints":"106.63218689,10.84982300 106.63177490,10.85001278 106.63140869,10.85024452 106.63101196,10.85044479 106.63059998,10.85057640 106.63014984,10.85068226 106.62950897,10.85081387 106.62788391,10.85111427 106.62752533,10.85120392 106.62722015,10.85136700 106.62696838,10.85160446 106.62666321,10.85214138 106.62653351,10.85272598","Address":"Công viên Phần mềm Quang Trung, đường Tô Ký, Quận 12","Lat":10.852726,"Lng":106.626531},{"StationId":2089,"StationOrder":36,"StationDirection":1,"RouteId":45,"StationName":"Đông Bắc","pathPoints":"106.62631226,10.85309982 106.62617493,10.85338497 106.62593842,10.85372162 106.62557983,10.85415363 106.62528992,10.85441208 106.62501526,10.85466003 106.62472534,10.85489655 106.62442780,10.85509682 106.62400055,10.85532856 106.62357330,10.85554504 106.62348175,10.85553932 106.62345123,10.85546017 106.62346649,10.85536003 106.62361145,10.85529041 106.62419128,10.85498047 106.62416077,10.85493088","Address":"79 (A93-A95), đường Tô Ký, Quận 12","Lat":10.855118,"Lng":106.623881},{"StationId":2090,"StationOrder":37,"StationDirection":1,"RouteId":45,"StationName":"Công viên Phần mềm Quang Trung","pathPoints":"106.62387848,10.85511780 106.62403870,10.85509205 106.62459564,10.85474968 106.62521362,10.85422802 106.62558746,10.85383224 106.62591553,10.85337448 106.62591553,10.85324764","Address":"389, đường Tô Ký, Quận 12","Lat":10.853248,"Lng":106.625914},{"StationId":2254,"StationOrder":38,"StationDirection":1,"RouteId":45,"StationName":"Chung cư Thái An","pathPoints":"106.62591553,10.85324764 106.62615967,10.85289955 106.62642670,10.85239029 106.62651825,10.85210037 106.62664795,10.85182953 106.62689209,10.85136986 106.62692261,10.85124969 106.62690735,10.85105038 106.62686920,10.85097980 106.62677002,10.85091972 106.62626648,10.85070992 106.62610626,10.85060978 106.62600708,10.85052013 106.62595367,10.85039997 106.62566376,10.84992981 106.62525177,10.84939003 106.62442780,10.84901714 106.62435150,10.84906960","Address":"Chung cư Thái An, đường Quốc lộ 1A, Quận 12","Lat":10.84907,"Lng":106.624348},{"StationId":2250,"StationOrder":39,"StationDirection":1,"RouteId":45,"StationName":"Trạm đăng kiểm","pathPoints":"106.62435150,10.84906960 106.62364197,10.84863758 106.62241364,10.84805870 106.62105560,10.84749985","Address":"Trạm đăng kiểm, đường Quốc lộ 1A, Quận 12","Lat":10.8475,"Lng":106.621059},{"StationId":2251,"StationOrder":40,"StationDirection":1,"RouteId":45,"StationName":"Bãi xe Tây Nam","pathPoints":"106.62105560,10.84749985 106.62072754,10.84724140 106.61995697,10.84687328 106.61934662,10.84643078 106.61875916,10.84593487","Address":"Đối diện Bãi xe Tây Nam, đường Quốc lộ 1A, Quận 12","Lat":10.845935,"Lng":106.618758},{"StationId":2252,"StationOrder":41,"StationDirection":1,"RouteId":45,"StationName":"Cầu vượt An Sương","pathPoints":"106.61875916,10.84593487 106.61875916,10.84593487 106.61757660,10.84479046 106.61722565,10.84459114 106.61608124,10.84362316 106.61608124,10.84362316","Address":"Xưởng Z735, đường Quốc lộ 1A, Quận 12","Lat":10.843623,"Lng":106.616081},{"StationId":1115,"StationOrder":42,"StationDirection":1,"RouteId":45,"StationName":"Bến xe An Sương","pathPoints":"106.61608124,10.84362316 106.61601257,10.84356976 106.61578369,10.84343815 106.61551666,10.84331131 106.61538696,10.84331131 106.61524963,10.84333801 106.61508179,10.84345341 106.61479187,10.84372234 106.61421204,10.84464455 106.61401367,10.84493923","Address":"F42, đường Quốc lộ 22, Quận 12","Lat":10.845803,"Lng":106.613517},{"StationId":1116,"StationOrder":43,"StationDirection":1,"RouteId":45,"StationName":"Bến xe An Sương","pathPoints":"106.61351776,10.84580326 106.61335754,10.84603500","Address":"142, đường Quốc lộ 22, Quận 12","Lat":10.846035,"Lng":106.613361},{"StationId":1117,"StationOrder":44,"StationDirection":1,"RouteId":45,"StationName":"Bến xe An Sương","pathPoints":"106.61335754,10.84603500 106.61319733,10.84629345","Address":"8C, đường Quốc lộ 22, Quận 12","Lat":10.846293,"Lng":106.6132},{"StationId":1151,"StationOrder":45,"StationDirection":1,"RouteId":45,"StationName":"Cây xăng Quân Đội","pathPoints":"106.61319733,10.84629345 106.61319733,10.84629345 106.61298370,10.84662533 106.61254120,10.84729958 106.61135864,10.84922791 106.61127472,10.84936047 106.61127472,10.84936047","Address":"2, đường Quốc lộ 22, Quận 12","Lat":10.84936,"Lng":106.611274},{"StationId":1689,"StationOrder":46,"StationDirection":1,"RouteId":45,"StationName":"Cư xá Bà Điểm","pathPoints":"106.61127472,10.84936047 106.61127472,10.84936047 106.61127472,10.84936047 106.61119080,10.84938622 106.61090088,10.84991264 106.61083221,10.84998131 106.61083221,10.84998131 106.61083221,10.84998131","Address":"4-6F, đường Quốc lộ 22, Quận 12","Lat":10.849981,"Lng":106.610835},{"StationId":1152,"StationOrder":47,"StationDirection":1,"RouteId":45,"StationName":"Trung tâm Văn hóa Quận 12","pathPoints":"106.61083221,10.84998131 106.61070251,10.85007095 106.60784912,10.85452843 106.60786438,10.85466003","Address":"Trung tâm văn hóa Quận 12, đường Quốc lộ 22, Quận 12","Lat":10.85466,"Lng":106.607863},{"StationId":1690,"StationOrder":48,"StationDirection":1,"RouteId":45,"StationName":"Trung tâm Văn hóa Quận 12","pathPoints":"106.60786438,10.85466003 106.60775757,10.85469627 106.60732269,10.85540295 106.60760498,10.85582447 106.60768127,10.85582447","Address":"Hông Trung tâm văn hóa Quận 12, đường Nguyễn Ảnh Thủ, Quận 12","Lat":10.855824,"Lng":106.60768},{"StationId":1691,"StationOrder":49,"StationDirection":1,"RouteId":45,"StationName":"Trường CĐ Giao thông vận tải","pathPoints":"106.60768127,10.85582447 106.60769653,10.85598755 106.60924530,10.85828400 106.60930634,10.85828400","Address":"8, đường Nguyễn Ảnh Thủ, Quận 12","Lat":10.858284,"Lng":106.609306},{"StationId":1692,"StationOrder":50,"StationDirection":1,"RouteId":45,"StationName":"Giáo xứ Trung Chánh","pathPoints":"106.60930634,10.85828400 106.60930634,10.85828400 106.60947418,10.85864830 106.61116028,10.86121845 106.61122894,10.86126137 106.61122894,10.86126137","Address":"1387 (349), đường Nguyễn Ảnh Thủ, Quận 12","Lat":10.861261,"Lng":106.611232},{"StationId":1693,"StationOrder":51,"StationDirection":1,"RouteId":45,"StationName":"Trung Mỹ - Tân Xuân","pathPoints":"106.61122894,10.86126137 106.61241150,10.86287308 106.61338043,10.86425304","Address":"85/3B (7), đường Nguyễn Ảnh Thủ, Quận 12","Lat":10.864253,"Lng":106.613383},{"StationId":1694,"StationOrder":52,"StationDirection":1,"RouteId":45,"StationName":"Trường Nguyễn Hữu Cầu","pathPoints":"106.61338043,10.86425304 106.61401367,10.86511230 106.61508942,10.86663532","Address":"1C, đường Nguyễn Ảnh Thủ, Quận 12","Lat":10.866635,"Lng":106.615089},{"StationId":2340,"StationOrder":53,"StationDirection":1,"RouteId":45,"StationName":"Nghĩa trang liệt sỹ Trung Chánh","pathPoints":"106.61508942,10.86663532 106.61512756,10.86680889 106.61550140,10.86734581 106.61542511,10.86789417 106.61546326,10.86797333","Address":"652A, đường Tô Ký, Huyện Hóc Môn","Lat":10.867973,"Lng":106.615464},{"StationId":2338,"StationOrder":54,"StationDirection":1,"RouteId":45,"StationName":"Chùa Thiên Quang","pathPoints":"106.61546326,10.86797333 106.61499786,10.87031174 106.61397552,10.87162399","Address":"5/2, đường Tô Ký, Huyện Hóc Môn","Lat":10.871624,"Lng":106.613978},{"StationId":2339,"StationOrder":55,"StationDirection":1,"RouteId":45,"StationName":"Thép Đăng Khoa","pathPoints":"106.61397552,10.87162399 106.61269379,10.87311459 106.61201477,10.87466335","Address":"150A, đường Tô Ký, Huyện Hóc Môn","Lat":10.874663,"Lng":106.612015},{"StationId":2264,"StationOrder":56,"StationDirection":1,"RouteId":45,"StationName":"Cây Bàng","pathPoints":"106.61201477,10.87466335 106.61078644,10.87707138","Address":"1/1, đường Tô Ký, Huyện Hóc Môn","Lat":10.877071,"Lng":106.610786},{"StationId":2262,"StationOrder":57,"StationDirection":1,"RouteId":45,"StationName":"Cống Đôi","pathPoints":"106.61078644,10.87707138 106.60870361,10.88117981","Address":"Đối diện 370L, đường Tô Ký, Huyện Hóc Môn","Lat":10.88118,"Lng":106.6087},{"StationId":4762,"StationOrder":58,"StationDirection":1,"RouteId":45,"StationName":"Hoa viên Trúc Lâm","pathPoints":"106.60870361,10.88117981 106.60765839,10.88311291 106.60627747,10.88457775","Address":"154/1, đường Tô Ký, Huyện Hóc Môn","Lat":10.884578,"Lng":106.606275},{"StationId":2255,"StationOrder":59,"StationDirection":1,"RouteId":45,"StationName":"Sơn Thanh Phong","pathPoints":"106.60627747,10.88457775 106.60617065,10.88460445 106.60416412,10.88662720","Address":"14/1, đường Tô Ký, Huyện Hóc Môn","Lat":10.886627,"Lng":106.604167},{"StationId":2266,"StationOrder":60,"StationDirection":1,"RouteId":45,"StationName":"Ngã 3 Chùa","pathPoints":"106.60416412,10.88662720 106.60347748,10.88722229 106.60253906,10.88763809 106.60156250,10.88800240","Address":"4/36, đường Quang Trung, Huyện Hóc Môn","Lat":10.888002,"Lng":106.60156},{"StationId":2257,"StationOrder":61,"StationDirection":1,"RouteId":45,"StationName":"Chợ Hóc Môn","pathPoints":"106.60156250,10.88800240 106.60120392,10.88800716 106.60049438,10.88801765 106.59943390,10.88808632 106.59892273,10.88819122 106.59841919,10.88832283","Address":"1/17, đường Quang Trung, Huyện Hóc Môn","Lat":10.888323,"Lng":106.598416},{"StationId":2259,"StationOrder":62,"StationDirection":1,"RouteId":45,"StationName":"Ngân hàng Nông Nghiệp","pathPoints":"106.59841919,10.88832283 106.59841919,10.88832283 106.59807587,10.88831806 106.59733582,10.88834953 106.59574127,10.88842869 106.59514618,10.88855457 106.59509277,10.88861847 106.59501648,10.88863945 106.59491730,10.88860035 106.59488678,10.88852978 106.59490204,10.88847637 106.59481049,10.88846016 106.59436798,10.88833332 106.59436798,10.88833332 106.59436798,10.88833332","Address":"13/3 (số củ 12), đường Lý Thường Kiệt , Huyện Hóc Môn","Lat":10.888333,"Lng":106.594368},{"StationId":2268,"StationOrder":63,"StationDirection":1,"RouteId":45,"StationName":"Ngân hàng BIDV","pathPoints":"106.59436798,10.88833332 106.59436798,10.88833332 106.59431458,10.88825512 106.59095764,10.88711166 106.59086609,10.88714981 106.59086609,10.88714981","Address":"78, đường Lý Thường Kiệt , Huyện Hóc Môn","Lat":10.88715,"Lng":106.590866},{"StationId":2261,"StationOrder":64,"StationDirection":1,"RouteId":45,"StationName":"Ngã tư Hóc Môn","pathPoints":"106.59086609,10.88714981 106.59086609,10.88714981 106.59082794,10.88708019 106.58933258,10.88657379 106.58900452,10.88638973 106.58876038,10.88612080 106.58762360,10.88470936 106.58757019,10.88473320 106.58757019,10.88473320","Address":"51/8, đường Lý Thường Kiệt , Huyện Hóc Môn","Lat":10.884733,"Lng":106.58757},{"StationId":1303,"StationOrder":65,"StationDirection":1,"RouteId":45,"StationName":"Ngã tư Hóc Môn","pathPoints":"106.58757019,10.88473320 106.58743286,10.88451958 106.58712006,10.88402939 106.58692169,10.88429832 106.58670807,10.88459873 106.58667755,10.88470459","Address":"53/1 (số cũ 206), đường Quốc lộ 22, Huyện Hóc Môn","Lat":10.884615,"Lng":106.586732},{"StationId":2270,"StationOrder":66,"StationDirection":1,"RouteId":45,"StationName":"Dân Thắng","pathPoints":"106.58673096,10.88461494 106.58663177,10.88456726 106.58381653,10.88864422 106.58387756,10.88870811","Address":"58/2, đường Quốc lộ 22, Huyện Hóc Môn","Lat":10.888708,"Lng":106.583878},{"StationId":2272,"StationOrder":67,"StationDirection":1,"RouteId":45,"StationName":"Bãi xe buýt 19/5","pathPoints":"106.58522034,10.88681698 106.58309174,10.88997173 106.58119965,10.89260578 106.58270264,10.89372253 106.58347321,10.89319611","Address":"BÃI XE BUÝT 19/5, đường Hương Lộ 60B, Huyện Hóc Môn","Lat":10.893196,"Lng":106.583473}]