[{"StationId":7263,"StationOrder":0,"StationDirection":0,"RouteId":93,"StationName":"Bến xe Tân Tập ","pathPoints":"","Address":"Bến xe Tân Tập, đường Đường DT 19, Ngoại thành","Lat":10.530851,"Lng":106.734581},{"StationId":3116,"StationOrder":1,"StationDirection":0,"RouteId":93,"StationName":"Nhà máy Kizunai","pathPoints":"106.73458099,10.53085136 106.72681427,10.53157902 106.72636414,10.53171635 106.72376251,10.53324604 106.72331238,10.53314018 106.72143555,10.53214836 106.71695709,10.53262329 106.71108246,10.53327751 106.70120239,10.53425789 106.69364929,10.53509140 106.68778992,10.53568268 106.68028259,10.53648376 106.67254639,10.53731728 106.66528320,10.53807640 106.65785980,10.53884697 106.65703583,10.53941631 106.65378571,10.54274940 106.65320587,10.54304504 106.65266418,10.54317093 106.64619446,10.54359341 106.64543915,10.54384136 106.64494324,10.54407787 106.64365387,10.54511166 106.63929749,10.54840279 106.63568115,10.55115604 106.63220978,10.55379295 106.62934113,10.55597591 106.63156128,10.56000519 106.63301849,10.56268406 106.63422394,10.56494045 106.63552856,10.56681824 106.63804626,10.57107925 106.63980103,10.57426453 106.64163971,10.57720661 106.64600372,10.58339214 106.64658356,10.58412552 106.64877319,10.58606052 106.65122986,10.58838558 106.65261841,10.58967209 106.65780640,10.59455490 106.66282654,10.59915352 106.66369629,10.59997559 106.66414642,10.60035038 106.66471100,10.60064602 106.66516113,10.60086727 106.66667938,10.60126209 106.66819763,10.60156822 106.66906738,10.60179996 106.66963196,10.60219574 106.66989899,10.60255432 106.67021942,10.60326576 106.67079926,10.60483170 106.67104340,10.60563850 106.67114258,10.60601902 106.67120361,10.60698891 106.67100525,10.60770035 106.67058563,10.60861301 106.66844940,10.61135483 106.66802216,10.61201859 106.66766357,10.61274624 106.66734314,10.61404324 106.66720581,10.61523533 106.66670990,10.61887360 106.66658020,10.61974812 106.66609955,10.62117195 106.66310120,10.62741470 106.66180420,10.63022995 106.66046906,10.63305092 106.66050720,10.63306141","Address":"Đối diện 86 (B8/33B6), đường Quốc lộ 50, Huyện Bình Chánh","Lat":10.633061,"Lng":106.660509},{"StationId":3119,"StationOrder":2,"StationDirection":0,"RouteId":93,"StationName":"Hoàng Thái Mart","pathPoints":"106.66050720,10.63306141 106.65798950,10.63831806","Address":"Cửa hàng gỗ Hồng Thảo (Hoàng Thái Mart), đường Quốc lộ 50, Huyện Bình Chánh","Lat":10.638318,"Lng":106.657993},{"StationId":3118,"StationOrder":3,"StationDirection":0,"RouteId":93,"StationName":"Trạm xăng Hoàng Thái","pathPoints":"106.65798950,10.63831806 106.65731049,10.64150238 106.65686035,10.64448071","Address":"Đối diện D8A/34, đường Quốc lộ 50, Huyện Bình Chánh","Lat":10.644481,"Lng":106.656861},{"StationId":3121,"StationOrder":4,"StationDirection":0,"RouteId":93,"StationName":"Bệnh viện Tâm thần Bình Minh","pathPoints":"106.65686035,10.64448071 106.65677643,10.64521408 106.65653229,10.64647865 106.65632629,10.64733315 106.65596008,10.64827061 106.65602112,10.64828205","Address":"A11/32A, đường Quốc lộ 50, Huyện Bình Chánh","Lat":10.648282,"Lng":106.656024},{"StationId":3120,"StationOrder":5,"StationDirection":0,"RouteId":93,"StationName":"Chùa Phước Hội","pathPoints":"106.65602112,10.64828205 106.65479279,10.65230465","Address":"B7/177, đường Quốc lộ 50, Huyện Bình Chánh","Lat":10.652305,"Lng":106.654791},{"StationId":3123,"StationOrder":6,"StationDirection":0,"RouteId":93,"StationName":"Chùa Tam Bửu","pathPoints":"106.65477753,10.65217018 106.65443420,10.65336418 106.65396881,10.65458012","Address":"B3/63/1 (B2/63/1), đường Quốc lộ 50, Huyện Bình Chánh","Lat":10.656296,"Lng":106.653214},{"StationId":3122,"StationOrder":7,"StationDirection":0,"RouteId":93,"StationName":"Chùa Linh Hòa","pathPoints":"106.65321350,10.65629578 106.65213776,10.65862560 106.65190125,10.65990162","Address":"B2/35A, đường Quốc lộ 50, Huyện Bình Chánh","Lat":10.659902,"Lng":106.651905},{"StationId":3125,"StationOrder":8,"StationDirection":0,"RouteId":93,"StationName":"Đường liên Ấp 1-2","pathPoints":"106.65190125,10.65990162 106.65165710,10.66300106","Address":"A8/240A, đường Quốc lộ 50, Huyện Bình Chánh","Lat":10.663001,"Lng":106.651658},{"StationId":3124,"StationOrder":9,"StationDirection":0,"RouteId":93,"StationName":"Nghĩa trang Đa Phước","pathPoints":"106.65165710,10.66300106 106.65135193,10.66650200","Address":"A8/233 (Đối diện D14/407), đường Quốc lộ 50, Huyện Bình Chánh","Lat":10.666502,"Lng":106.651352},{"StationId":3127,"StationOrder":10,"StationDirection":0,"RouteId":93,"StationName":"Trường THCS Đa Phước","pathPoints":"106.65135193,10.66650200 106.65119934,10.66866302 106.65117645,10.66985989","Address":"E11/323, đường Quốc lộ 50, Huyện Bình Chánh","Lat":10.66986,"Lng":106.651175},{"StationId":3126,"StationOrder":11,"StationDirection":0,"RouteId":93,"StationName":"Công ty Hồng Nhất","pathPoints":"106.65117645,10.66985989 106.65100098,10.67350769","Address":"A1/6/5 (A1/6), đường Quốc lộ 50, Huyện Bình Chánh","Lat":10.673508,"Lng":106.651003},{"StationId":3128,"StationOrder":12,"StationDirection":0,"RouteId":93,"StationName":"Đình Chánh An Phú","pathPoints":"106.65100098,10.67350769 106.65068054,10.67789936","Address":"A6/183, đường Quốc lộ 50, Huyện Bình Chánh","Lat":10.677899,"Lng":106.650681},{"StationId":3129,"StationOrder":13,"StationDirection":0,"RouteId":93,"StationName":"Trường chuyên biệt Rạng Đông","pathPoints":"106.65068054,10.67789936 106.65054321,10.67935371 106.65047455,10.68010235 106.65049744,10.68086147 106.65074921,10.68200016 106.65126038,10.68314934","Address":"A12/366 (A12/363), đường Quốc lộ 50, Huyện Bình Chánh","Lat":10.683149,"Lng":106.651261},{"StationId":3131,"StationOrder":14,"StationDirection":0,"RouteId":93,"StationName":"Trường tiểu học Phong Phú","pathPoints":"106.65126038,10.68314934 106.65369415,10.68851566","Address":"Trường Mầm non Hướng Dương (Trường tiểu học Phong Phú), đường Quốc lộ 50, Huyện Bình Chánh","Lat":10.688516,"Lng":106.653691},{"StationId":3130,"StationOrder":15,"StationDirection":0,"RouteId":93,"StationName":"Trịnh Quang Nghị","pathPoints":"106.65369415,10.68851566 106.65470123,10.69070816 106.65509796,10.69262218","Address":"D3/65, đường Quốc lộ 50, Huyện Bình Chánh","Lat":10.692622,"Lng":106.655096},{"StationId":3133,"StationOrder":16,"StationDirection":0,"RouteId":93,"StationName":"Trạm xăng Kim Quang","pathPoints":"106.65509796,10.69262218 106.65522766,10.69428253 106.65497589,10.69554806","Address":"E8/212M, đường Quốc lộ 50, Huyện Bình Chánh","Lat":10.695548,"Lng":106.654978},{"StationId":3132,"StationOrder":17,"StationDirection":0,"RouteId":93,"StationName":"Trung tâm tư vấn đào tạo Úc Mỹ","pathPoints":"106.65497589,10.69554806 106.65450287,10.69813633","Address":"E8/401 (E8/214A), đường Quốc lộ 50, Huyện Bình Chánh","Lat":10.698136,"Lng":106.654501},{"StationId":3136,"StationOrder":18,"StationDirection":0,"RouteId":93,"StationName":"Chùa Thiện Phước","pathPoints":"106.65450287,10.69813633 106.65434265,10.69901562 106.65423584,10.69990730 106.65435791,10.70086670 106.65458679,10.70176792","Address":"E9/251, đường Quốc lộ 50, Huyện Bình Chánh","Lat":10.701768,"Lng":106.654587},{"StationId":3134,"StationOrder":19,"StationDirection":0,"RouteId":93,"StationName":"Xăng dầu Phong Phú","pathPoints":"106.65458679,10.70176792 106.65496063,10.70470905","Address":"E10/288, đường Quốc lộ 50, Huyện Bình Chánh","Lat":10.704709,"Lng":106.654957},{"StationId":3137,"StationOrder":20,"StationDirection":0,"RouteId":93,"StationName":"Mầm non Anh Việt","pathPoints":"106.65496063,10.70470905 106.65549469,10.70823002","Address":"E11/304 (E11/304C), đường Quốc lộ 50, Huyện Bình Chánh","Lat":10.70823,"Lng":106.655493},{"StationId":3135,"StationOrder":21,"StationDirection":0,"RouteId":93,"StationName":"Chùa Ân Hòa","pathPoints":"106.65549469,10.70823002 106.65586090,10.71081257 106.65575409,10.71205139","Address":"B10/8 (B10/7), đường Quốc lộ 50, Huyện Bình Chánh","Lat":10.712051,"Lng":106.655756},{"StationId":3139,"StationOrder":22,"StationDirection":0,"RouteId":93,"StationName":"Văn phòng Ấp 3","pathPoints":"106.65575409,10.71205139 106.65562439,10.71379566 106.65568542,10.71551991","Address":"B13/118, đường Quốc lộ 50, Huyện Bình Chánh","Lat":10.71552,"Lng":106.655686},{"StationId":3138,"StationOrder":23,"StationDirection":0,"RouteId":93,"StationName":"Chùa Thiên Trì","pathPoints":"106.65568542,10.71551991 106.65573883,10.71859837","Address":"B15/21 (B15/20), đường Quốc lộ 50, Huyện Bình Chánh","Lat":10.718598,"Lng":106.65574},{"StationId":2247,"StationOrder":24,"StationDirection":0,"RouteId":93,"StationName":"Bình Hưng","pathPoints":"106.65573883,10.71859837 106.65583801,10.72084808","Address":"B17/24, đường Quốc lộ 50, Huyện Bình Chánh","Lat":10.720848,"Lng":106.655837},{"StationId":2244,"StationOrder":25,"StationDirection":0,"RouteId":93,"StationName":"Giáo xứ Bình Hưng","pathPoints":"106.65583801,10.72084808 106.65594482,10.72492313","Address":"A18/16, đường Quốc lộ 50, Huyện Bình Chánh","Lat":10.724923,"Lng":106.655944},{"StationId":2246,"StationOrder":26,"StationDirection":0,"RouteId":93,"StationName":"Mầm non ánh Dương","pathPoints":"106.65594482,10.72492313 106.65608978,10.72770023","Address":"A24/20B, đường Quốc lộ 50, Huyện Bình Chánh","Lat":10.7277,"Lng":106.656089},{"StationId":2248,"StationOrder":27,"StationDirection":0,"RouteId":93,"StationName":"Công an Bình Hưng","pathPoints":"106.65608978,10.72770023 106.65610504,10.73090458","Address":"Đối diện A6/10 (A27/13), đường Quốc lộ 50, Huyện Bình Chánh","Lat":10.730905,"Lng":106.656105},{"StationId":2249,"StationOrder":28,"StationDirection":0,"RouteId":93,"StationName":"Bến xe Quận 8","pathPoints":"106.65610504,10.73090458 106.65624237,10.73313427","Address":"407, đường Quốc lộ 50, Quận 8","Lat":10.733134,"Lng":106.656239},{"StationId":496,"StationOrder":29,"StationDirection":0,"RouteId":93,"StationName":"Bến xe buýt Quận 8","pathPoints":"106.65624237,10.73313427 106.65623474,10.73354053 106.65635681,10.73354530","Address":"BẾN XE BUÝT QUẬN 8, đường Quốc lộ 50, Quận 8","Lat":10.733545,"Lng":106.656357},{"StationId":496,"StationOrder":0,"StationDirection":1,"RouteId":93,"StationName":"Bến xe buýt Quận 8","pathPoints":"","Address":"BẾN XE BUÝT QUẬN 8, đường Quốc lộ 50, Quận 8","Lat":10.733545,"Lng":106.656357},{"StationId":2148,"StationOrder":1,"StationDirection":1,"RouteId":93,"StationName":"Bến xe Quận 8","pathPoints":"106.65704346,10.73311996 106.65609741,10.73313046 106.65609741,10.73274040","Address":"328-330, đường Quốc lộ 50, Quận 8","Lat":10.732776,"Lng":106.656051},{"StationId":2149,"StationOrder":2,"StationDirection":1,"RouteId":93,"StationName":"Công an Bình Hưng","pathPoints":"106.65608978,10.73287392 106.65612030,10.73224926 106.65605927,10.73153019","Address":"A6/17, đường Quốc lộ 50, Huyện Bình Chánh","Lat":10.7308,"Lng":106.655971},{"StationId":2151,"StationOrder":3,"StationDirection":1,"RouteId":93,"StationName":"Mầm non Ánh Dương","pathPoints":"106.65596771,10.73079967 106.65589142,10.72789001","Address":"A11/9 (A11/07), đường Quốc lộ 50, Huyện Bình Chánh","Lat":10.72789,"Lng":106.65589},{"StationId":2150,"StationOrder":4,"StationDirection":1,"RouteId":93,"StationName":"Giáo xứ Bình Hưng","pathPoints":"106.65589142,10.72789001 106.65583038,10.72529221","Address":"A13/1, đường Quốc lộ 50, Huyện Bình Chánh","Lat":10.725292,"Lng":106.655831},{"StationId":2153,"StationOrder":5,"StationDirection":1,"RouteId":93,"StationName":"Bình Hưng","pathPoints":"106.65585327,10.72528648 106.65581512,10.72303009","Address":"B2/21A, đường Quốc lộ 50, Huyện Bình Chánh","Lat":10.72058,"Lng":106.655686},{"StationId":3019,"StationOrder":6,"StationDirection":1,"RouteId":93,"StationName":"Nguyễn Văn Linh","pathPoints":"106.65568542,10.72058010 106.65561676,10.71847725","Address":"B4/13, đường Quốc lộ 50, Huyện Bình Chánh","Lat":10.718477,"Lng":106.655617},{"StationId":3020,"StationOrder":7,"StationDirection":1,"RouteId":93,"StationName":"Trường tiều học Bình Hưng","pathPoints":"106.65561676,10.71847725 106.65553284,10.71576214","Address":"Cột điện T66P (B6/19), đường Quốc lộ 50, Huyện Bình Chánh","Lat":10.715762,"Lng":106.655531},{"StationId":3021,"StationOrder":8,"StationDirection":1,"RouteId":93,"StationName":"Chùa An Hòa","pathPoints":"106.65553284,10.71576214 106.65546417,10.71382809 106.65562439,10.71193027","Address":"B8/31, đường Quốc lộ 50, Huyện Bình Chánh","Lat":10.71193,"Lng":106.655627},{"StationId":3023,"StationOrder":9,"StationDirection":1,"RouteId":93,"StationName":"Mầm non Anh Việt","pathPoints":"106.65562439,10.71193027 106.65567780,10.71096039 106.65535736,10.70838833","Address":"E11/307, đường Quốc lộ 50, Huyện Bình Chánh","Lat":10.708388,"Lng":106.655359},{"StationId":3025,"StationOrder":10,"StationDirection":1,"RouteId":93,"StationName":"Xăng dầu Phong Phú","pathPoints":"106.65535736,10.70838833 106.65480042,10.70467186","Address":"E4/106, đường Quốc lộ 50, Huyện Bình Chánh","Lat":10.704672,"Lng":106.654801},{"StationId":3024,"StationOrder":11,"StationDirection":1,"RouteId":93,"StationName":"Chùa Thiện Phước","pathPoints":"106.65480042,10.70467186 106.65430450,10.70151520","Address":"E5/142, đường Quốc lộ 50, Huyện Bình Chánh","Lat":10.701515,"Lng":106.654308},{"StationId":3026,"StationOrder":12,"StationDirection":1,"RouteId":93,"StationName":"Trung tâm tư vấn đào tạo Úc Mỹ","pathPoints":"106.65430450,10.70151520 106.65402985,10.69995403 106.65435791,10.69819355","Address":"E7/1914 (Đối diện E8/215), đường Quốc lộ 50, Huyện Bình Chánh","Lat":10.698194,"Lng":106.654356},{"StationId":3027,"StationOrder":13,"StationDirection":1,"RouteId":93,"StationName":"Trạm xăng Kim Quang","pathPoints":"106.65435791,10.69819355 106.65487671,10.69541645","Address":"D7/203, đường Quốc lộ 50, Huyện Bình Chánh","Lat":10.695416,"Lng":106.654876},{"StationId":3028,"StationOrder":14,"StationDirection":1,"RouteId":93,"StationName":"Trịnh Quang Nghị","pathPoints":"106.65487671,10.69541645 106.65504456,10.69426155 106.65494537,10.69251060","Address":"D10/281, đường Quốc lộ 50, Huyện Bình Chánh","Lat":10.692511,"Lng":106.654946},{"StationId":3029,"StationOrder":15,"StationDirection":1,"RouteId":93,"StationName":"Trường Tiểu học Phong Phú","pathPoints":"106.65494537,10.69251060 106.65458679,10.69080353 106.65347290,10.68843079","Address":"B5/126, đường Quốc lộ 50, Huyện Bình Chánh","Lat":10.688431,"Lng":106.653471},{"StationId":3030,"StationOrder":16,"StationDirection":1,"RouteId":93,"StationName":"Sân banh ngã 3","pathPoints":"106.65347290,10.68843079 106.65106964,10.68308640","Address":"A2/33, đường Quốc lộ 50, Huyện Bình Chánh","Lat":10.683086,"Lng":106.651068},{"StationId":3031,"StationOrder":17,"StationDirection":1,"RouteId":93,"StationName":"Hội quán Thanh niên","pathPoints":"106.65106964,10.68308640 106.65047455,10.68155766 106.65033722,10.68084049 106.65032959,10.68021297 106.65048981,10.67798901","Address":"A4/95 (A4/94), đường Quốc lộ 50, Huyện Bình Chánh","Lat":10.677989,"Lng":106.650488},{"StationId":3032,"StationOrder":18,"StationDirection":1,"RouteId":93,"StationName":"Ngã 3 đường 3S","pathPoints":"106.65048981,10.67798901 106.65085602,10.67359161","Address":"E7/194, đường Quốc lộ 50, Huyện Bình Chánh","Lat":10.673592,"Lng":106.650853},{"StationId":3033,"StationOrder":19,"StationDirection":1,"RouteId":93,"StationName":"Trường THCS Đa Phước","pathPoints":"106.65085602,10.67359161 106.65105438,10.66976547","Address":"F11/322 (E11/323), đường Quốc lộ 50, Huyện Bình Chánh","Lat":10.669765,"Lng":106.651052},{"StationId":3034,"StationOrder":20,"StationDirection":1,"RouteId":93,"StationName":"Nghĩa trang Đa Phước","pathPoints":"106.65105438,10.66976547 106.65122986,10.66666985","Address":"D16/460A2, đường Quốc lộ 50, Huyện Bình Chánh","Lat":10.66667,"Lng":106.651229},{"StationId":3035,"StationOrder":21,"StationDirection":1,"RouteId":93,"StationName":"Đường liên Ấp 1-2","pathPoints":"106.65126801,10.66665840 106.65155029,10.66345215","Address":"Cột điện H148P (A14/396), đường Quốc lộ 50, Huyện Bình Chánh","Lat":10.662801,"Lng":106.65154},{"StationId":3036,"StationOrder":22,"StationDirection":1,"RouteId":93,"StationName":"Chùa Linh Hòa","pathPoints":"106.65154266,10.66280079 106.65177917,10.65995407","Address":"Cột điện H154P (D9/261/1A), đường Quốc lộ 50, Huyện Bình Chánh","Lat":10.659954,"Lng":106.651776},{"StationId":3038,"StationOrder":23,"StationDirection":1,"RouteId":93,"StationName":"Chùa Tam Bửu","pathPoints":"106.65177917,10.65995407 106.65188599,10.65900517 106.65313721,10.65616417","Address":"D8/34C (D8/238/8), đường Quốc lộ 50, Huyện Bình Chánh","Lat":10.656164,"Lng":106.653138},{"StationId":3039,"StationOrder":24,"StationDirection":1,"RouteId":93,"StationName":"Chùa Phước Hội","pathPoints":"106.65313721,10.65616417 106.65415955,10.65394402 106.65460968,10.65246296","Address":"D7/221A, đường Quốc lộ 50, Huyện Bình Chánh","Lat":10.652463,"Lng":106.654608},{"StationId":3040,"StationOrder":25,"StationDirection":1,"RouteId":93,"StationName":"Cầu Ông Thìn","pathPoints":"106.65501404,10.65134430 106.65599060,10.64808846","Address":"A8/22A, đường Quốc lộ 50, Huyện Bình Chánh","Lat":10.648087,"Lng":106.655982},{"StationId":3041,"StationOrder":26,"StationDirection":1,"RouteId":93,"StationName":"Trạm xăng Hoàng Thái","pathPoints":"106.65599060,10.64808846 106.65634918,10.64705944 106.65664673,10.64567757 106.65677643,10.64433765","Address":"D7/23A, đường Quốc lộ 50, Huyện Bình Chánh","Lat":10.644338,"Lng":106.656776},{"StationId":3042,"StationOrder":27,"StationDirection":1,"RouteId":93,"StationName":"Hoàng Thái Mart","pathPoints":"106.65677643,10.64433765 106.65718842,10.64123917","Address":"Đối diện 4102 (Đối diện B8/33B6), đường Quốc lộ 50, Huyện Bình Chánh","Lat":10.637843,"Lng":106.658036},{"StationId":4421,"StationOrder":28,"StationDirection":1,"RouteId":93,"StationName":"Nhà máy Kizunai","pathPoints":"106.65803528,10.63784313 106.66023254,10.63329887","Address":"Đối diện A13/2 (Quốc lộ 1A), đường Quốc lộ 50 (Quốc lộ 1A), Huyện Bình Chánh","Lat":10.633299,"Lng":106.66023},{"StationId":7263,"StationOrder":29,"StationDirection":1,"RouteId":93,"StationName":"Bến xe Tân Tập ","pathPoints":"106.66023254,10.63329887 106.66023254,10.63329887 106.66374969,10.62593842 106.66602325,10.62115097 106.66649628,10.61973763 106.66735077,10.61370659 106.66763306,10.61260986 106.66825867,10.61155510 106.67024994,10.60897636 106.67075348,10.60819054 106.67109680,10.60722065 106.67106628,10.60596561 106.67045593,10.60402584 106.66975403,10.60241222 106.66946411,10.60212708 106.66896057,10.60185337 106.66514587,10.60093594 106.66403961,10.60038757 106.66156006,10.59816170 106.65719604,10.59412289 106.65412903,10.59124374 106.64964294,10.58698368 106.64595795,10.58349228 106.64371490,10.58032894 106.64154053,10.57724857 106.63758850,10.57039356 106.63559723,10.56694508 106.63430786,10.56500435 106.63362122,10.56375980 106.62928009,10.55595970 106.63290405,10.55321789 106.63649750,10.55051231 106.64075470,10.54721069 106.64373016,10.54500675 106.64500427,10.54403591 106.64550781,10.54377270 106.64617157,10.54356194 106.65263367,10.54316044 106.65324402,10.54300213 106.65373993,10.54273891 106.65563965,10.54077721 106.65702057,10.53938484 106.65793610,10.53883648 106.66959381,10.53758049 106.67705536,10.53684235 106.68196869,10.53627300 106.69515228,10.53491783 106.70086670,10.53430557 106.70148468,10.53419495 106.70456696,10.53391552 106.70826721,10.53353596 106.72158051,10.53212738 106.72332001,10.53310871 106.72367859,10.53322411 106.72393799,10.53312969 106.72644806,10.53167439 106.72686768,10.53155804 106.73043823,10.53119373 106.73456573,10.53077698 106.73458099,10.53085136","Address":"Bến xe Tân Tập, đường Đường DT 19, Ngoại thành","Lat":10.530851,"Lng":106.734581}]