[{"StationId":7136,"StationOrder":0,"StationDirection":0,"RouteId":204,"StationName":"Xã An Nhựt Tân","pathPoints":"","Address":"000, đường 000, Ngoại thành","Lat":10.562304,"Lng":106.510412},{"StationId":3427,"StationOrder":1,"StationDirection":0,"RouteId":204,"StationName":"Ba Làng","pathPoints":"106.51041412,10.56230354 106.51068878,10.56280994 106.50730896,10.56523609 106.50412750,10.56763077 106.50080872,10.56998253 106.49929810,10.57097340 106.49861908,10.57140064 106.49716949,10.57214928 106.49176788,10.57464409 106.48807526,10.57692242 106.48438263,10.57944775 106.48257446,10.58075523 106.48087311,10.58201599 106.47962952,10.58293915 106.47930145,10.58340263 106.47920227,10.58374023 106.47904968,10.58455753 106.47892761,10.58582878 106.47879791,10.58723640 106.47859192,10.58872318 106.47812653,10.59223557 106.47791290,10.59398079 106.47770691,10.59565163 106.47724915,10.59924793 106.47702026,10.60101509 106.47689056,10.60191059 106.47679901,10.60280704 106.47628784,10.60640907 106.47602844,10.60823822 106.47586823,10.60994148 106.47542572,10.61337376 106.47520447,10.61522961 106.47492981,10.61721230 106.47438812,10.62192059 106.47405243,10.62426186 106.47388458,10.62534237 106.47331238,10.62705135 106.47299957,10.62796307 106.47216797,10.62973976 106.47136688,10.63150597 106.47023010,10.63397312 106.46916962,10.63629341 106.47042084,10.63701534 106.47111511,10.63737965 106.47148895,10.63751602 106.47744751,10.63812256 106.47792053,10.63815975 106.47835541,10.63812828 106.48522949,10.63667297 106.49192810,10.63513374 106.49679565,10.63389969 106.50624084,10.63234997 106.50859070,10.63197041 106.50904846,10.63195992 106.51707458,10.63353062 106.52153015,10.63445854 106.52964020,10.63760090 106.53414154,10.64014244 106.53903961,10.64287281 106.54783630,10.64997959 106.55439758,10.65537834 106.55654907,10.65657997","Address":"C1/1A, đường Quốc lộ 1A, Huyện Bình Chánh","Lat":10.65658,"Lng":106.556552},{"StationId":3428,"StationOrder":2,"StationDirection":0,"RouteId":204,"StationName":"Bình Trường","pathPoints":"106.55654907,10.65657997 106.56094360,10.65903664","Address":"C1/1, đường Quốc lộ 1A, Huyện Bình Chánh","Lat":10.659037,"Lng":106.56094},{"StationId":3429,"StationOrder":3,"StationDirection":0,"RouteId":204,"StationName":"Bờ Nhà thờ","pathPoints":"106.56094360,10.65903664 106.56620789,10.66219997","Address":"B6/33 (B6/32), đường Quốc lộ 1A, Huyện Bình Chánh","Lat":10.6622,"Lng":106.566208},{"StationId":699,"StationOrder":4,"StationDirection":0,"RouteId":204,"StationName":"Chợ Bình Chánh","pathPoints":"106.56620789,10.66219997 106.56923676,10.66419315 106.57183838,10.66630077","Address":"D6/33, đường Quốc lộ 1A, Huyện Bình Chánh","Lat":10.666301,"Lng":106.571835},{"StationId":698,"StationOrder":5,"StationDirection":0,"RouteId":204,"StationName":"Trường Trần Đại Nghĩa","pathPoints":"106.57183838,10.66630077 106.57490540,10.66874218","Address":"D6/18, đường Quốc lộ 1A, Huyện Bình Chánh","Lat":10.668742,"Lng":106.574904},{"StationId":701,"StationOrder":6,"StationDirection":0,"RouteId":204,"StationName":"Trịnh Như Khuê","pathPoints":"106.57490540,10.66874218 106.57666016,10.67019653","Address":"D10/6B, đường Quốc lộ 1A, Huyện Bình Chánh","Lat":10.670197,"Lng":106.576663},{"StationId":700,"StationOrder":7,"StationDirection":0,"RouteId":204,"StationName":"Ô tô Hải Âu","pathPoints":"106.57666016,10.67019653 106.58233643,10.67552185","Address":"C3/21F, đường Quốc lộ 1A, Huyện Bình Chánh","Lat":10.675522,"Lng":106.582333},{"StationId":703,"StationOrder":8,"StationDirection":0,"RouteId":204,"StationName":"Văn phòng Ấp 5","pathPoints":"106.58568573,10.67840481 106.58882904,10.68098831","Address":"C11/11 (11/10), đường Quốc lộ 1A, Huyện Bình Chánh","Lat":10.681405,"Lng":106.58928},{"StationId":3431,"StationOrder":9,"StationDirection":0,"RouteId":204,"StationName":"Công ty Thiên Lộc","pathPoints":"106.58927917,10.68140507 106.59250641,10.68451977","Address":"14/27F (Đối diện D7/3B), đường Quốc lộ 1A, Huyện Bình Chánh","Lat":10.68452,"Lng":106.59251},{"StationId":3432,"StationOrder":10,"StationDirection":0,"RouteId":204,"StationName":"An Phú Tây","pathPoints":"106.59250641,10.68451977 106.59295654,10.68535328 106.59355164,10.68650246 106.59369659,10.68687630","Address":"359A/14, đường Quốc lộ 1A, Huyện Bình Chánh","Lat":10.686876,"Lng":106.593695},{"StationId":702,"StationOrder":11,"StationDirection":0,"RouteId":204,"StationName":"Nút giao Bình Thuận","pathPoints":"106.59369659,10.68687630 106.59542847,10.69181633","Address":"Cột điện T86T (194A/8), đường Quốc lộ 1A, Huyện Bình Chánh","Lat":10.691816,"Lng":106.595428},{"StationId":704,"StationOrder":12,"StationDirection":0,"RouteId":204,"StationName":"Nguyễn Hữu Trí","pathPoints":"106.59542847,10.69181633 106.59706116,10.69716072","Address":"Cột điện T65T (45/2A), đường Quốc lộ 1A, Huyện Bình Chánh","Lat":10.697161,"Lng":106.597059},{"StationId":705,"StationOrder":13,"StationDirection":0,"RouteId":204,"StationName":"Dương Đình Cúc","pathPoints":"106.59706116,10.69716072 106.59558868,10.69277000 106.59602356,10.69419003 106.59683228,10.69678020 106.59709930,10.69773960 106.59738159,10.69943047 106.59745789,10.70005989 106.59745026,10.70018005 106.59725189,10.70383358 106.59827423,10.70642185","Address":"C14/17, đường Quốc lộ 1A, Huyện Bình Chánh","Lat":10.706422,"Lng":106.598276},{"StationId":706,"StationOrder":14,"StationDirection":0,"RouteId":204,"StationName":"Hưng Nhơn","pathPoints":"106.59827423,10.70642185 106.59934235,10.71201992","Address":"C12/3, đường Quốc lộ 1A, Huyện Bình Chánh","Lat":10.71202,"Lng":106.599339},{"StationId":711,"StationOrder":15,"StationDirection":0,"RouteId":204,"StationName":"Trần Đại Nghĩa","pathPoints":"106.59934235,10.71201992 106.59953308,10.71360016 106.59969330,10.71469975 106.59992981,10.71605015 106.60016632,10.71747017 106.60060120,10.71994972 106.60067749,10.72019005 106.60079956,10.72087955 106.60087585,10.72083759","Address":"591B (cầu bộ hành), đường Quốc lộ 1A, Huyện Bình Chánh","Lat":10.720838,"Lng":106.600878},{"StationId":708,"StationOrder":16,"StationDirection":0,"RouteId":204,"StationName":"Cầu An Lạc","pathPoints":"106.60094452,10.72133255 106.60090637,10.72177696 106.60108948,10.72250366 106.60224152,10.72438335 106.60234070,10.72431660","Address":"849-851, đường Kinh Dương Vương, Quận Bình Tân","Lat":10.724317,"Lng":106.602337},{"StationId":712,"StationOrder":17,"StationDirection":0,"RouteId":204,"StationName":"Hoa Hồng","pathPoints":"106.60234070,10.72431660 106.60282898,10.72496986 106.60362244,10.72565556 106.60519409,10.72658253","Address":"771, đường Kinh Dương Vương, Quận Bình Tân","Lat":10.726583,"Lng":106.605191},{"StationId":709,"StationOrder":18,"StationDirection":0,"RouteId":204,"StationName":"Hàng Dương","pathPoints":"106.60519409,10.72658253 106.60760498,10.72832012","Address":"703, đường Kinh Dương Vương, Quận Bình Tân","Lat":10.72832,"Lng":106.607605},{"StationId":714,"StationOrder":19,"StationDirection":0,"RouteId":204,"StationName":"Ủy ban","pathPoints":"106.60760498,10.72832012 106.61025238,10.72997665","Address":"631-637, đường Kinh Dương Vương, Quận Bình Tân","Lat":10.729977,"Lng":106.610255},{"StationId":710,"StationOrder":20,"StationDirection":0,"RouteId":204,"StationName":"Lâm Thành","pathPoints":"106.61025238,10.72997665 106.61050415,10.73048878 106.61253357,10.73375130 106.61298370,10.73427773","Address":"289(561), đường Kinh Dương Vương, Quận Bình Tân","Lat":10.734278,"Lng":106.61298},{"StationId":716,"StationOrder":21,"StationDirection":0,"RouteId":204,"StationName":"Tên Lửa","pathPoints":"106.61298370,10.73427773 106.61285400,10.73433113 106.61313629,10.73480034 106.61419678,10.73655033 106.61472321,10.73733044 106.61483765,10.73756027 106.61490631,10.73754120","Address":"251(511), đường Kinh Dương Vương, Quận Bình Tân","Lat":10.737541,"Lng":106.614906},{"StationId":713,"StationOrder":22,"StationDirection":0,"RouteId":204,"StationName":"Bệnh viện Triều An","pathPoints":"106.61490631,10.73754120 106.61566162,10.73862076 106.61686707,10.73966503","Address":"Bệnh viện Triều An, đường Kinh Dương Vương, Quận Bình Tân","Lat":10.739665,"Lng":106.61687},{"StationId":119,"StationOrder":23,"StationDirection":0,"RouteId":204,"StationName":"Bến xe Miền Tây","pathPoints":"106.61686707,10.73966503 106.61846924,10.74103546","Address":"Bến xe Miền Tây, đường Kinh Dương Vương, Quận Bình Tân","Lat":10.741035,"Lng":106.618468},{"StationId":4149,"StationOrder":24,"StationDirection":0,"RouteId":204,"StationName":"Chợ An Lạc ","pathPoints":"106.61846924,10.74103546 106.62136078,10.74339581","Address":"49-51 (317) - KIA , đường Kinh Dương Vương, Quận Bình Tân","Lat":10.743396,"Lng":106.62136},{"StationId":140,"StationOrder":25,"StationDirection":0,"RouteId":204,"StationName":"Kinh Dương Vương","pathPoints":"106.62136078,10.74339581 106.62221527,10.74418163 106.62316132,10.74491882","Address":"7, đường Kinh Dương Vương, Quận Bình Tân","Lat":10.744919,"Lng":106.623162},{"StationId":718,"StationOrder":26,"StationDirection":0,"RouteId":204,"StationName":"Công viên Phú Lâm","pathPoints":"106.62316132,10.74491882 106.62348175,10.74512482 106.62400055,10.74538803 106.62405396,10.74552536 106.62405396,10.74567318 106.62413788,10.74585247 106.62427521,10.74602032 106.62633514,10.74775982","Address":"209 , đường Kinh Dương Vương, Quận 6","Lat":10.747549,"Lng":106.626257},{"StationId":715,"StationOrder":27,"StationDirection":0,"RouteId":204,"StationName":"Hồ Bơi Phú Lâm","pathPoints":"106.62633514,10.74775982 106.62772369,10.74887657","Address":"157 , đường Kinh Dương Vương, Quận 6","Lat":10.748914,"Lng":106.627963},{"StationId":720,"StationOrder":28,"StationDirection":0,"RouteId":204,"StationName":"Cư xá Phú Lâm","pathPoints":"106.62772369,10.74887657 106.63075256,10.75120068","Address":"93, đường Kinh Dương Vương, Quận 6","Lat":10.751217,"Lng":106.630914},{"StationId":717,"StationOrder":29,"StationDirection":0,"RouteId":204,"StationName":"Vòng xoay Phú Lâm","pathPoints":"106.63075256,10.75120068 106.63245392,10.75255585 106.63352203,10.75324631","Address":"27A, đường Kinh Dương Vương, Quận 6","Lat":10.75322,"Lng":106.633542},{"StationId":724,"StationOrder":30,"StationDirection":0,"RouteId":204,"StationName":"Cầu Ông Buông","pathPoints":"106.63352203,10.75324631 106.63419342,10.75375748 106.63435364,10.75366211 106.63455963,10.75368404 106.63478088,10.75380993 106.63484192,10.75403118 106.63514709,10.75424194 106.63543701,10.75435829 106.63641357,10.75438976 106.63761139,10.75455856 106.63799286,10.75454807","Address":"959, đường Hồng Bàng, Quận 6","Lat":10.754548,"Lng":106.637995},{"StationId":719,"StationOrder":31,"StationDirection":0,"RouteId":204,"StationName":"Ngân hàng ACB","pathPoints":"106.63799286,10.75454807 106.63961029,10.75452137 106.64124298,10.75429535","Address":"871, đường Hồng Bàng, Quận 6","Lat":10.754295,"Lng":106.641245},{"StationId":721,"StationOrder":32,"StationDirection":0,"RouteId":204,"StationName":"Trường Nguyễn Đức Cảnh","pathPoints":"106.64124298,10.75429535 106.64400482,10.75402069","Address":"799, đường Hồng Bàng, Quận 6","Lat":10.754021,"Lng":106.644003},{"StationId":723,"StationOrder":33,"StationDirection":0,"RouteId":204,"StationName":"Chùa Nam Phổ Đà","pathPoints":"106.64400482,10.75402069 106.64595795,10.75378895","Address":"733-735, đường Hồng Bàng, Quận 6","Lat":10.753789,"Lng":106.645955},{"StationId":722,"StationOrder":34,"StationDirection":0,"RouteId":204,"StationName":"Lò Siêu","pathPoints":"106.64595795,10.75378895 106.64732361,10.75364685","Address":"647, đường Hồng Bàng, Quận 6","Lat":10.753647,"Lng":106.647323},{"StationId":464,"StationOrder":35,"StationDirection":0,"RouteId":204,"StationName":"Bến xe Chợ Lớn","pathPoints":"106.64732361,10.75364685 106.65072632,10.75331974 106.65233612,10.75333118","Address":"555, đường Hồng Bàng, Quận 5","Lat":10.753331,"Lng":106.652334},{"StationId":8,"StationOrder":36,"StationDirection":0,"RouteId":204,"StationName":"Bến xe Chợ Lớn","pathPoints":"106.65233612,10.75333118 106.65377045,10.75363064 106.65330505,10.75169659 106.65313721,10.75147057 106.65296936,10.75133324 106.65256500,10.75125313","Address":"GA HKXB CHO LON, đường Lê Quang Sung, Quận 5","Lat":10.751253128051758,"Lng":106.6525650024414},{"StationId":8,"StationOrder":0,"StationDirection":1,"RouteId":204,"StationName":"Bến xe Chợ Lớn","pathPoints":"","Address":"GA HKXB CHO LON, đường Lê Quang Sung, Quận 5","Lat":10.751253128051758,"Lng":106.6525650024414},{"StationId":621,"StationOrder":1,"StationDirection":1,"RouteId":204,"StationName":"Trường Võ Văn Tần","pathPoints":"106.65256500,10.75125313 106.65221405,10.75122738 106.65207672,10.75117493 106.65200043,10.75107479 106.65099335,10.75101185 106.64961243,10.75117493 106.64974976,10.75227070","Address":"96-98, đường Phạm Đình Hổ, Quận 6","Lat":10.752271,"Lng":106.64975},{"StationId":620,"StationOrder":2,"StationDirection":1,"RouteId":204,"StationName":"Cây Mai","pathPoints":"106.64974976,10.75227070 106.64984131,10.75363636 106.64926147,10.75368881","Address":"384, đường Hồng Bàng, Quận 11","Lat":10.753689,"Lng":106.64926},{"StationId":622,"StationOrder":3,"StationDirection":1,"RouteId":204,"StationName":"Lò Siêu","pathPoints":"106.64926147,10.75368881 106.64678955,10.75395203","Address":"508, đường Hồng Bàng, Quận 11","Lat":10.753952,"Lng":106.646787},{"StationId":624,"StationOrder":4,"StationDirection":1,"RouteId":204,"StationName":"Cây Gõ","pathPoints":"106.64678955,10.75395203 106.64437103,10.75423241","Address":"638-640, đường Hồng Bàng, Quận 11","Lat":10.754232,"Lng":106.644368},{"StationId":625,"StationOrder":5,"StationDirection":1,"RouteId":204,"StationName":"Chùa Huê Lâm","pathPoints":"106.64437103,10.75423241 106.64122772,10.75455761","Address":"690 (138), đường Hồng Bàng, Quận 11","Lat":10.754558,"Lng":106.641229},{"StationId":623,"StationOrder":6,"StationDirection":1,"RouteId":204,"StationName":"Tân Hóa","pathPoints":"106.64122772,10.75455761 106.63912201,10.75476360 106.63842773,10.75477028","Address":"732, đường Hồng Bàng, Quận 11","Lat":10.754748,"Lng":106.639089},{"StationId":627,"StationOrder":7,"StationDirection":1,"RouteId":204,"StationName":"Vòng xoay Phú Lâm","pathPoints":"106.63842773,10.75477028 106.63336182,10.75334644","Address":"528, đường Kinh Dương Vương, Quận 6","Lat":10.753346,"Lng":106.633365},{"StationId":628,"StationOrder":8,"StationDirection":1,"RouteId":204,"StationName":"Cư Xá Phú Lâm","pathPoints":"106.63312531,10.75319958 106.63088989,10.75146103","Address":"40-42(580), đường Kinh Dương Vương, Quận 6","Lat":10.751475,"Lng":106.63089},{"StationId":629,"StationOrder":9,"StationDirection":1,"RouteId":204,"StationName":"Hồ Bơi Phú Lâm","pathPoints":"106.63088989,10.75146103 106.62843323,10.74956036","Address":"94-96, đường Kinh Dương Vương, Quận 6","Lat":10.749589,"Lng":106.628435},{"StationId":1386,"StationOrder":10,"StationDirection":1,"RouteId":204,"StationName":"Công Viên Phú Lâm","pathPoints":"106.62843323,10.74958897 106.62452698,10.74638367","Address":"Đối diện 907, đường Kinh Dương Vương, Quận 6","Lat":10.746384,"Lng":106.624525},{"StationId":117,"StationOrder":11,"StationDirection":1,"RouteId":204,"StationName":"Vòng xoay Kinh Dương Vương","pathPoints":"106.62452698,10.74638367 106.62452698,10.74639320 106.62391663,10.74571514 106.62373352,10.74573612 106.62343597,10.74554062 106.62247467,10.74474621 106.62247467,10.74474621","Address":"212-214, đường Kinh Dương Vương, Quận Bình Tân","Lat":10.744746,"Lng":106.622475},{"StationId":116,"StationOrder":12,"StationDirection":1,"RouteId":204,"StationName":"Bến xe Miền Tây","pathPoints":"106.62247467,10.74474621 106.62247467,10.74474621 106.62198639,10.74429703 106.62147522,10.74386501 106.62094879,10.74343300 106.62044525,10.74300098 106.61978912,10.74244213 106.61911011,10.74193573","Address":"358-360, đường Kinh Dương Vương, Quận Bình Tân","Lat":10.741973,"Lng":106.619096},{"StationId":630,"StationOrder":13,"StationDirection":1,"RouteId":204,"StationName":"Bệnh viện Triều An","pathPoints":"106.62045288,10.74304008 106.61643219,10.73968029","Address":"480 (EXIMBANK), đường Kinh Dương Vương, Quận Bình Tân","Lat":10.739675,"Lng":106.616392},{"StationId":631,"StationOrder":14,"StationDirection":1,"RouteId":204,"StationName":"Hàng Dương","pathPoints":"106.61639404,10.73967457 106.61544800,10.73885250 106.61504364,10.73830509 106.61314392,10.73513794","Address":"548, đường Kinh Dương Vương, Quận Bình Tân","Lat":10.735138,"Lng":106.613144},{"StationId":632,"StationOrder":15,"StationDirection":1,"RouteId":204,"StationName":"SinCo","pathPoints":"106.61314392,10.73513794 106.61103058,10.73167419","Address":"Đối diện nhà trọ Thanh Trường, đường Kinh Dương Vương, Quận Bình Tân","Lat":10.731674,"Lng":106.611028},{"StationId":633,"StationOrder":16,"StationDirection":1,"RouteId":204,"StationName":"Hoa hồng","pathPoints":"106.61103058,10.73167419 106.61064148,10.73102093 106.61013794,10.73030376 106.60967255,10.72996712 106.60827637,10.72901440","Address":"620, đường Kinh Dương Vương, Quận Bình Tân","Lat":10.729014,"Lng":106.608276},{"StationId":634,"StationOrder":17,"StationDirection":1,"RouteId":204,"StationName":"An Lạc","pathPoints":"106.60827637,10.72901440 106.60706329,10.72817993 106.60575104,10.72733021","Address":"676, đường Kinh Dương Vương, Quận Bình Tân","Lat":10.72733,"Lng":106.605751},{"StationId":635,"StationOrder":18,"StationDirection":1,"RouteId":204,"StationName":"Thời trang","pathPoints":"106.60575104,10.72733021 106.60440826,10.72639847 106.60302734,10.72546577","Address":"724, đường Kinh Dương Vương, Quận Bình Tân","Lat":10.725466,"Lng":106.603027},{"StationId":636,"StationOrder":19,"StationDirection":1,"RouteId":204,"StationName":"Bãi xe Phương Trang","pathPoints":"106.60302734,10.72546577 106.60302734,10.72546577 106.60179138,10.72411633 106.60139465,10.72406387 106.60102081,10.72385311 106.60039520,10.72099400 106.60037994,10.72133255","Address":"Bãi xe Phương Trang, đường Quốc lộ 1A, Huyện Bình Chánh","Lat":10.721022,"Lng":106.600342},{"StationId":637,"StationOrder":20,"StationDirection":1,"RouteId":204,"StationName":"Hưng Nhơn","pathPoints":"106.60033417,10.72101212 106.60005188,10.71951962","Address":"B1/5, đường Quốc lộ 1A, Huyện Bình Chánh","Lat":10.712241,"Lng":106.598791},{"StationId":638,"StationOrder":21,"StationDirection":1,"RouteId":204,"StationName":"Dương Đình Cúc","pathPoints":"106.59879303,10.71224117 106.59809113,10.70705986","Address":"C3/4, đường Quốc lộ 1A, Huyện Bình Chánh","Lat":10.70706,"Lng":106.598089},{"StationId":639,"StationOrder":22,"StationDirection":1,"RouteId":204,"StationName":"Nguyễn Hữu Trí","pathPoints":"106.59809113,10.70705986 106.59847260,10.70945263 106.59816742,10.70752335 106.59786224,10.70595264 106.59727478,10.70433998 106.59706116,10.70279026 106.59724426,10.70028114 106.59719849,10.69917393 106.59671783,10.69681263 106.59641266,10.69611168","Address":"Kế E9/21, đường Quốc lộ 1A, Huyện Bình Chánh","Lat":10.696112,"Lng":106.596415},{"StationId":640,"StationOrder":23,"StationDirection":1,"RouteId":204,"StationName":"Nút giao Bình Thuận","pathPoints":"106.59641266,10.69611168 106.59510040,10.69188404","Address":"D1/25, đường Quốc lộ 1A, Huyện Bình Chánh","Lat":10.691884,"Lng":106.595101},{"StationId":3422,"StationOrder":24,"StationDirection":1,"RouteId":204,"StationName":"An Phú Tây","pathPoints":"106.59510040,10.69188404 106.59371948,10.68761444","Address":"D5/38B (38A), đường Quốc lộ 1A, Huyện Bình Chánh","Lat":10.687614,"Lng":106.593717},{"StationId":3430,"StationOrder":25,"StationDirection":1,"RouteId":204,"StationName":"Công ty Thiên Lộc","pathPoints":"106.59371948,10.68761444 106.59313202,10.68614388 106.59233093,10.68472004","Address":"D7/3C (D7/3B), đường Quốc lộ 1A, Huyện Bình Chánh","Lat":10.68472,"Lng":106.592333},{"StationId":641,"StationOrder":26,"StationDirection":1,"RouteId":204,"StationName":"Văn phòng Ấp 5","pathPoints":"106.59233093,10.68472004 106.59233093,10.68472004 106.58952332,10.68191624 106.58896637,10.68149376 106.58896637,10.68149376","Address":"C11/12, đường Quốc lộ 1A, Huyện Bình Chánh","Lat":10.681494,"Lng":106.588969},{"StationId":643,"StationOrder":27,"StationDirection":1,"RouteId":204,"StationName":"Ô tô Hải Âu","pathPoints":"106.58896637,10.68149376 106.58315277,10.67652798","Address":"Hyundai Trường Chinh C9/36A (Ô tô Hải Âu), đường Quốc lộ 1A, Huyện Bình Chánh","Lat":10.676528,"Lng":106.583154},{"StationId":644,"StationOrder":28,"StationDirection":1,"RouteId":204,"StationName":"Trịnh Như Khuê","pathPoints":"106.58315277,10.67652798 106.57665253,10.67056084","Address":"A17/10 (A17/8), đường Quốc lộ 1A, Huyện Bình Chánh","Lat":10.670561,"Lng":106.576653},{"StationId":645,"StationOrder":29,"StationDirection":1,"RouteId":204,"StationName":"Trường Trần Đại Nghĩa","pathPoints":"106.57665253,10.67056084 106.57665253,10.67056084 106.57565308,10.66970158 106.57454681,10.66887379 106.57454681,10.66887379","Address":"A16/4, đường Quốc lộ 1A, Huyện Bình Chánh","Lat":10.668874,"Lng":106.57455},{"StationId":646,"StationOrder":30,"StationDirection":1,"RouteId":204,"StationName":"Chợ Bình Chánh","pathPoints":"106.57454681,10.66887379 106.57454681,10.66887379 106.57458496,10.66882706 106.57159424,10.66638565 106.57150269,10.66646957 106.57150269,10.66646957","Address":"A13/7, đường Quốc lộ 1A, Huyện Bình Chánh","Lat":10.66647,"Lng":106.571503},{"StationId":3876,"StationOrder":31,"StationDirection":1,"RouteId":204,"StationName":"Bờ Nhà thờ","pathPoints":"106.57145691,10.66662788 106.56706238,10.66310692","Address":"B15/33, đường Quốc lộ 1A, Huyện Bình Chánh","Lat":10.662211,"Lng":106.565602},{"StationId":3424,"StationOrder":32,"StationDirection":1,"RouteId":204,"StationName":"Bình Trường","pathPoints":"106.56706238,10.66310692 106.56105804,10.65957451","Address":"B15/27, đường Quốc lộ 1A, Huyện Bình Chánh","Lat":10.659364,"Lng":106.560795},{"StationId":3425,"StationOrder":33,"StationDirection":1,"RouteId":204,"StationName":"Ba Làng","pathPoints":"106.56105804,10.65957451 106.55783081,10.65775108","Address":"Cột điện T302P (B20/39), đường Quốc lộ 1A, Huyện Bình Chánh","Lat":10.656791,"Lng":106.556289},{"StationId":7136,"StationOrder":34,"StationDirection":1,"RouteId":204,"StationName":"Xã An Nhựt Tân","pathPoints":"106.55628967,10.65679073 106.55365753,10.65506172 106.54936218,10.65155125 106.53991699,10.64390659 106.53849792,10.64280987 106.53107452,10.63867664 106.52890778,10.63753796 106.52135468,10.63463783 106.50893402,10.63218117 106.49939728,10.63366795 106.49639893,10.63424778 106.48867798,10.63615608 106.47772217,10.63852882 106.47146606,10.63784313 106.46905518,10.63632488 106.47164917,10.63070488 106.47297668,10.62785721 106.47384644,10.62515831 106.47417450,10.62277508 106.47448730,10.62049770 106.47474670,10.61812973 106.47500610,10.61607838 106.47561646,10.61148643 106.47587585,10.60916138 106.47595978,10.60813332 106.47614288,10.60704708 106.47682190,10.60191631 106.47757721,10.59606838 106.47836304,10.58972263 106.47877502,10.58674049 106.47891998,10.58501625 106.47896576,10.58451557 106.47907257,10.58396149 106.47920990,10.58342934 106.47959137,10.58286476 106.48155975,10.58143616 106.48384094,10.57972240 106.48551941,10.57854652 106.48719788,10.57741737 106.49056244,10.57544518 106.49424744,10.57357883 106.49655151,10.57238197 106.49841309,10.57143784 106.49881744,10.57117367 106.49959564,10.57072067 106.50033569,10.57021999 106.50107574,10.56967163 106.50185394,10.56911182 106.50335693,10.56803608 106.50483704,10.56697083 106.50637817,10.56582642 106.50781250,10.56476688 106.50951385,10.56355381 106.51068115,10.56270981 106.51041412,10.56230354","Address":"000, đường 000, Ngoại thành","Lat":10.562304,"Lng":106.510412}]