[{"StationId":1022,"StationOrder":0,"StationDirection":0,"RouteId":17,"StationName":"Bến xe buýt Đầm Sen","pathPoints":"","Address":"BẾN XE BUÝT ĐẦM SEN, đường Hòa Bình, Quận 11","Lat":10.767834,"Lng":106.639733},{"StationId":6955,"StationOrder":1,"StationDirection":0,"RouteId":17,"StationName":"BXB Đầm Sen","pathPoints":"106.63973236,10.76783371 106.63979340,10.76791859 106.64124298,10.76708031","Address":"BXB Đầm Sen, đường Hòa Bình, Quận 11","Lat":10.76708,"Lng":106.64124},{"StationId":1043,"StationOrder":2,"StationDirection":0,"RouteId":17,"StationName":"Ngã tư Hòa Bình","pathPoints":"106.64124298,10.76708031 106.64157104,10.76698017","Address":"3 (79), đường Hòa Bình, Quận 11","Lat":10.76698,"Lng":106.641571},{"StationId":1044,"StationOrder":3,"StationDirection":0,"RouteId":17,"StationName":"Tòa án nhân dân Quận 11","pathPoints":"106.64157104,10.76698017 106.64165497,10.76699066 106.64216614,10.76685333 106.64221191,10.76670647 106.64235687,10.76664829 106.64250183,10.76672173 106.64333344,10.76641655 106.64334869,10.76634216","Address":"85, đường Ông Ích Khiêm, Quận 11","Lat":10.766342,"Lng":106.643349},{"StationId":1045,"StationOrder":4,"StationDirection":0,"RouteId":17,"StationName":"Ông Ích Khiêm","pathPoints":"106.64334869,10.76634216 106.64334869,10.76634216 106.64343262,10.76639557 106.64510345,10.76583099 106.64515686,10.76573658 106.64515686,10.76573658","Address":"43, đường Ông Ích Khiêm, Quận 11","Lat":10.765737,"Lng":106.645157},{"StationId":1046,"StationOrder":5,"StationDirection":0,"RouteId":17,"StationName":"Chợ Lãnh Binh Thăng","pathPoints":"106.64515686,10.76573658 106.64517975,10.76579475 106.64599609,10.76550961 106.64677429,10.76512527 106.64675140,10.76505661","Address":"307, đường Lãnh Binh Thăng, Quận 11","Lat":10.765057,"Lng":106.646755},{"StationId":1047,"StationOrder":6,"StationDirection":0,"RouteId":17,"StationName":"Công viên Lãnh Binh Thăng","pathPoints":"106.64675140,10.76505661 106.64679718,10.76508331 106.65018463,10.76328564 106.65016937,10.76323795","Address":"281A (Siêu thị Vinatex), đường Lãnh Binh Thăng, Quận 11","Lat":10.763238,"Lng":106.650167},{"StationId":1048,"StationOrder":7,"StationDirection":0,"RouteId":17,"StationName":"Trường Trung học Phú Thọ","pathPoints":"106.65016937,10.76323795 106.65022278,10.76329136 106.65121460,10.76276398 106.65219116,10.76266956 106.65218353,10.76214218 106.65235138,10.76150417 106.65268707,10.76095676 106.65264130,10.76090431","Address":"316, đường Tôn Thất Hiệp, Quận 11","Lat":10.760904,"Lng":106.65264},{"StationId":153,"StationOrder":8,"StationDirection":0,"RouteId":17,"StationName":"Tạ Uyên","pathPoints":"106.65264130,10.76090431 106.65270233,10.76091957 106.65306854,10.76054573 106.65331268,10.76013947 106.65376282,10.76037121","Address":"1163, đường Đường 3/2, Quận 11","Lat":10.760371,"Lng":106.653763},{"StationId":154,"StationOrder":9,"StationDirection":0,"RouteId":17,"StationName":"Lê Đại Hành","pathPoints":"106.65376282,10.76037121 106.65600586,10.76156235","Address":"1007 (1029), đường Đường 3/2, Quận 11","Lat":10.761562,"Lng":106.656006},{"StationId":1049,"StationOrder":10,"StationDirection":0,"RouteId":17,"StationName":"Chợ Thiết","pathPoints":"106.65600586,10.76156235 106.65600586,10.76156235 106.65699768,10.76213169 106.65698242,10.76103592 106.65698242,10.76103592","Address":"167-169, đường Phó Cơ Điều, Quận 11","Lat":10.761036,"Lng":106.656982},{"StationId":1050,"StationOrder":11,"StationDirection":0,"RouteId":17,"StationName":"Chợ Thiếc","pathPoints":"106.65698242,10.76103592 106.65709686,10.75935936 106.65710449,10.75749969 106.65761566,10.75756836","Address":"231-233(235), đường Nguyễn Chí Thanh, Quận 5","Lat":10.757568,"Lng":106.657616},{"StationId":281,"StationOrder":12,"StationDirection":0,"RouteId":17,"StationName":"Bệnh viện Chợ Rẫy","pathPoints":"106.65761566,10.75756836 106.66012573,10.75807858","Address":"201A, đường Nguyễn Chí Thanh, Quận 5","Lat":10.758079,"Lng":106.660128},{"StationId":616,"StationOrder":13,"StationDirection":0,"RouteId":17,"StationName":"Bệnh viện Hùng Vương","pathPoints":"106.66012573,10.75807858 106.66012573,10.75807858 106.66142273,10.75834274 106.66220856,10.75570202 106.66220856,10.75570202","Address":"Hông Bệnh viện Hùng Vương, đường Lý Thường Kiệt, Quận 5","Lat":10.755702,"Lng":106.66221},{"StationId":439,"StationOrder":14,"StationDirection":0,"RouteId":17,"StationName":"Đại học Y Dược","pathPoints":"106.66220856,10.75570202 106.66238403,10.75521755 106.66319275,10.75535965","Address":"217, đường Hồng Bàng, Quận 5","Lat":10.75536,"Lng":106.663191},{"StationId":440,"StationOrder":15,"StationDirection":0,"RouteId":17,"StationName":"Bệnh viện Đại học Y Dược","pathPoints":"106.66319275,10.75535965 106.66468048,10.75567055","Address":"215, đường Hồng Bàng, Quận 5","Lat":10.755671,"Lng":106.664683},{"StationId":465,"StationOrder":16,"StationDirection":0,"RouteId":17,"StationName":"Bệnh viện Nguyễn Tri Phương","pathPoints":"106.66468048,10.75567055 106.66519928,10.75579739 106.66795349,10.75629234 106.66950226,10.75657654 106.67049408,10.75671387","Address":"119-121, đường An Dương Vương, Quận 5","Lat":10.756714,"Lng":106.670492},{"StationId":469,"StationOrder":17,"StationDirection":0,"RouteId":17,"StationName":"Chợ An Đông","pathPoints":"106.67049408,10.75671387 106.67049408,10.75676155 106.67214966,10.75708294 106.67218018,10.75705719","Address":"59C, đường An Dương Vương, Quận 5","Lat":10.757057,"Lng":106.672182},{"StationId":466,"StationOrder":18,"StationDirection":0,"RouteId":17,"StationName":"Huỳnh Mẫn Đạt","pathPoints":"106.67218018,10.75705719 106.67218018,10.75705719 106.67391205,10.75744629 106.67405701,10.75738811 106.67418671,10.75750446 106.67648315,10.75841141 106.67657471,10.75837421 106.67657471,10.75837421","Address":"439, đường An Dương Vương, Quận 5","Lat":10.758374,"Lng":106.676576},{"StationId":472,"StationOrder":19,"StationDirection":0,"RouteId":17,"StationName":"Chợ Bầu Sen","pathPoints":"106.67657471,10.75837421 106.67657471,10.75837421 106.67655182,10.75843716 106.67839050,10.75917530 106.67845154,10.75913811 106.67845154,10.75913811","Address":"367-373, đường An Dương Vương, Quận 5","Lat":10.759138,"Lng":106.678453},{"StationId":467,"StationOrder":20,"StationDirection":0,"RouteId":17,"StationName":"Đại học Sài Gòn","pathPoints":"106.67845154,10.75913811 106.67845154,10.75913811 106.67845917,10.75920677 106.68228912,10.76073456 106.68228912,10.76073456","Address":"273-275, đường An Dương Vương, Quận 5","Lat":10.760672,"Lng":106.682321},{"StationId":1051,"StationOrder":21,"StationDirection":0,"RouteId":17,"StationName":"Bộ Công an","pathPoints":"106.68228912,10.76073456 106.68325806,10.76115131 106.68345642,10.76067162","Address":"211-213, đường Nguyễn Văn Cừ, Quận 5","Lat":10.760672,"Lng":106.683453},{"StationId":1052,"StationOrder":22,"StationDirection":0,"RouteId":17,"StationName":"Báo An Ninh Thế Giới","pathPoints":"106.68345642,10.76067162 106.68392181,10.75940704 106.68483734,10.75973415 106.68510437,10.75986862","Address":"371A, đường Nguyễn Trãi, Quận 1","Lat":10.759869,"Lng":106.685104},{"StationId":1053,"StationOrder":23,"StationDirection":0,"RouteId":17,"StationName":"Nhà Khách Bộ Công An","pathPoints":"106.68510437,10.75986862 106.68510437,10.75986862 106.68505096,10.75990200 106.68632507,10.76205826 106.68639374,10.76200581 106.68639374,10.76200581","Address":"333, đường Nguyễn Trãi, Quận 1","Lat":10.762006,"Lng":106.686394},{"StationId":1056,"StationOrder":24,"StationDirection":0,"RouteId":17,"StationName":"Chùa Lâm Tế","pathPoints":"106.68639374,10.76200581 106.68684387,10.76292706 106.68708801,10.76336479 106.68745422,10.76440811 106.68759155,10.76473999 106.68767548,10.76504040 106.68784332,10.76541519 106.68800354,10.76575375","Address":"217, đường Nguyễn Trãi, Quận 1","Lat":10.765754,"Lng":106.688004},{"StationId":35,"StationOrder":25,"StationDirection":0,"RouteId":17,"StationName":"Bến xe buýt Sài Gòn","pathPoints":"106.68800354,10.76575375 106.68793488,10.76579475 106.68818665,10.76643753 106.68838501,10.76655293 106.68851471,10.76672173 106.68862152,10.76682186 106.68879700,10.76687431 106.69048309,10.76757526 106.68991089,10.76849270 106.68917084,10.76815510 106.68936157,10.76767635","Address":"BẾN XE BUÝT SÀI GÒN, đường Lê Lai, Quận 1","Lat":10.767676,"Lng":106.689362},{"StationId":35,"StationOrder":0,"StationDirection":1,"RouteId":17,"StationName":"Bến xe buýt Sài Gòn","pathPoints":"","Address":"BẾN XE BUÝT SÀI GÒN, đường Lê Lai, Quận 1","Lat":10.767676,"Lng":106.689362},{"StationId":7276,"StationOrder":1,"StationDirection":1,"RouteId":17,"StationName":"Tôn Thất Tùng","pathPoints":"106.68936157,10.76767635 106.68936157,10.76767635 106.68955994,10.76720715 106.69089508,10.76772308 106.69094086,10.76766968 106.69094086,10.76766968","Address":"277-279-275Y, đường Phạm Ngũ Lão, Quận 1","Lat":10.76767,"Lng":106.690941},{"StationId":7277,"StationOrder":2,"StationDirection":1,"RouteId":17,"StationName":"Nguyễn Thị Nghĩa","pathPoints":"106.69094086,10.76766968 106.69091034,10.76771832 106.69366455,10.76883030 106.69370270,10.76878834","Address":"187, đường Phạm Ngũ Lão, Quận 1","Lat":10.768788,"Lng":106.693699},{"StationId":7278,"StationOrder":3,"StationDirection":1,"RouteId":17,"StationName":"Trường Emst Thalmann","pathPoints":"106.69370270,10.76878834 106.69368744,10.76884556 106.69555664,10.76957321 106.69558716,10.76950359","Address":"Trường Emst Thalmann, đường Phạm Ngũ Lão, Quận 1","Lat":10.769504,"Lng":106.695587},{"StationId":7268,"StationOrder":4,"StationDirection":1,"RouteId":17,"StationName":"Trạm Trung chuyển trên đường Hàm Nghi","pathPoints":"106.69558716,10.76950359 106.69558716,10.76950359 106.69615173,10.76976776 106.69649506,10.76917744 106.69768524,10.77047443 106.69919586,10.77091694 106.70085907,10.77084255 106.70085907,10.77079010 106.70085907,10.77079010","Address":"Hàm Nghi 13, đường Hàm Nghi, Quận 1","Lat":10.77079,"Lng":106.70086},{"StationId":1256,"StationOrder":5,"StationDirection":1,"RouteId":17,"StationName":"Chợ Cũ","pathPoints":"106.70085907,10.77079010 106.70085907,10.77079010 106.70088196,10.77085304 106.70199585,10.77081108 106.70199585,10.77081108","Address":"89A, đường Hàm Nghi, Quận 1","Lat":10.770811,"Lng":106.701998},{"StationId":2028,"StationOrder":6,"StationDirection":1,"RouteId":17,"StationName":"Trường Cao Thắng","pathPoints":"106.70199585,10.77081108 106.70257568,10.77080059 106.70246124,10.77101707 106.70185089,10.77104282","Address":"Trường Cao Thắng, đường Hàm Nghi, Quận 1","Lat":10.771043,"Lng":106.701853},{"StationId":4223,"StationOrder":7,"StationDirection":1,"RouteId":17,"StationName":"Trạm Trung chuyển trên đường Hàm Nghi","pathPoints":"106.70185089,10.77104282 106.70185089,10.77104282 106.69948578,10.77116966 106.69947052,10.77107525 106.69947052,10.77107525","Address":"Hàm Nghi 4, đường Hàm Nghi, Quận 1","Lat":10.771075,"Lng":106.699471},{"StationId":1944,"StationOrder":8,"StationDirection":1,"RouteId":17,"StationName":"Khách sạn New world","pathPoints":"106.69947052,10.77107525 106.69923401,10.77115917 106.69907379,10.77126980 106.69876099,10.77129650 106.69882202,10.77169704 106.69866180,10.77190781 106.69834900,10.77193928 106.69806671,10.77175426 106.69663239,10.77118015 106.69582367,10.77128983","Address":"40, đường Phạm Hồng Thái, Quận 1","Lat":10.77129,"Lng":106.695824},{"StationId":85,"StationOrder":9,"StationDirection":1,"RouteId":17,"StationName":"Nguyễn Trãi","pathPoints":"106.69582367,10.77128983 106.69582367,10.77128983 106.69368744,10.77133274 106.69343567,10.77134895 106.69333649,10.77150154 106.69312286,10.77147579 106.69302368,10.77122211 106.69268036,10.77097034 106.69268036,10.77097034","Address":"22, đường Nguyễn Trãi, Quận 1","Lat":10.77097,"Lng":106.69268},{"StationId":87,"StationOrder":10,"StationDirection":1,"RouteId":17,"StationName":"Tôn Thất Tùng","pathPoints":"106.69268036,10.77097034 106.69268036,10.77097034 106.69264221,10.77089024 106.69084167,10.76965714 106.69078827,10.76964569 106.69078827,10.76964569","Address":"136, đường Nguyễn Trãi, Quận 1","Lat":10.769646,"Lng":106.690788},{"StationId":86,"StationOrder":11,"StationDirection":1,"RouteId":17,"StationName":"Nhà thờ Huyện Sỹ","pathPoints":"106.69078827,10.76964569 106.69078827,10.76964569 106.69022369,10.76924133 106.68971252,10.76882458 106.68911743,10.76826572 106.68894958,10.76809692 106.68880463,10.76796532 106.68859100,10.76769161 106.68859100,10.76769161","Address":"206Bis, đường Nguyễn Trãi, Quận 1","Lat":10.767692,"Lng":106.688591},{"StationId":1012,"StationOrder":12,"StationDirection":1,"RouteId":17,"StationName":"Chùa Lâm Tế","pathPoints":"106.68859100,10.76769161 106.68859100,10.76769161 106.68833923,10.76710129 106.68830872,10.76695919 106.68824005,10.76687431 106.68820190,10.76678467 106.68814087,10.76662731 106.68779755,10.76573563 106.68779755,10.76573563","Address":"Đối diện 211 (212A), đường Nguyễn Trãi, Quận 1","Lat":10.765736,"Lng":106.687798},{"StationId":1019,"StationOrder":13,"StationDirection":1,"RouteId":17,"StationName":"City plaza","pathPoints":"106.68779755,10.76573563 106.68738556,10.76455593","Address":"230, đường Nguyễn Trãi, Quận 1","Lat":10.764556,"Lng":106.687385},{"StationId":1021,"StationOrder":14,"StationDirection":1,"RouteId":17,"StationName":"Nguyễn Trãi","pathPoints":"106.68708038,10.76375198 106.68659210,10.76275921 106.68614960,10.76194763 106.68508911,10.76013470 106.68498230,10.75999737 106.68480682,10.75989151 106.68408203,10.75960732 106.68376923,10.76031399","Address":"Đối diện số 205 - 207, đường Nguyễn Văn Cừ, Quận 1","Lat":10.760314,"Lng":106.683769},{"StationId":426,"StationOrder":15,"StationDirection":1,"RouteId":17,"StationName":"Đại học Sư Phạm","pathPoints":"106.68376923,10.76031399 106.68376923,10.76031399 106.68376923,10.76031399 106.68341827,10.76124668 106.68267059,10.76103020 106.68267059,10.76103020 106.68267059,10.76103020","Address":"280, đường An Dương Vương, Quận 5","Lat":10.76103,"Lng":106.68267},{"StationId":429,"StationOrder":16,"StationDirection":1,"RouteId":17,"StationName":"Chợ Bầu Sen","pathPoints":"106.68267059,10.76103020 106.68267059,10.76103020 106.68267059,10.76103020 106.67885590,10.75940132 106.67876434,10.75940704 106.67876434,10.75940704 106.67876434,10.75940704","Address":"370, đường An Dương Vương, Quận 5","Lat":10.759407,"Lng":106.678764},{"StationId":427,"StationOrder":17,"StationDirection":1,"RouteId":17,"StationName":"Huỳnh Mẫn Đạt","pathPoints":"106.67876434,10.75940704 106.67876434,10.75940704 106.67870331,10.75933361 106.67535400,10.75798416 106.67527008,10.75798416 106.67527008,10.75798416","Address":"526, đường An Dương Vương, Quận 5","Lat":10.757984,"Lng":106.675272},{"StationId":430,"StationOrder":18,"StationDirection":1,"RouteId":17,"StationName":"Chợ An Đông","pathPoints":"106.67527008,10.75798416 106.67478180,10.75777340 106.67424011,10.75758362 106.67418671,10.75762558 106.67412567,10.75764179 106.67405701,10.75763130 106.67398071,10.75759983 106.67353058,10.75753593","Address":"Đối diện số 3, đường An Dương Vương, Quận 5","Lat":10.757536,"Lng":106.673534},{"StationId":428,"StationOrder":19,"StationDirection":1,"RouteId":17,"StationName":"Bệnh viện Nguyễn Tri Phương","pathPoints":"106.67353058,10.75753593 106.67353058,10.75753593 106.67209625,10.75722027 106.67065430,10.75696659 106.67065430,10.75696659","Address":"102C-D, đường An Dương Vương, Quận 5","Lat":10.756967,"Lng":106.670653},{"StationId":432,"StationOrder":20,"StationDirection":1,"RouteId":17,"StationName":"Công viên Văn Lang","pathPoints":"106.67065430,10.75696659 106.67065430,10.75693512 106.66966248,10.75673008 106.66956329,10.75714588 106.66961670,10.75715065","Address":"132A, đường Nguyễn Tri Phương, Quận 5","Lat":10.757151,"Lng":106.669613},{"StationId":431,"StationOrder":21,"StationDirection":1,"RouteId":17,"StationName":"Công viên Văn Lang","pathPoints":"106.66961670,10.75715065 106.66956329,10.75714588 106.66944885,10.75764656 106.66859436,10.75722027 106.66856384,10.75725746","Address":"116A, đường Hùng Vương, Quận 5","Lat":10.757257,"Lng":106.668566},{"StationId":433,"StationOrder":22,"StationDirection":1,"RouteId":17,"StationName":"Bệnh viện Phạm Ngọc Thạch","pathPoints":"106.66856384,10.75725746 106.66856384,10.75725746 106.66786194,10.75683022 106.66710663,10.75651360 106.66664886,10.75636005 106.66629028,10.75627136 106.66451263,10.75589657 106.66451263,10.75589657","Address":"120, đường Hồng Bàng, Quận 5","Lat":10.755897,"Lng":106.664511},{"StationId":544,"StationOrder":23,"StationDirection":1,"RouteId":17,"StationName":"Bệnh viện Hùng Vương","pathPoints":"106.66451263,10.75589657 106.66451263,10.75589657 106.66237640,10.75544357 106.66225433,10.75599766 106.66233063,10.75601292 106.66233063,10.75601292","Address":"4, đường Lý Thường Kiệt, Quận 5","Lat":10.756013,"Lng":106.662333},{"StationId":393,"StationOrder":24,"StationDirection":1,"RouteId":17,"StationName":"Bệnh viện Răng Hàm Mặt","pathPoints":"106.66233063,10.75601292 106.66233063,10.75601292 106.66220093,10.75597095 106.66150665,10.75840569 106.66086578,10.75828934 106.66082764,10.75836372 106.66082764,10.75836372","Address":"598, đường Nguyễn Chí Thanh, Quận 11","Lat":10.758364,"Lng":106.660828},{"StationId":1014,"StationOrder":25,"StationDirection":1,"RouteId":17,"StationName":"Đường 3/2","pathPoints":"106.66082764,10.75836372 106.66082764,10.75836372 106.66081238,10.75828457 106.65825653,10.75773144 106.65882111,10.75963402 106.65732574,10.76183128","Address":"170-172, đường Lê Đại Hành, Quận 11","Lat":10.761831,"Lng":106.657323},{"StationId":1016,"StationOrder":26,"StationDirection":1,"RouteId":17,"StationName":"Cổng chào Công viên Đầm sen","pathPoints":"106.65732574,10.76183128 106.65698242,10.76223660 106.65673828,10.76213741 106.65586090,10.76228523","Address":"20, đường Lãnh Binh Thăng, Quận 11","Lat":10.762285,"Lng":106.655858},{"StationId":1023,"StationOrder":27,"StationDirection":1,"RouteId":17,"StationName":"Chợ Phú Thọ","pathPoints":"106.65586090,10.76228523 106.65380096,10.76252174","Address":"134, đường Lãnh Binh Thăng, Quận 11","Lat":10.762522,"Lng":106.653798},{"StationId":1018,"StationOrder":28,"StationDirection":1,"RouteId":17,"StationName":"Công viên Lãnh Binh Thăng","pathPoints":"106.65380096,10.76252174 106.65380096,10.76252174 106.65123749,10.76278019 106.65074921,10.76307011 106.65074921,10.76307011","Address":"Đối diện Trường mầm non (278), đường Lãnh Binh Thăng, Quận 11","Lat":10.76307,"Lng":106.650746},{"StationId":1024,"StationOrder":29,"StationDirection":1,"RouteId":17,"StationName":"Nhà văn hóa Quận 11","pathPoints":"106.65074921,10.76307011 106.64939117,10.76381302","Address":"284, đường Lãnh Binh Thăng, Quận 11","Lat":10.763813,"Lng":106.649389},{"StationId":1027,"StationOrder":30,"StationDirection":1,"RouteId":17,"StationName":"Chợ Lãnh Binh Thăng","pathPoints":"106.64939117,10.76381302 106.64819336,10.76441383 106.64763641,10.76471424 106.64692688,10.76511955 106.64692688,10.76511955","Address":"308-310, đường Lãnh Binh Thăng, Quận 11","Lat":10.76512,"Lng":106.646926},{"StationId":1020,"StationOrder":31,"StationDirection":1,"RouteId":17,"StationName":"Tòa án nhân dân Quận 11","pathPoints":"106.64692688,10.76511955 106.64639282,10.76543045 106.64475250,10.76599503 106.64308167,10.76659012","Address":"150, đường Ông Ích Khiêm, Quận 11","Lat":10.76659,"Lng":106.643082},{"StationId":1029,"StationOrder":32,"StationDirection":1,"RouteId":17,"StationName":"Bãi xe buýt Đầm Sen","pathPoints":"106.64308167,10.76659012 106.64308167,10.76659012 106.64308167,10.76659012 106.64308167,10.76659012 106.64297485,10.76659012 106.64252472,10.76675320 106.64252472,10.76686382 106.64244080,10.76695347 106.64231110,10.76698494 106.64213562,10.76688480 106.64117432,10.76719093 106.64118195,10.76730156 106.64118195,10.76730156 106.64117432,10.76719570","Address":"40A, đường Hòa Bình, Quận 11","Lat":10.767196,"Lng":106.641176},{"StationId":1022,"StationOrder":33,"StationDirection":1,"RouteId":17,"StationName":"Bến xe buýt Đầm Sen","pathPoints":"106.64117432,10.76719570 106.64117432,10.76719570 106.63983917,10.76793957 106.63973236,10.76783371 106.63973236,10.76783371","Address":"BẾN XE BUÝT ĐẦM SEN, đường Hòa Bình, Quận 11","Lat":10.767834,"Lng":106.639733}]