[{"StationId":6845,"StationOrder":0,"StationDirection":0,"RouteId":70,"StationName":"Đầu bến Đại học Bách Khoa - Cơ sở 2","pathPoints":"","Address":"Đại học Bách Khoa, đường Đại học Bách Khoa, Quận Thủ Đức","Lat":10.880932,"Lng":106.806378},{"StationId":2145,"StationOrder":1,"StationDirection":0,"RouteId":70,"StationName":"Thảo Nguyên","pathPoints":"106.80638123,10.88093185 106.80638123,10.88093185 106.80638123,10.88093185 106.80638123,10.88093185 106.80638123,10.88093185 106.80646515,10.88101673 106.80480957,10.88213348 106.80245972,10.87863541 106.80314636,10.87663364 106.80314636,10.87648106 106.80383301,10.87631226 106.80443573,10.87607002 106.80487823,10.87574863 106.80525970,10.87531662 106.80517578,10.87466335 106.80507660,10.87434769 106.80484009,10.87406254 106.80459595,10.87385750 106.80430603,10.87369919 106.80342102,10.87356758 106.80267334,10.87356758 106.80193329,10.87365723 106.80171204,10.87352562 106.80123901,10.87358856 106.80102539,10.87339878 106.80017853,10.87289333 106.79946136,10.87249279 106.79901886,10.87220860 106.79870605,10.87207127 106.79827881,10.87206078 106.79795837,10.87161350 106.79791260,10.87130260 106.79772186,10.87078571 106.79756927,10.87031174 106.79572296,10.87055397 106.79541016,10.87044907 106.79530334,10.87010098 106.79532623,10.86895275 106.79524994,10.86839390 106.79508209,10.86784649 106.79463959,10.86659241 106.79414368,10.86525440 106.79393768,10.86533546 106.79393768,10.86533546 106.79393768,10.86533546 106.79393768,10.86533546 106.79393768,10.86533546","Address":"35B, đường Quốc lộ 1, Quận Thủ Đức","Lat":10.865335,"Lng":106.793938},{"StationId":500,"StationOrder":2,"StationDirection":0,"RouteId":70,"StationName":"Đại học Nông Lâm","pathPoints":"106.79393768,10.86533546 106.79393768,10.86533546 106.79387665,10.86530209 106.79309845,10.86587048 106.79233551,10.86637115 106.79107666,10.86690331 106.79109955,10.86696053 106.79109955,10.86696053","Address":"85 (Đối diện 1026-1028), đường Quốc lộ 1, Quận Thủ Đức","Lat":10.866961,"Lng":106.791101},{"StationId":1101,"StationOrder":3,"StationDirection":0,"RouteId":70,"StationName":"ĐH Nông Lâm","pathPoints":"106.79109955,10.86696053 106.79109955,10.86696053 106.79107666,10.86689281 106.79008484,10.86714554 106.78874207,10.86728287 106.78726196,10.86732960 106.78726196,10.86740398 106.78726196,10.86740398","Address":"Kế 21, đường Quốc lộ 1, Quận Thủ Đức","Lat":10.867404,"Lng":106.787265},{"StationId":1102,"StationOrder":4,"StationDirection":0,"RouteId":70,"StationName":"Công ty điện tử Samsung","pathPoints":"106.78726196,10.86740398 106.78726196,10.86731911 106.78491211,10.86739826 106.78358459,10.86749840 106.78286743,10.86761951 106.78216553,10.86777782 106.78220367,10.86786747","Address":"34/38 (Kế 59/6), đường Quốc lộ 1, Quận Thủ Đức","Lat":10.867867,"Lng":106.782201},{"StationId":1103,"StationOrder":5,"StationDirection":0,"RouteId":70,"StationName":"Đại học Kinh tế -Luật","pathPoints":"106.78220367,10.86786747 106.78218842,10.86776733 106.78003693,10.86849403 106.77786255,10.86915302 106.77790833,10.86927414","Address":"Đại học Kinh tế -Luật, đường Quốc lộ 1, Quận Thủ Đức","Lat":10.869274,"Lng":106.777909},{"StationId":2142,"StationOrder":6,"StationDirection":0,"RouteId":70,"StationName":"Trung tâm kho vận Linh Xuân","pathPoints":"106.77790833,10.86927414 106.77787018,10.86914730 106.77486420,10.87011719 106.77493286,10.87025356","Address":"Trung tâm kho vận Linh Xuân, đường Quốc lộ 1, Quận Thủ Đức","Lat":10.870254,"Lng":106.774932},{"StationId":2147,"StationOrder":7,"StationDirection":0,"RouteId":70,"StationName":"Nghĩa trang Thành phố","pathPoints":"106.77493286,10.87025356 106.77488708,10.87011147 106.77282715,10.87081718 106.77288055,10.87091160","Address":"Cột điện NG/1, đường Quốc lộ 1, Quận Thủ Đức","Lat":10.870912,"Lng":106.772878},{"StationId":2143,"StationOrder":8,"StationDirection":0,"RouteId":70,"StationName":"Công ty Nissan","pathPoints":"106.77288055,10.87091160 106.77283478,10.87081242 106.77077484,10.87149715 106.77082062,10.87157059","Address":"Đối diện công ty Nissan, đường Quốc lộ 1, Quận Thủ Đức","Lat":10.871571,"Lng":106.770823},{"StationId":3385,"StationOrder":9,"StationDirection":0,"RouteId":70,"StationName":"Trạm cầu vượt Linh Xuân","pathPoints":"106.77082062,10.87157059 106.77079010,10.87149715 106.76921082,10.87198734 106.76784515,10.87243462 106.76494598,10.87356758 106.76467896,10.87326717 106.76478577,10.87298775 106.76472473,10.87277699 106.76377106,10.87138653 106.76371002,10.87142277","Address":"1123, đường Kha Vạn Cân, Quận Thủ Đức","Lat":10.871423,"Lng":106.76371},{"StationId":3384,"StationOrder":10,"StationDirection":0,"RouteId":70,"StationName":"Nhà hàng tiệc cưới Phố Đôi","pathPoints":"106.76371002,10.87142277 106.76376343,10.87138081 106.76342010,10.87069607 106.76333618,10.87002182 106.76338959,10.86955357 106.76327515,10.86904240 106.76308441,10.86861038 106.76254272,10.86774635 106.76247406,10.86777782","Address":"7/16, đường Kha Vạn Cân, Quận Thủ Đức","Lat":10.867778,"Lng":106.762476},{"StationId":4557,"StationOrder":11,"StationDirection":0,"RouteId":70,"StationName":"Ngã tư Bình Đường","pathPoints":"106.76247406,10.86777782 106.76252747,10.86774063 106.76217651,10.86713505 106.76174927,10.86655045 106.76087189,10.86598110 106.75967407,10.86532784 106.75963593,10.86537266","Address":"Trụ chiếu sáng A.0, đường Phạm Văn Đồng, Quận Thủ Đức","Lat":10.865373,"Lng":106.759639},{"StationId":4676,"StationOrder":12,"StationDirection":0,"RouteId":70,"StationName":"Đường số 9","pathPoints":"106.75963593,10.86537266 106.75965881,10.86533833 106.75758362,10.86427402 106.75602722,10.86346817 106.75554657,10.86315727 106.75551605,10.86320972","Address":"Trụ chiếu sáng A300, đường Phạm Văn Đồng, Quận Thủ Đức","Lat":10.86321,"Lng":106.755513},{"StationId":580,"StationOrder":13,"StationDirection":0,"RouteId":70,"StationName":"Đại học CSND","pathPoints":"106.75551605,10.86320972 106.75555420,10.86317348 106.75496674,10.86271477 106.75402069,10.86176682 106.75270844,10.86022854 106.75257874,10.86032295","Address":"953-951, đường Phạm Văn Đồng, Quận Thủ Đức","Lat":10.860323,"Lng":106.752579},{"StationId":581,"StationOrder":14,"StationDirection":0,"RouteId":70,"StationName":"Ngã tư Tô Ngọc Vân - Phạm Văn Đồng","pathPoints":"106.75257874,10.86032295 106.75270844,10.86023331 106.75223541,10.85965919 106.75198364,10.85899544 106.75177765,10.85489178 106.75148773,10.85389614 106.75135040,10.85392189","Address":"Trụ chiếu sáng A271, đường Phạm Văn Đồng, Quận Thủ Đức","Lat":10.853922,"Lng":106.75135},{"StationId":582,"StationOrder":15,"StationDirection":0,"RouteId":70,"StationName":"Đình thần Bình Quới Đông","pathPoints":"106.75135040,10.85392189 106.75148010,10.85386372 106.74800110,10.84784222 106.74793243,10.84787178","Address":"Trụ chiếu sáng A250, đường Phạm Văn Đồng, Quận Thủ Đức","Lat":10.847872,"Lng":106.747935},{"StationId":583,"StationOrder":16,"StationDirection":0,"RouteId":70,"StationName":"Nút giao Linh Đông -PVĐ","pathPoints":"106.74793243,10.84787178 106.74799347,10.84785271 106.74665070,10.84554005 106.74547577,10.84316349 106.74487305,10.84227371 106.74443817,10.84182549 106.74395752,10.84139919 106.74336243,10.84098244 106.74273682,10.84067726 106.74268341,10.84076977","Address":"Trụ chiếu sáng A226, đường Phạm Văn Đồng, Quận Thủ Đức","Lat":10.84077,"Lng":106.742682},{"StationId":585,"StationOrder":17,"StationDirection":0,"RouteId":70,"StationName":"Chùa An Lạc","pathPoints":"106.74268341,10.84076977 106.74272156,10.84068775 106.74208832,10.84046650 106.74008942,10.83993912 106.73734283,10.83926010 106.73612213,10.83895397 106.73499298,10.83860111 106.73366547,10.83795834 106.73238373,10.83718872 106.73233032,10.83728409","Address":"Ngã tư Hiệp Bình - PVĐ, đường Phạm Văn Đồng, Quận Thủ Đức","Lat":10.837284,"Lng":106.732328},{"StationId":584,"StationOrder":18,"StationDirection":0,"RouteId":70,"StationName":"Cá sấu Hoa Cà","pathPoints":"106.73233032,10.83728409 106.72791290,10.83363438","Address":"Trụ chiếu sáng B194, đường Phạm Văn Đồng, Quận Thủ Đức","Lat":10.833634,"Lng":106.727916},{"StationId":587,"StationOrder":19,"StationDirection":0,"RouteId":70,"StationName":"Đường số 20","pathPoints":"106.72791290,10.83363438 106.72797394,10.83359623 106.72521973,10.83133507 106.72245026,10.82915401 106.72102356,10.82817936 106.72098541,10.82823181","Address":"218, đường Phạm Văn Đồng, Quận Thủ Đức","Lat":10.828232,"Lng":106.720988},{"StationId":586,"StationOrder":20,"StationDirection":0,"RouteId":70,"StationName":"Ngã tư Bình Triệu","pathPoints":"106.72098541,10.82823181 106.72101593,10.82820034 106.72003174,10.82768440 106.71898651,10.82727337 106.71741486,10.82683086 106.71588898,10.82643032 106.71585083,10.82655716","Address":"599, đường Phạm Văn Đồng, Quận Thủ Đức","Lat":10.826557,"Lng":106.715848},{"StationId":7145,"StationOrder":21,"StationDirection":0,"RouteId":70,"StationName":"Cầu Bình Lợi","pathPoints":"106.71585083,10.82655716 106.70396423,10.82333660","Address":"525-527, đường Phạm Văn Đồng, Quận Bình Thạnh","Lat":10.823337,"Lng":106.703966},{"StationId":7146,"StationOrder":22,"StationDirection":0,"RouteId":70,"StationName":"Chung cư Cửu Long","pathPoints":"106.70396423,10.82333660 106.70056152,10.82243061","Address":"42, đường Phạm Văn Đồng, Quận Bình Thạnh","Lat":10.822431,"Lng":106.70056},{"StationId":7147,"StationOrder":23,"StationDirection":0,"RouteId":70,"StationName":"Cầu Rạch Lăng","pathPoints":"106.70056152,10.82243061 106.69677734,10.82142544","Address":"443-445 (CS A95), đường Phạm Văn Đồng, Quận Bình Thạnh","Lat":10.821425,"Lng":106.696778},{"StationId":6850,"StationOrder":24,"StationDirection":0,"RouteId":70,"StationName":"Chùa Phổ Minh","pathPoints":"106.69677734,10.82142544 106.69441223,10.82073402 106.69418335,10.82070827 106.69407654,10.82075024 106.69398499,10.82074451 106.69391632,10.82069778 106.69386292,10.82064438 106.69369507,10.82057095 106.69314575,10.82042313","Address":"337, đường Phạm Văn Đồng, Quận Gò Vấp","Lat":10.820423,"Lng":106.693146},{"StationId":6851,"StationOrder":25,"StationDirection":0,"RouteId":70,"StationName":"Vòng xoay Lê Quang Định","pathPoints":"106.69314575,10.82042313 106.69021606,10.81961727 106.69008636,10.81965923 106.68997955,10.81965446 106.68991089,10.81961155 106.68984985,10.81954384 106.68958282,10.81943798 106.68909454,10.81929111","Address":"263-265, đường Phạm Văn Đồng, Quận Gò Vấp","Lat":10.819291,"Lng":106.689096},{"StationId":6852,"StationOrder":26,"StationDirection":0,"RouteId":70,"StationName":"Lê Lợi","pathPoints":"106.68909454,10.81929111 106.68811798,10.81891155 106.68716431,10.81850529 106.68539429,10.81763077","Address":"119-121, đường Phạm Văn Đồng, Quận Gò Vấp","Lat":10.817631,"Lng":106.685395},{"StationId":224,"StationOrder":27,"StationDirection":0,"RouteId":70,"StationName":"Đầu công viên Gia Định","pathPoints":"106.68539429,10.81763077 106.68182373,10.81545448 106.67912292,10.81429577 106.67868042,10.81432724 106.67828369,10.81388474 106.67789459,10.81354237","Address":"Rạp xiếc, đường Hoàng Minh Giám, Quận Phú Nhuận","Lat":10.813442,"Lng":106.677681},{"StationId":225,"StationOrder":28,"StationDirection":0,"RouteId":70,"StationName":"Cuối công viên Gia Định","pathPoints":"106.67768097,10.81344223 106.67774200,10.81340981 106.67630005,10.81161880 106.67478943,10.80987453 106.67474365,10.80990601","Address":"Đối diện số 5, đường Hoàng Minh Giám, Quận Phú Nhuận","Lat":10.809906,"Lng":106.674741},{"StationId":1772,"StationOrder":29,"StationDirection":0,"RouteId":70,"StationName":"Trường Đại học Kỹ Thuật Công nghệ","pathPoints":"106.67474365,10.80990601 106.67479706,10.80988026 106.67405701,10.80898952 106.67366028,10.80848312 106.67356110,10.80828857 106.67337036,10.80811501 106.67317963,10.80804062 106.67299652,10.80797768 106.67270660,10.80797291 106.67208099,10.80838299 106.67210388,10.80842590","Address":"199, đường Phổ Quang, Quận Phú Nhuận","Lat":10.808426,"Lng":106.672107},{"StationId":1773,"StationOrder":30,"StationDirection":0,"RouteId":70,"StationName":"Cây xăng Quân đội","pathPoints":"106.67210388,10.80842590 106.67154694,10.80866814 106.66865540,10.80881023 106.66841888,10.80746746","Address":"75, đường Phổ Quang, Quận Tân Bình","Lat":10.807467,"Lng":106.668422},{"StationId":1775,"StationOrder":31,"StationDirection":0,"RouteId":70,"StationName":"Bãi xe buýt Phổ Quang","pathPoints":"106.66847992,10.80747032 106.66822052,10.80595970 106.66816711,10.80591965 106.66809082,10.80591011 106.66696930,10.80607033 106.66687012,10.80605984 106.66680145,10.80597973 106.66667938,10.80550957","Address":"Công ty Waseco, đường Phổ Quang, Quận Tân Bình","Lat":10.805359,"Lng":106.666555},{"StationId":1774,"StationOrder":32,"StationDirection":0,"RouteId":70,"StationName":"Rạp Tân Sơn Nhất","pathPoints":"106.66655731,10.80535889 106.66660309,10.80534840 106.66648865,10.80478954 106.66636658,10.80438995 106.66597748,10.80294037 106.66580963,10.80230999 106.66575623,10.80232143","Address":"Rạp Tân Sơn Nhất, đường Phổ Quang, Quận Tân Bình","Lat":10.802321,"Lng":106.665756},{"StationId":911,"StationOrder":33,"StationDirection":0,"RouteId":70,"StationName":"Quán Vườn Dừa","pathPoints":"106.66580963,10.80230999 106.66577148,10.80216980 106.66570282,10.80210972 106.66560364,10.80208969 106.66548920,10.80210018 106.66536713,10.80214024 106.66512299,10.80274963 106.66490173,10.80338001 106.66484070,10.80362034","Address":"12 (1A), đường Phan Đình Giót, Quận Tân Bình","Lat":10.803641,"Lng":106.664909},{"StationId":999,"StationOrder":34,"StationDirection":0,"RouteId":70,"StationName":"Trần Quốc Hoàn","pathPoints":"106.66490936,10.80364132 106.66484070,10.80362034 106.66460419,10.80466366 106.66446686,10.80469990 106.66433716,10.80466366 106.66426086,10.80459023 106.66416168,10.80416965 106.66398621,10.80362034 106.66392517,10.80364418","Address":"65, đường Trần Quốc Hoàn, Quận Tân Bình","Lat":10.803644,"Lng":106.663925},{"StationId":258,"StationOrder":35,"StationDirection":0,"RouteId":70,"StationName":"Vòng xoay Lăng Cha Cả","pathPoints":"106.66392517,10.80364418 106.66375732,10.80310917 106.66356659,10.80271912 106.66333771,10.80244541 106.66231537,10.80136490","Address":"20, đường Trần Quốc Hoàn, Quận Tân Bình","Lat":10.801365,"Lng":106.662312},{"StationId":600,"StationOrder":36,"StationDirection":0,"RouteId":70,"StationName":"Vòng xoay Lăng Cha Cả","pathPoints":"106.66230011,10.80137253 106.66171265,10.80082703 106.66140747,10.80073738 106.66107941,10.80070114 106.66094208,10.80062675 106.66085052,10.80052185 106.66081238,10.80039501 106.66080475,10.80022621 106.66038513,10.79983616","Address":"288-290, đường Hoàng Văn Thụ, Quận Tân Bình","Lat":10.798725,"Lng":106.659071},{"StationId":602,"StationOrder":37,"StationDirection":0,"RouteId":70,"StationName":"Công an Quận Tân Bình","pathPoints":"106.65907288,10.79872513 106.65911102,10.79868221 106.65748596,10.79712296 106.65742493,10.79716969 106.65742493,10.79716969","Address":"340H, đường Hoàng Văn Thụ, Quận Tân Bình","Lat":10.79717,"Lng":106.657425},{"StationId":604,"StationOrder":38,"StationDirection":0,"RouteId":70,"StationName":"Hội Chợ Triển lãm Tân Bình","pathPoints":"106.65695190,10.79657745 106.65575409,10.79549503 106.65519714,10.79608059","Address":"20 (B9), đường Xuân Diệu, Quận Tân Bình","Lat":10.796122,"Lng":106.655145},{"StationId":603,"StationOrder":39,"StationDirection":0,"RouteId":70,"StationName":"Trường Phạm Ngũ Lão","pathPoints":"106.65514374,10.79612160 106.65519714,10.79608059 106.65464783,10.79654980 106.65410614,10.79600048 106.65406799,10.79603195","Address":"149 (E62), đường Xuân Hồng, Quận Tân Bình","Lat":10.796032,"Lng":106.654066},{"StationId":606,"StationOrder":40,"StationDirection":0,"RouteId":70,"StationName":"Cây xăng Đôi","pathPoints":"106.65406799,10.79603195 106.65410614,10.79599476 106.65233612,10.79437923 106.65218353,10.79425621","Address":"23, đường Xuân Hồng, Quận Tân Bình","Lat":10.794256,"Lng":106.652184},{"StationId":605,"StationOrder":41,"StationDirection":0,"RouteId":70,"StationName":"Bệnh viện Thống Nhất","pathPoints":"106.65218353,10.79425621 106.65222931,10.79419804 106.65173340,10.79373455 106.65305328,10.79297543 106.65309906,10.79274368 106.65305328,10.79252243 106.65280151,10.79212189 106.65280151,10.79212189","Address":"733-739, đường Lý Thường Kiệt, Quận Tân Bình","Lat":10.792122,"Lng":106.6528},{"StationId":608,"StationOrder":42,"StationDirection":0,"RouteId":70,"StationName":"Bệnh viện chỉnh hình và phục hồi chức năng","pathPoints":"106.65280151,10.79212189 106.65248108,10.79114151 106.65241241,10.79038334 106.65241241,10.79012012 106.65255737,10.79000378 106.65266418,10.78958225 106.65280914,10.78871822","Address":"589 , đường Lý Thường Kiệt, Quận Tân Bình","Lat":10.788718,"Lng":106.652806},{"StationId":607,"StationOrder":43,"StationDirection":0,"RouteId":70,"StationName":"Chợ Tân Bình","pathPoints":"106.65280914,10.78871822 106.65280914,10.78871822 106.65291595,10.78873348 106.65365601,10.78616238 106.65358734,10.78613091 106.65358734,10.78613091","Address":"Chợ Tân Bình, đường Lý Thường Kiệt, Quận Tân Bình","Lat":10.786131,"Lng":106.653584},{"StationId":610,"StationOrder":44,"StationDirection":0,"RouteId":70,"StationName":"Siêu thị Nguyễn Kim - CMC Tân Bình","pathPoints":"106.65358734,10.78613091 106.65358734,10.78613091 106.65365601,10.78615189 106.65464020,10.78272629 106.65457153,10.78269482 106.65457153,10.78269482","Address":"79B (siêu thị CMC Tân Bình), đường Lý Thường Kiệt, Quận Tân Bình","Lat":10.782695,"Lng":106.654571},{"StationId":609,"StationOrder":45,"StationDirection":0,"RouteId":70,"StationName":"Trường Nguyễn Thái Bình","pathPoints":"106.65457153,10.78269482 106.65560913,10.77923298","Address":"349 (74), đường Lý Thường Kiệt, Quận Tân Bình","Lat":10.779233,"Lng":106.655609},{"StationId":612,"StationOrder":46,"StationDirection":0,"RouteId":70,"StationName":"Bưu Điện Phú Thọ","pathPoints":"106.65560913,10.77923298 106.65669250,10.77531433","Address":"285A, đường Lý Thường Kiệt, Quận 11","Lat":10.775314,"Lng":106.656693},{"StationId":3157,"StationOrder":47,"StationDirection":0,"RouteId":70,"StationName":"ĐH BÁCH KHOA TP HCM","pathPoints":"106.65669250,10.77531433 106.65669250,10.77531433 106.65776062,10.77163887 106.65807343,10.77175999","Address":"ĐẦU BẾN ĐH BÁCH KHOA TP HCM, đường Lý Thường Kiệt, Quận 10","Lat":10.77176,"Lng":106.658074},{"StationId":3157,"StationOrder":0,"StationDirection":1,"RouteId":70,"StationName":"ĐH BÁCH KHOA TP HCM","pathPoints":"","Address":"ĐẦU BẾN ĐH BÁCH KHOA TP HCM, đường Lý Thường Kiệt, Quận 10","Lat":10.77176,"Lng":106.658074},{"StationId":506,"StationOrder":1,"StationDirection":1,"RouteId":70,"StationName":"Đại học Bách Khoa","pathPoints":"106.65807343,10.77175999 106.65782166,10.77167606 106.65757751,10.77257633 106.65769958,10.77260303","Address":"268, đường Lý Thường Kiệt, Quận 10","Lat":10.772603,"Lng":106.657698},{"StationId":547,"StationOrder":2,"StationDirection":1,"RouteId":70,"StationName":"Bưu Điện Phú Thọ","pathPoints":"106.65769958,10.77260303 106.65757751,10.77255058 106.65647888,10.77647114 106.65662384,10.77648735","Address":"270Bis, đường Lý Thường Kiệt, Quận 10","Lat":10.776487,"Lng":106.656625},{"StationId":507,"StationOrder":3,"StationDirection":1,"RouteId":70,"StationName":"Ngã ba Thành Thái","pathPoints":"106.65662384,10.77648735 106.65662384,10.77648735 106.65649414,10.77643967 106.65584564,10.77877903 106.65591431,10.77880001 106.65591431,10.77880001","Address":"270, đường Lý Thường Kiệt, Quận Tân Bình","Lat":10.7788,"Lng":106.655912},{"StationId":548,"StationOrder":4,"StationDirection":1,"RouteId":70,"StationName":"Siêu thị Nguyễn Kim - CMC Tân Bình","pathPoints":"106.65591431,10.77880001 106.65583038,10.77875805 106.65518188,10.78105545 106.65528870,10.78107166","Address":"320 (Quận đoàn Tân Bình), đường Lý Thường Kiệt, Quận Tân Bình","Lat":10.781072,"Lng":106.65529},{"StationId":551,"StationOrder":5,"StationDirection":1,"RouteId":70,"StationName":"Cây xăng Đôi","pathPoints":"106.65528870,10.78107166 106.65518188,10.78102398 106.65435028,10.78398609 106.65443420,10.78400230","Address":"151A, đường Lý Thường Kiệt, Quận Tân Bình","Lat":10.784002,"Lng":106.654431},{"StationId":508,"StationOrder":6,"StationDirection":1,"RouteId":70,"StationName":"Chợ Tân Bình","pathPoints":"106.65443420,10.78400230 106.65434265,10.78398037 106.65370941,10.78619862 106.65378571,10.78622246 106.65378571,10.78622246","Address":"470, đường Lý Thường Kiệt, Quận Tân Bình","Lat":10.786222,"Lng":106.653786},{"StationId":509,"StationOrder":7,"StationDirection":1,"RouteId":70,"StationName":"Bệnh viện chỉnh hình và Phục hồi chức năng","pathPoints":"106.65378571,10.78622246 106.65370941,10.78619862 106.65301514,10.78868103 106.65307617,10.78868866","Address":"1A (Trung tâm phục hồi người tàn tật), đường Lý Thường Kiệt, Quận Tân Bình","Lat":10.788689,"Lng":106.653076},{"StationId":553,"StationOrder":8,"StationDirection":1,"RouteId":70,"StationName":"Bệnh viện Thống Nhất","pathPoints":"106.65307617,10.78868866 106.65300751,10.78866005 106.65257263,10.79016685 106.65253448,10.79058838 106.65262604,10.79132080 106.65300751,10.79213810 106.65307617,10.79210091","Address":"Bệnh viện Thống Nhất, đường Lý Thường Kiệt, Quận Tân Bình","Lat":10.792101,"Lng":106.653074},{"StationId":510,"StationOrder":9,"StationDirection":1,"RouteId":70,"StationName":"Bệnh viện Quận Tân Bình","pathPoints":"106.65307617,10.79210091 106.65300751,10.79212189 106.65341187,10.79285431 106.65399170,10.79353428 106.65444946,10.79410839 106.65513611,10.79476166 106.65519714,10.79471970","Address":"605, đường Hoàng Văn Thụ, Quận Tân Bình","Lat":10.79472,"Lng":106.655198},{"StationId":555,"StationOrder":10,"StationDirection":1,"RouteId":70,"StationName":"Nhà hàng Đông Phương","pathPoints":"106.65519714,10.79471970 106.65514374,10.79477310 106.65912628,10.79862976 106.65921783,10.79855633","Address":"429, đường Hoàng Văn Thụ, Quận Tân Bình","Lat":10.798556,"Lng":106.659216},{"StationId":187,"StationOrder":11,"StationDirection":1,"RouteId":70,"StationName":"Công viên Hoàng Văn Thụ","pathPoints":"106.65921783,10.79855633 106.65921783,10.79855633 106.65913391,10.79861450 106.66080475,10.80019474 106.66104889,10.80023670 106.66131592,10.80048466 106.66169739,10.80064774 106.66259766,10.80064774 106.66358185,10.80058479 106.66357422,10.80046940 106.66357422,10.80046940","Address":"259, đường Hoàng Văn Thụ, Quận Tân Bình","Lat":10.800469,"Lng":106.663578},{"StationId":455,"StationOrder":12,"StationDirection":1,"RouteId":70,"StationName":"Rạp Tân Sơn Nhất","pathPoints":"106.66357422,10.80046940 106.66360474,10.80058002 106.66687775,10.80027390 106.66700745,10.80040550 106.66699219,10.80064297 106.66600800,10.80124378 106.66566467,10.80176544 106.66585541,10.80246067 106.66592407,10.80243969","Address":"2B (Hông sân vận động Quân Khu 7), đường Phổ Quang, Quận Tân Bình","Lat":10.80244,"Lng":106.665924},{"StationId":457,"StationOrder":13,"StationDirection":1,"RouteId":70,"StationName":"Bãi xe buýt Phổ Quang","pathPoints":"106.66592407,10.80243969 106.66586304,10.80245590 106.66625214,10.80396271 106.66665649,10.80542755 106.66670227,10.80541706","Address":"66 (Công ty Xe khách Sài Gòn), đường Phổ Quang, Quận Tân Bình","Lat":10.805417,"Lng":106.6667},{"StationId":454,"StationOrder":14,"StationDirection":1,"RouteId":70,"StationName":"Cây xăng Quân đội","pathPoints":"106.66670227,10.80541706 106.66664886,10.80543804 106.66680908,10.80609131 106.66821289,10.80590725 106.66844940,10.80720806 106.66849518,10.80722141","Address":"96-100, đường Phổ Quang, Quận Tân Bình","Lat":10.807221,"Lng":106.668495},{"StationId":456,"StationOrder":15,"StationDirection":1,"RouteId":70,"StationName":"Trường Đại học Kỹ thuật Công nghệ","pathPoints":"106.66849518,10.80722141 106.66849518,10.80722141 106.66844940,10.80724049 106.66869354,10.80876827 106.67147064,10.80863667 106.67173004,10.80856800 106.67227173,10.80825710 106.67223358,10.80820370","Address":"140, đường Phổ Quang, Quận Phú Nhuận","Lat":10.808204,"Lng":106.672236},{"StationId":459,"StationOrder":16,"StationDirection":1,"RouteId":70,"StationName":"Cuối công viên Gia Định","pathPoints":"106.67223358,10.80820370 106.67223358,10.80820370 106.67223358,10.80820370 106.67225647,10.80825138 106.67268372,10.80799866 106.67311859,10.80800915 106.67338562,10.80812550 106.67362976,10.80836201 106.67485809,10.80974865 106.67492676,10.80972672 106.67492676,10.80972672 106.67492676,10.80972672","Address":"7, đường Hoàng Minh Giám, Quận Phú Nhuận","Lat":10.809727,"Lng":106.674929},{"StationId":458,"StationOrder":17,"StationDirection":1,"RouteId":70,"StationName":"Ngã ba Đặng Văn Sâm","pathPoints":"106.67492676,10.80972672 106.67492676,10.80972672 106.67487335,10.80978012 106.67631531,10.81142426 106.67639923,10.81138229 106.67639923,10.81138229","Address":"Ngã ba Đặng Văn Sâm, đường Hoàng Minh Giám, Quận Phú Nhuận","Lat":10.811382,"Lng":106.676399},{"StationId":461,"StationOrder":18,"StationDirection":1,"RouteId":70,"StationName":"Đầu công viên Gia Định","pathPoints":"106.67639923,10.81138229 106.67634583,10.81144524 106.67789459,10.81329441 106.67794800,10.81323147","Address":"Đối diện Rạp xiếc, đường Hoàng Minh Giám, Quận Phú Nhuận","Lat":10.813231,"Lng":106.677949},{"StationId":6847,"StationOrder":19,"StationDirection":1,"RouteId":70,"StationName":"Lê Lai","pathPoints":"106.67794800,10.81323147 106.67788696,10.81328392 106.67832184,10.81369972 106.67852020,10.81353188 106.67875671,10.81344223 106.67897034,10.81352615 106.67914581,10.81365299 106.67922974,10.81386852 106.67919159,10.81407928 106.68197632,10.81532860 106.68548584,10.81739426 106.68548584,10.81739426","Address":"150 (115A), đường Phạm Văn Đồng, Quận Gò Vấp","Lat":10.817394,"Lng":106.685486},{"StationId":6848,"StationOrder":20,"StationDirection":1,"RouteId":70,"StationName":"Phạm Văn Đồng","pathPoints":"106.68548584,10.81739426 106.68676758,10.81805229 106.68809509,10.81863689","Address":"262, đường Phạm Văn Đồng, Quận Gò Vấp","Lat":10.818637,"Lng":106.688093},{"StationId":6849,"StationOrder":21,"StationDirection":1,"RouteId":70,"StationName":"Vòng xoay Lê Quang Định","pathPoints":"106.68809509,10.81863689 106.68892670,10.81896877 106.68977356,10.81925392 106.69079590,10.81954384","Address":"314, đường Phạm Văn Đồng, Quận Gò Vấp","Lat":10.819544,"Lng":106.690797},{"StationId":7148,"StationOrder":22,"StationDirection":1,"RouteId":70,"StationName":"Nút giao Phạm Văn Đồng - Phan Văn Trị","pathPoints":"106.69079590,10.81954384 106.69509125,10.82066631","Address":"380, đường Phạm Văn Đồng, Quận Bình Thạnh","Lat":10.820666,"Lng":106.695094},{"StationId":7149,"StationOrder":23,"StationDirection":1,"RouteId":70,"StationName":"Cầu Rạch Lăng","pathPoints":"106.69509125,10.82066631 106.69754791,10.82133007","Address":"332-334 (CS C63), đường Phạm Văn Đồng, Quận Bình Thạnh","Lat":10.82133,"Lng":106.697545},{"StationId":7150,"StationOrder":24,"StationDirection":1,"RouteId":70,"StationName":"Chung cư Cửu Long","pathPoints":"106.69754791,10.82133007 106.70064545,10.82213783","Address":"Chung cư Cửu Long, đường Phạm Văn Đồng, Quận Bình Thạnh","Lat":10.822138,"Lng":106.700648},{"StationId":7151,"StationOrder":25,"StationDirection":1,"RouteId":70,"StationName":"Cầu Bình Lợi","pathPoints":"106.70064545,10.82213783 106.70253754,10.82266808 106.70400238,10.82302094","Address":"Chung cư 548, đường Phạm Văn Đồng, Quận Bình Thạnh","Lat":10.823021,"Lng":106.704004},{"StationId":523,"StationOrder":26,"StationDirection":1,"RouteId":70,"StationName":"Ngã tư Bình Triệu","pathPoints":"106.70400238,10.82302094 106.70400238,10.82302094 106.71379089,10.82570839 106.71395111,10.82556629 106.71424103,10.82548714 106.71449280,10.82567120 106.71455383,10.82589817 106.71559906,10.82616711 106.71565247,10.82602978 106.71565247,10.82602978","Address":"54, đường Phạm Văn Đồng, Quận Thủ Đức","Lat":10.82603,"Lng":106.715655},{"StationId":524,"StationOrder":27,"StationDirection":1,"RouteId":70,"StationName":"Đường số 20","pathPoints":"106.71565247,10.82602978 106.71561432,10.82620335 106.71840668,10.82693577 106.71955109,10.82728863 106.72096252,10.82794762 106.72103119,10.82787800","Address":"Đối diện 216 - Gigamall , đường Phạm Văn Đồng, Quận Thủ Đức","Lat":10.827878,"Lng":106.721032},{"StationId":525,"StationOrder":28,"StationDirection":1,"RouteId":70,"StationName":"Chùa Ưu Đàm","pathPoints":"106.72103119,10.82787800 106.72096252,10.82794189 106.72208405,10.82866383 106.72341919,10.82968140 106.72470856,10.83071899 106.72476196,10.83067894","Address":"Khu dân cư Opal Tower, đường Phạm Văn Đồng, Quận Thủ Đức","Lat":10.830679,"Lng":106.72476},{"StationId":526,"StationOrder":29,"StationDirection":1,"RouteId":70,"StationName":"Cá sấu Hoa cà","pathPoints":"106.72476196,10.83067894 106.72472382,10.83071327 106.72650909,10.83217335 106.72827911,10.83365345 106.72833252,10.83360577","Address":"Đối diện Cá sấu Hoa Cà, đường Phạm Văn Đồng, Quận Thủ Đức","Lat":10.833606,"Lng":106.728331},{"StationId":527,"StationOrder":30,"StationDirection":1,"RouteId":70,"StationName":"THCS Ngô Chí Quốc","pathPoints":"106.72833252,10.83360577 106.72826385,10.83365917 106.73066711,10.83559227 106.73071289,10.83555031","Address":"412, đường Phạm Văn Đồng, Quận Thủ Đức","Lat":10.83555,"Lng":106.730713},{"StationId":528,"StationOrder":31,"StationDirection":1,"RouteId":70,"StationName":"Chùa An Lạc","pathPoints":"106.73071289,10.83555031 106.73071289,10.83555031 106.73063660,10.83562469 106.73264313,10.83718872 106.73323059,10.83754730 106.73329163,10.83748436 106.73329163,10.83748436","Address":"Chùa Ưu Đàm, đường Phạm Văn Đồng, Quận Thủ Đức","Lat":10.837484,"Lng":106.733288},{"StationId":529,"StationOrder":32,"StationDirection":1,"RouteId":70,"StationName":"Cầu Gò Dưa","pathPoints":"106.73329163,10.83748436 106.73324585,10.83755779 106.73413849,10.83802700 106.73509216,10.83846378 106.73678589,10.83899117 106.73862457,10.83942318 106.74046326,10.83987045 106.74050903,10.83977604","Address":"Trụ chiếu sáng C185, đường Phạm Văn Đồng, Quận Thủ Đức","Lat":10.839776,"Lng":106.740509},{"StationId":530,"StationOrder":33,"StationDirection":1,"RouteId":70,"StationName":"Đường 30","pathPoints":"106.74050903,10.83977604 106.74048615,10.83988094 106.74169159,10.84018135 106.74278259,10.84049797 106.74359131,10.84092999 106.74428558,10.84143543 106.74472809,10.84188366 106.74481964,10.84182072","Address":"1136, đường Phạm Văn Đồng, Quận Thủ Đức","Lat":10.841821,"Lng":106.744822},{"StationId":4463,"StationOrder":34,"StationDirection":1,"RouteId":70,"StationName":"Chùa Quan Âm","pathPoints":"106.74481964,10.84182072 106.74481964,10.84182072 106.74472046,10.84186745 106.74510956,10.84229946 106.74546814,10.84281635 106.74597168,10.84375381 106.74632263,10.84462833 106.74792480,10.84749985 106.74800873,10.84744740 106.74800873,10.84744740","Address":"Chùa Quan Âm, đường Phạm Văn Đồng, Quận Thủ Đức","Lat":10.847447,"Lng":106.748008},{"StationId":4470,"StationOrder":35,"StationDirection":1,"RouteId":70,"StationName":"Ngã tư Tô Ngọc Vân - Phạm Văn Đồng","pathPoints":"106.74800873,10.84744740 106.74790955,10.84748936 106.75031281,10.85164070 106.75041962,10.85159874","Address":"1216, đường Phạm Văn Đồng, Quận Thủ Đức","Lat":10.851599,"Lng":106.750422},{"StationId":4471,"StationOrder":36,"StationDirection":1,"RouteId":70,"StationName":"Đại học CSND","pathPoints":"106.75041962,10.85159874 106.75032806,10.85165119 106.75150299,10.85366440 106.75183105,10.85453320 106.75193024,10.85500717 106.75204468,10.85875893 106.75218201,10.85936451 106.75248718,10.85987568 106.75279999,10.86024952 106.75287628,10.86019230","Address":"1348 - 1350, đường Phạm Văn Đồng, Quận Thủ Đức","Lat":10.860192,"Lng":106.752879},{"StationId":4486,"StationOrder":37,"StationDirection":1,"RouteId":70,"StationName":"Đường số 9","pathPoints":"106.75287628,10.86019230 106.75280762,10.86023331 106.75471497,10.86240387 106.75551605,10.86303616 106.75563049,10.86289406","Address":"Cột chiếu sáng C270, đường Phạm Văn Đồng, Quận Thủ Đức","Lat":10.862894,"Lng":106.755631},{"StationId":4553,"StationOrder":38,"StationDirection":1,"RouteId":70,"StationName":"Ngã tư Bình Đường","pathPoints":"106.75563049,10.86289406 106.75553131,10.86304665 106.75637817,10.86354733 106.75883484,10.86483860 106.75889587,10.86472225","Address":"Ngã tư Bình Đường, đường Phạm Văn Đồng, Quận Thủ Đức","Lat":10.864722,"Lng":106.758898},{"StationId":4554,"StationOrder":39,"StationDirection":1,"RouteId":70,"StationName":"Nút giao Kha Vạn Cân - Phạm Văn Đồng","pathPoints":"106.75889587,10.86472225 106.75882721,10.86482811 106.76008606,10.86545944 106.76103210,10.86599731 106.76111603,10.86591434","Address":"Cột chiếu sáng C287, đường Phạm Văn Đồng, Quận Thủ Đức","Lat":10.865914,"Lng":106.761117},{"StationId":3383,"StationOrder":40,"StationDirection":1,"RouteId":70,"StationName":"Nhà hàng tiệc cưới Phố Đôi","pathPoints":"106.76111603,10.86591434 106.76105499,10.86601257 106.76153564,10.86626053 106.76189423,10.86659813 106.76228333,10.86707687 106.76265717,10.86770439 106.76330566,10.86883640 106.76339722,10.86878872","Address":"15/3, đường Kha Vạn Cân, Quận Thủ Đức","Lat":10.868789,"Lng":106.763399},{"StationId":3381,"StationOrder":41,"StationDirection":1,"RouteId":70,"StationName":"Trạm cầu vượt Linh Xuân","pathPoints":"106.76339722,10.86878872 106.76333618,10.86882591 106.76351166,10.86950588 106.76346588,10.87031174 106.76360321,10.87082767 106.76390076,10.87140751 106.76399994,10.87135029","Address":"1326-1328 (1129-1131), đường Kha Vạn Cân, Quận Thủ Đức","Lat":10.87135,"Lng":106.763999},{"StationId":2083,"StationOrder":42,"StationDirection":1,"RouteId":70,"StationName":"Vietcombank","pathPoints":"106.76399994,10.87135029 106.76390839,10.87140274 106.76423645,10.87191010 106.76442719,10.87213993 106.76470184,10.87254047 106.76484680,10.87287045 106.76499176,10.87318993 106.76542664,10.87304020 106.76715088,10.87246037 106.76750946,10.87240982 106.76898193,10.87191010 106.76965332,10.87168980 106.76964569,10.87159729","Address":"Ngân hàng Vietcombank, đường Quốc lộ 1, Quận Thủ Đức","Lat":10.871597,"Lng":106.769643},{"StationId":2084,"StationOrder":43,"StationDirection":1,"RouteId":70,"StationName":"Nghĩa trang TP","pathPoints":"106.76964569,10.87159729 106.76966858,10.87169170 106.77136993,10.87117577 106.77307129,10.87058067 106.77304077,10.87050724","Address":"Cổng nghĩa trang thành phố, đường Quốc lộ 1, Quận Thủ Đức","Lat":10.870507,"Lng":106.773039},{"StationId":1040,"StationOrder":44,"StationDirection":1,"RouteId":70,"StationName":"ĐH Kinh tế Luật","pathPoints":"106.77304077,10.87050724 106.77307129,10.87059975 106.77671051,10.86938477 106.77672577,10.86930561","Address":"Đối diện 665-CoopXtra, đường Quốc lộ 1, Quận Thủ Đức","Lat":10.869306,"Lng":106.776724},{"StationId":1041,"StationOrder":45,"StationDirection":1,"RouteId":70,"StationName":"Công ty điện tử Samsung","pathPoints":"106.77672577,10.86930561 106.77672577,10.86930561 106.77677917,10.86936855 106.77867889,10.86874962 106.77865601,10.86869144 106.77865601,10.86869144","Address":"Công ty điện tử Samsung, đường Quốc lộ 1, Quận Thủ Đức","Lat":10.868691,"Lng":106.778656},{"StationId":1042,"StationOrder":46,"StationDirection":1,"RouteId":70,"StationName":"ĐH Nông Lâm","pathPoints":"106.77865601,10.86869144 106.77868652,10.86876297 106.78066254,10.86810970 106.78269958,10.86749840 106.78456879,10.86726665 106.78724670,10.86720371 106.78727722,10.86712170","Address":"Cột điện SI 2, đường Quốc lộ 1, Quận Thủ Đức","Lat":10.867122,"Lng":106.787277},{"StationId":396,"StationOrder":47,"StationDirection":1,"RouteId":70,"StationName":"ĐH Nông Lâm","pathPoints":"106.78727722,10.86717987 106.78822327,10.86713028 106.78961182,10.86707020 106.79029846,10.86695957","Address":"1026/2 (1030), đường Quốc lộ 1, Quận Thủ Đức","Lat":10.866912,"Lng":106.790283},{"StationId":6845,"StationOrder":48,"StationDirection":1,"RouteId":70,"StationName":"Đầu bến Đại học Bách Khoa - Cơ sở 2","pathPoints":"106.79028320,10.86691189 106.79028320,10.86691189 106.79028320,10.86691189 106.79028320,10.86691189 106.79028320,10.86691189 106.79032135,10.86696148 106.79111481,10.86672401 106.79194641,10.86636066 106.79283905,10.86575985 106.79351807,10.86524868 106.79421234,10.86444855 106.79593658,10.86171436 106.79693604,10.86037636 106.79813385,10.85920143 106.79831696,10.85933781 106.79671478,10.86083412 106.79561615,10.86254692 106.79438019,10.86448002 106.79391479,10.86503792 106.79342651,10.86555958 106.79280090,10.86606598 106.79273224,10.86620808 106.79273987,10.86635017 106.79279327,10.86647129 106.79288483,10.86658192 106.79466248,10.86664009 106.79503632,10.86767292 106.79517365,10.86814117 106.79529572,10.86861038 106.79531097,10.86906338 106.79531860,10.86952209 106.79531860,10.87026405 106.79536438,10.87039089 106.79547882,10.87050152 106.79570007,10.87053871 106.79666138,10.87047005 106.79760742,10.87035370 106.79783630,10.87125492 106.79822540,10.87199783 106.79818726,10.87210846 106.79792023,10.87234497 106.79779053,10.87253475 106.79769135,10.87273026 106.79772186,10.87291431 106.79778290,10.87308311 106.79792023,10.87344074 106.79824829,10.87404156 106.79848480,10.87441063 106.79869843,10.87477398 106.79889679,10.87514305 106.79907990,10.87550640 106.79968262,10.87531090 106.80001831,10.87562752 106.80037689,10.87576962 106.80074310,10.87582207 106.80075073,10.87631702 106.80182648,10.87652779 106.80328369,10.87647533 106.80251312,10.87860394 106.80479431,10.88209152 106.80641937,10.88103199 106.80638123,10.88093185 106.80638123,10.88093185 106.80638123,10.88093185 106.80638123,10.88093185 106.80638123,10.88093185","Address":"Đại học Bách Khoa, đường Đại học Bách Khoa, Quận Thủ Đức","Lat":10.880932,"Lng":106.806378}]