[{"StationId":7216,"StationOrder":0,"StationDirection":0,"RouteId":85,"StationName":"Bến xe Tân Đông Hiệp","pathPoints":"","Address":"Bến xe Dĩ An - Tân Đông Hiệp, đường ĐT43C, Ngoại thành","Lat":10.930015,"Lng":106.743188},{"StationId":334,"StationOrder":1,"StationDirection":0,"RouteId":85,"StationName":"Big C","pathPoints":"106.74318695,10.93001461 106.74192047,10.93006802 106.74123383,10.91957569 106.74064636,10.90857220 106.74496460,10.90969944 106.74583435,10.90904045 106.74675751,10.90839291 106.74729919,10.90808773 106.74759674,10.90800285 106.74788666,10.90799236 106.74826813,10.90800285 106.74947357,10.90817165 106.75310516,10.90805626 106.75580597,10.90799809 106.75910187,10.90792370 106.76239777,10.90782928 106.76626587,10.90771389 106.76658630,10.90761852 106.76850891,10.90626526 106.76879883,10.90672302 106.76939392,10.90652275 106.77117920,10.90517426 106.77332306,10.90280437 106.77593994,10.90148735 106.77627563,10.90126610 106.77748871,10.90046501 106.78047943,10.89986515 106.78076935,10.89965439 106.78189850,10.89809513 106.78220367,10.89792633 106.78354645,10.89748383 106.78388214,10.89692497 106.78411865,10.89345932 106.78457642,10.89221573 106.78462219,10.89081478 106.78407288,10.89080429 106.77792358,10.88922405 106.77623749,10.88845444 106.77458191,10.88734913","Address":"Kế 251, đường Quốc lộ 1K, Quận Thủ Đức","Lat":10.887349,"Lng":106.774583},{"StationId":335,"StationOrder":2,"StationDirection":0,"RouteId":85,"StationName":"Chùa Từ Quang","pathPoints":"106.77468109,10.88729954 106.77378082,10.88665009 106.77317047,10.88621044 106.77294922,10.88603020 106.77266693,10.88566971 106.77237701,10.88539028","Address":"231, đường Quốc lộ 1K, Quận Thủ Đức","Lat":10.885494,"Lng":106.772271},{"StationId":336,"StationOrder":3,"StationDirection":0,"RouteId":85,"StationName":"Đường số 8","pathPoints":"106.77237701,10.88539028 106.77200317,10.88502979 106.77159882,10.88457012 106.77041626,10.88317966 106.76947021,10.88206005","Address":"167, đường Quốc lộ 1K, Quận Thủ Đức","Lat":10.882096,"Lng":106.769396},{"StationId":338,"StationOrder":4,"StationDirection":0,"RouteId":85,"StationName":"Thành thất Cao Đài Linh Xuân","pathPoints":"106.76947021,10.88206005 106.76885223,10.88131046 106.76851654,10.88090992 106.76846313,10.88080025 106.76814270,10.88039970 106.76802063,10.88031960 106.76779175,10.88004971","Address":"Thành thất Cao Đài Linh Xuân, đường Quốc lộ 1K, Quận Thủ Đức","Lat":10.880158,"Lng":106.767744},{"StationId":337,"StationOrder":5,"StationDirection":0,"RouteId":85,"StationName":"Chợ Linh Xuân","pathPoints":"106.76779175,10.88004971 106.76734161,10.87956047 106.76692200,10.87905979 106.76679993,10.87889004 106.76667023,10.87862015 106.76653290,10.87810993 106.76647186,10.87761021","Address":"Chợ Linh Xuân, đường Quốc lộ 1K, Quận Thủ Đức","Lat":10.877611,"Lng":106.766403},{"StationId":340,"StationOrder":6,"StationDirection":0,"RouteId":85,"StationName":"Cầu vượt Linh Xuân","pathPoints":"106.76647186,10.87761021 106.76644135,10.87705040 106.76634216,10.87662029 106.76603699,10.87584972 106.76558685,10.87473965 106.76557922,10.87460995 106.76542664,10.87425041","Address":"13-15, đường Quốc lộ 1K, Quận Thủ Đức","Lat":10.874279,"Lng":106.765366},{"StationId":3385,"StationOrder":7,"StationDirection":0,"RouteId":85,"StationName":"Trạm cầu vượt Linh Xuân","pathPoints":"106.76542664,10.87425041 106.76502991,10.87331009 106.76483154,10.87287045 106.76460266,10.87244034 106.76435089,10.87207985","Address":"1123, đường Kha Vạn Cân, Quận Thủ Đức","Lat":10.871423,"Lng":106.76371},{"StationId":4555,"StationOrder":8,"StationDirection":0,"RouteId":85,"StationName":"Nhà hàng tiệc cưới Phố Đôi","pathPoints":"106.76371002,10.87142277 106.76243591,10.86772537","Address":"Trụ chiếu sáng A324, đường Kha Vạn Cân, Quận Thủ Đức","Lat":10.867725,"Lng":106.762438},{"StationId":3387,"StationOrder":9,"StationDirection":0,"RouteId":85,"StationName":"UBND phường Linh Trung","pathPoints":"106.76243591,10.86772537 106.76119995,10.86426353","Address":"1250 (979), đường Kha Vạn Cân, Quận Thủ Đức","Lat":10.864264,"Lng":106.761199},{"StationId":3386,"StationOrder":10,"StationDirection":0,"RouteId":85,"StationName":"Ngã ba Hoàng Diệu II","pathPoints":"106.76110077,10.86388016 106.76098633,10.86363029 106.76090240,10.86326027 106.76090240,10.86297989 106.76097870,10.86252022 106.76103210,10.86233044 106.76106262,10.86205006 106.76103973,10.86145020 106.76091003,10.86087990 106.76081085,10.86069965","Address":"941, đường Kha Vạn Cân, Quận Thủ Đức","Lat":10.860581,"Lng":106.760663},{"StationId":3388,"StationOrder":11,"StationDirection":0,"RouteId":85,"StationName":"Phòng khám đa khoa Á Châu","pathPoints":"106.76066589,10.86058140 106.76065826,10.86044979 106.76035309,10.86005020 106.75959778,10.85945415 106.75924683,10.85898018 106.75871277,10.85837364 106.75860596,10.85841084","Address":"895, đường Kha Vạn Cân, Quận Thủ Đức","Lat":10.858411,"Lng":106.758603},{"StationId":3389,"StationOrder":12,"StationDirection":0,"RouteId":85,"StationName":"Ngã ba Chương Dương","pathPoints":"106.75860596,10.85841084 106.75865173,10.85834789 106.75833893,10.85809994 106.75819397,10.85804749 106.75762939,10.85787868 106.75730133,10.85764980 106.75717926,10.85746765 106.75685883,10.85674953 106.75621796,10.85595036 106.75610352,10.85595608","Address":"783-785, đường Kha Vạn Cân, Quận Thủ Đức","Lat":10.855956,"Lng":106.756103},{"StationId":3391,"StationOrder":13,"StationDirection":0,"RouteId":85,"StationName":"Trường TH Nguyễn Trung Trực","pathPoints":"106.75610352,10.85595608 106.75617981,10.85591888 106.75565338,10.85534954 106.75509644,10.85448551 106.75470734,10.85359955 106.75463104,10.85319042 106.75464630,10.85283184 106.75470734,10.85245037 106.75482178,10.85209942 106.75482941,10.85171032 106.75476074,10.85161495","Address":"719-721, đường Kha Vạn Cân, Quận Thủ Đức","Lat":10.851615,"Lng":106.754757},{"StationId":6983,"StationOrder":14,"StationDirection":0,"RouteId":85,"StationName":"Bãi xe Phường Bình Thọ","pathPoints":"106.75476074,10.85161495 106.75484467,10.85161495 106.75487518,10.85107708 106.75497437,10.85106659 106.75506592,10.85114002 106.75598907,10.85110855 106.75643921,10.85115623 106.75648499,10.85106659","Address":"Bãi xe Phường Bình Thọ, đường Võ Văn Ngân, Quận Thủ Đức","Lat":10.851067,"Lng":106.756484},{"StationId":493,"StationOrder":15,"StationDirection":0,"RouteId":85,"StationName":"Ngã ba Chương Dương","pathPoints":"106.75648499,10.85106659 106.75650787,10.85119343 106.75706482,10.85124016 106.75806427,10.85095596 106.75867462,10.85061836 106.76093292,10.85041904","Address":"120, đường Võ Văn Ngân, Quận Thủ Đức","Lat":10.850419,"Lng":106.760931},{"StationId":490,"StationOrder":16,"StationDirection":0,"RouteId":85,"StationName":"Cao đẳng xây dựng 2","pathPoints":"106.76093292,10.85041904 106.76194763,10.85044479 106.76213074,10.85049248 106.76226807,10.85057163 106.76251221,10.85069275 106.76271820,10.85082436 106.76293182,10.85084534 106.76444244,10.85064983 106.76444244,10.85064983","Address":"190, đường Võ Văn Ngân, Quận Thủ Đức","Lat":10.85065,"Lng":106.764439},{"StationId":492,"StationOrder":17,"StationDirection":0,"RouteId":85,"StationName":"Siêu thị Nguyễn Kim","pathPoints":"106.76444244,10.85064983 106.76705170,10.85042381 106.76720428,10.85037136 106.76731873,10.85028648 106.76765442,10.84988117 106.76774597,10.84980774 106.76821899,10.84971809 106.76911163,10.84968567","Address":"275-274, đường Võ Văn Ngân, Quận Thủ Đức","Lat":10.849686,"Lng":106.769112},{"StationId":497,"StationOrder":18,"StationDirection":0,"RouteId":85,"StationName":"Trường ĐHSP Kỹ Thuật","pathPoints":"106.76911163,10.84968567 106.76909637,10.84974003 106.77034760,10.84969711 106.77155304,10.84966564 106.77178955,10.84963322 106.77191925,10.84959698","Address":"366-368, đường Võ Văn Ngân, Quận Thủ Đức","Lat":10.849597,"Lng":106.771917},{"StationId":1502,"StationOrder":19,"StationDirection":0,"RouteId":85,"StationName":"Siêu thị Coopmart","pathPoints":"106.77191925,10.84959698 106.77191925,10.84959698 106.77191925,10.84959698 106.77331543,10.84953308 106.77374268,10.84926987 106.77503204,10.84819221 106.77503204,10.84819221 106.77503204,10.84819221","Address":"4-6, đường Lê Văn Việt, Quận 9","Lat":10.848192,"Lng":106.775032},{"StationId":1504,"StationOrder":20,"StationDirection":0,"RouteId":85,"StationName":"Bệnh viện 7C-Trường Quân y 2","pathPoints":"106.77503204,10.84819221 106.77578735,10.84763718 106.77704620,10.84693050 106.77812195,10.84626198","Address":"50, đường Lê Văn Việt, Quận 9","Lat":10.846262,"Lng":106.778124},{"StationId":1495,"StationOrder":21,"StationDirection":0,"RouteId":85,"StationName":"Nhà sách Thành Nghĩa","pathPoints":"106.77812195,10.84626198 106.77872467,10.84596634 106.77935028,10.84560299 106.78007507,10.84519768 106.78056335,10.84486008","Address":"142-144, đường Lê Văn Việt, Quận 9","Lat":10.84486,"Lng":106.780563},{"StationId":1497,"StationOrder":22,"StationDirection":0,"RouteId":85,"StationName":"Trạm y tế Phường Hiệp Phú","pathPoints":"106.78056335,10.84486008 106.78083801,10.84472847 106.78125000,10.84444427 106.78202820,10.84411430","Address":"192-194 (188), đường Lê Văn Việt, Quận 9","Lat":10.844114,"Lng":106.782028},{"StationId":1499,"StationOrder":23,"StationDirection":0,"RouteId":85,"StationName":"Chợ Hiệp Phú","pathPoints":"106.78202820,10.84411430 106.78250122,10.84399605 106.78273773,10.84397507 106.78426361,10.84412766","Address":"(278) 284, đường Lê Văn Việt, Quận 9","Lat":10.844128,"Lng":106.784261},{"StationId":1506,"StationOrder":24,"StationDirection":0,"RouteId":85,"StationName":"Chợ Tăng Nhơn Phú","pathPoints":"106.78426361,10.84412766 106.78539276,10.84439659 106.78614044,10.84486008 106.78636932,10.84500217 106.78668213,10.84509754 106.78742218,10.84511852 106.78823853,10.84476566 106.78865814,10.84458065 106.78894043,10.84443855","Address":"424A-424B, đường Lê Văn Việt, Quận 9","Lat":10.844439,"Lng":106.788939},{"StationId":1501,"StationOrder":25,"StationDirection":0,"RouteId":85,"StationName":"Bệnh viện Quận 9","pathPoints":"106.78894043,10.84443855 106.78928375,10.84434891 106.78955078,10.84431744 106.79040527,10.84450722 106.79097748,10.84459972","Address":"Đối diện Bệnh viện Quận 9, đường Lê Văn Việt, Quận 9","Lat":10.8446,"Lng":106.790977},{"StationId":1508,"StationOrder":26,"StationDirection":0,"RouteId":85,"StationName":"Đại Học GTVT","pathPoints":"106.79097748,10.84459972 106.79285431,10.84507656 106.79392242,10.84527588","Address":"Đối diện 451, đường Lê Văn Việt, Quận 9","Lat":10.845276,"Lng":106.793922},{"StationId":1503,"StationOrder":27,"StationDirection":0,"RouteId":85,"StationName":"Chung cư C7","pathPoints":"106.79392242,10.84527588 106.79383087,10.84531975 106.79777527,10.84622478 106.79980469,10.84673595","Address":"Kế 482 (498), đường Lê Văn Việt, Quận 9","Lat":10.846736,"Lng":106.799807},{"StationId":3390,"StationOrder":28,"StationDirection":0,"RouteId":85,"StationName":"Công Ty FILIED","pathPoints":"106.79980469,10.84673595 106.80094910,10.84712982 106.80248260,10.84747982 106.80499268,10.84809971 106.80644989,10.84844017 106.80773163,10.84873009 106.80776978,10.84860611","Address":"Công ty Filied, đường Lê Văn Việt, Quận 9","Lat":10.848606,"Lng":106.807773},{"StationId":3395,"StationOrder":29,"StationDirection":0,"RouteId":85,"StationName":"Ngã ba Mỹ Thành","pathPoints":"106.80773163,10.84873009 106.80931854,10.84914017 106.81231689,10.84984016 106.81273651,10.84996033","Address":"582 (570A), đường Lê Văn Việt, Quận 9","Lat":10.849865,"Lng":106.812826},{"StationId":4131,"StationOrder":30,"StationDirection":0,"RouteId":85,"StationName":"Ngã ba Mỹ Thành","pathPoints":"106.81282806,10.84986496 106.81277466,10.84993935 106.81360626,10.85007095 106.81383514,10.84998131 106.81459808,10.84894848 106.81453705,10.84891224","Address":"9 - 11, đường Nguyễn Văn Tăng, Quận 9","Lat":10.849007,"Lng":106.814682},{"StationId":3392,"StationOrder":31,"StationDirection":0,"RouteId":85,"StationName":"Trường THPT Nguyễn Huệ","pathPoints":"106.81453705,10.84891224 106.81796265,10.84443378","Address":"174, đường Nguyễn Văn Tăng, Quận 9","Lat":10.844434,"Lng":106.817963},{"StationId":3396,"StationOrder":32,"StationDirection":0,"RouteId":85,"StationName":"UBND phường Long Thạnh Mỹ","pathPoints":"106.81800079,10.84445953 106.81864166,10.84360027 106.81880188,10.84344006 106.81926727,10.84307957 106.82083130,10.84202957 106.82164764,10.84148979 106.82179260,10.84144974 106.82209778,10.84142971 106.82218933,10.84142017","Address":"354, đường Nguyễn Văn Tăng, Quận 9","Lat":10.841062,"Lng":106.824231},{"StationId":3393,"StationOrder":33,"StationDirection":0,"RouteId":85,"StationName":"Chợ Gò Công","pathPoints":"106.82218933,10.84142017 106.82263184,10.84138966 106.82317352,10.84134960 106.82350922,10.84130001 106.82504272,10.84115982 106.82599640,10.84103012 106.82627869,10.84101963 106.82643127,10.84105015 106.82669830,10.84113979 106.82678986,10.84119034 106.82717133,10.84150982 106.82742310,10.84175014","Address":"462 - 464, đường Nguyễn Văn Tăng, Quận 9","Lat":10.842184,"Lng":106.828067},{"StationId":4229,"StationOrder":34,"StationDirection":0,"RouteId":85,"StationName":"Trạm nước sạch Long Bình","pathPoints":"106.82746124,10.84170437 106.82893372,10.84296894","Address":"Trạm nước sạch Long Bình, đường Nguyễn Văn Tăng, Quận Thủ Đức","Lat":10.842969,"Lng":106.828936},{"StationId":3397,"StationOrder":35,"StationDirection":0,"RouteId":85,"StationName":"Đình Long Hòa","pathPoints":"106.82893372,10.84296894 106.82951355,10.84393311","Address":"Kế 694 (688), đường Nguyễn Xiển, Quận 9","Lat":10.84613,"Lng":106.830604},{"StationId":3394,"StationOrder":36,"StationDirection":0,"RouteId":85,"StationName":"Trường THCS Hưng Bình","pathPoints":"106.82942963,10.84397030 106.82991791,10.84506989 106.83033752,10.84593010 106.83114624,10.84764004 106.83136749,10.84811020 106.83146667,10.84838963 106.83194733,10.84943008","Address":"778, đường Nguyễn Xiển, Quận 9","Lat":10.849481,"Lng":106.83217},{"StationId":3399,"StationOrder":37,"StationDirection":0,"RouteId":85,"StationName":"Nghĩa trang Phúc An Viên","pathPoints":"106.83194733,10.84943008 106.83332062,10.85254002","Address":"926-928, đường Nguyễn Văn Tăng, Quận 9","Lat":10.853764,"Lng":106.833984},{"StationId":3398,"StationOrder":38,"StationDirection":0,"RouteId":85,"StationName":"Sân banh Long Bửu","pathPoints":"106.83332062,10.85254002 106.83483887,10.85591984","Address":"Sân banh Long Bửu, đường Nguyễn Xiển, Quận 9","Lat":10.861092,"Lng":106.837202},{"StationId":3400,"StationOrder":39,"StationDirection":0,"RouteId":85,"StationName":"Ủy ban nhân dân Phường Long Bình","pathPoints":"106.83551788,10.85692978 106.83535767,10.85693073 106.83605957,10.85863018 106.83625031,10.85858536","Address":"Bưu điện Long Bình, đường Nguyễn Xiển, Quận 9","Lat":10.867752,"Lng":106.838715},{"StationId":3402,"StationOrder":40,"StationDirection":0,"RouteId":85,"StationName":"Chùa Bửu Long","pathPoints":"106.83605957,10.85863018 106.83690643,10.86052990 106.83725739,10.86176014 106.83756256,10.86328030","Address":"Kế cổng vào chùa Bửu Long, đường Nguyễn Xiển, Quận 9","Lat":10.87892,"Lng":106.837063},{"StationId":3401,"StationOrder":41,"StationDirection":0,"RouteId":85,"StationName":"Giáo xứ Long Bình","pathPoints":"106.83756256,10.86328030 106.83876801,10.86859035 106.83891296,10.86915016","Address":"1328, đường Nguyễn Xiển, Quận 9","Lat":10.889382,"Lng":106.834166},{"StationId":3364,"StationOrder":42,"StationDirection":0,"RouteId":85,"StationName":"Khu Tái định cư Long Sơn","pathPoints":"106.83896637,10.86913967 106.83891296,10.86915016 106.83905792,10.86981010 106.83921051,10.87012959 106.83943176,10.87045956 106.84085846,10.87279797 106.84077454,10.87344074 106.84035492,10.87421036 106.83724213,10.87897301 106.83665466,10.88013172 106.83578491,10.88161755 106.83477020,10.88310242 106.83438110,10.88690567 106.83387756,10.89098358 106.83185577,10.89059353 106.83187103,10.89037228","Address":"Khu Tái định cư Long Sơn, đường Nguyễn Xiển, Quận 9","Lat":10.890372,"Lng":106.83187},{"StationId":3364,"StationOrder":0,"StationDirection":1,"RouteId":85,"StationName":"Khu Tái định cư Long Sơn","pathPoints":"","Address":"Khu Tái định cư Long Sơn, đường Nguyễn Xiển, Quận 9","Lat":10.890372,"Lng":106.83187},{"StationId":3363,"StationOrder":1,"StationDirection":1,"RouteId":85,"StationName":"Giáo xứ Long Bình","pathPoints":"106.83187103,10.89037228 106.83184052,10.89050961 106.83383179,10.89083099 106.83444214,10.88497829 106.83459473,10.88321877 106.83570099,10.88146973 106.83617401,10.88064766 106.83860779,10.87669659 106.84060669,10.87353611 106.84071350,10.87331486 106.84074402,10.87278748 106.83888245,10.86932945","Address":"1245 - 1247, đường Nguyễn Xiển, Quận 9","Lat":10.888834,"Lng":106.833866},{"StationId":3365,"StationOrder":2,"StationDirection":1,"RouteId":85,"StationName":"Chùa Bửu Long","pathPoints":"106.83895111,10.86931992 106.83780670,10.86441994 106.83762360,10.86353970","Address":"Cây xanh 177 (Đối diện lối vào Chùa Bửu Long), đường Nguyễn Xiển, Quận 9","Lat":10.878772,"Lng":106.837417},{"StationId":3366,"StationOrder":3,"StationDirection":1,"RouteId":85,"StationName":"Ủy ban nhân dân Phường Long Bình","pathPoints":"106.83762360,10.86353970 106.83725739,10.86176014 106.83690643,10.86052990 106.83640289,10.85939026","Address":"1129A, đường Nguyễn Xiển, Quận 9","Lat":10.867446,"Lng":106.838447},{"StationId":3368,"StationOrder":4,"StationDirection":1,"RouteId":85,"StationName":"Sân banh Long Bửu","pathPoints":"106.83640289,10.85939026 106.83499146,10.85624027","Address":"1043 - 1045, đường Nguyễn Xiển, Quận 9","Lat":10.860861,"Lng":106.83688},{"StationId":3369,"StationOrder":5,"StationDirection":1,"RouteId":85,"StationName":"Nghĩa trang Phúc An Viên","pathPoints":"106.83499146,10.85624027 106.83361053,10.85319042","Address":"965 - 965A, đường Nguyễn Xiển, Quận 9","Lat":10.853209,"Lng":106.833557},{"StationId":3367,"StationOrder":6,"StationDirection":1,"RouteId":85,"StationName":"Trường THCS Hưng Bình","pathPoints":"106.83361053,10.85319042 106.83165741,10.84879017","Address":"821 - 823, đường Nguyễn Xiển, Quận 9","Lat":10.849228,"Lng":106.831843},{"StationId":3370,"StationOrder":7,"StationDirection":1,"RouteId":85,"StationName":"Đình Long Hòa","pathPoints":"106.83165741,10.84879017 106.83146667,10.84838963 106.83136749,10.84811020 106.83106995,10.84747028 106.83014679,10.84554958 106.82974243,10.84467030","Address":"767, đường Nguyễn Xiển, Quận 9","Lat":10.846889,"Lng":106.830711},{"StationId":3372,"StationOrder":8,"StationDirection":1,"RouteId":85,"StationName":"Chợ Gò Công","pathPoints":"106.82974243,10.84467030 106.82933044,10.84372997 106.82913971,10.84335995 106.82891846,10.84305954 106.82869720,10.84280014 106.82814789,10.84241962 106.82788086,10.84214020 106.82749939,10.84181023 106.82711792,10.84146976","Address":"445 - 447, đường Nguyễn Văn Tăng, Quận 9","Lat":10.842052,"Lng":106.827632},{"StationId":3373,"StationOrder":9,"StationDirection":1,"RouteId":85,"StationName":"UBND phường Long Thạnh Mỹ","pathPoints":"106.82711792,10.84146976 106.82678986,10.84119034 106.82669830,10.84113979 106.82643127,10.84105015 106.82627869,10.84101963 106.82599640,10.84103012 106.82504272,10.84115982 106.82350922,10.84130001 106.82317352,10.84134960 106.82286072,10.84138012","Address":"367A, đường Nguyễn Văn Tăng, Quận 9","Lat":10.841209,"Lng":106.825433},{"StationId":3375,"StationOrder":10,"StationDirection":1,"RouteId":85,"StationName":"Trường Nguyễn Huệ","pathPoints":"106.82286072,10.84138012 106.82179260,10.84144974 106.82164764,10.84148979 106.82144165,10.84162998 106.82122803,10.84177017 106.82006836,10.84255028 106.81926727,10.84307957 106.81880188,10.84344006 106.81848145,10.84381962 106.81829834,10.84405994","Address":"161-163 (159), đường Nguyễn Văn Tăng, Quận 9","Lat":10.844096,"Lng":106.818352},{"StationId":3374,"StationOrder":11,"StationDirection":1,"RouteId":85,"StationName":"Ngã ba Mỹ Thành","pathPoints":"106.81835175,10.84409618 106.81835175,10.84409618 106.81610107,10.84707832 106.81460571,10.84904861 106.81368256,10.85025501 106.81295776,10.85007095 106.81295776,10.85007095","Address":"687-689, đường Lê Văn Việt, Quận 9","Lat":10.850071,"Lng":106.812958},{"StationId":3377,"StationOrder":12,"StationDirection":1,"RouteId":85,"StationName":"Công Ty FILIED","pathPoints":"106.81295776,10.85007095 106.80735779,10.84873772","Address":"Đối diện công ty Filied, đường Lê Văn Việt, Quận 9","Lat":10.848738,"Lng":106.807355},{"StationId":1533,"StationOrder":13,"StationDirection":1,"RouteId":85,"StationName":"Chung cư C7","pathPoints":"106.80735779,10.84873772 106.80135345,10.84733105","Address":"Chung cư C7 (Đối diện 504), đường Lê Văn Việt, Quận 9","Lat":10.846957,"Lng":106.800048},{"StationId":1530,"StationOrder":14,"StationDirection":1,"RouteId":85,"StationName":"Đại Học GTVT","pathPoints":"106.79815674,10.84650421 106.79631805,10.84601402 106.79441833,10.84556580","Address":"Trung tâm thông tin thư viện, đường Lê Văn Việt, Quận 9","Lat":10.845566,"Lng":106.794421},{"StationId":1535,"StationOrder":15,"StationDirection":1,"RouteId":85,"StationName":"Bệnh viện Quận 9","pathPoints":"106.79441833,10.84556580 106.79441833,10.84556580 106.79444122,10.84549809 106.79371643,10.84529781 106.79328156,10.84514999 106.79177094,10.84484959 106.79036713,10.84450245 106.79035187,10.84460735 106.79035187,10.84460735","Address":"99, đường Lê Văn Việt, Quận 9","Lat":10.844607,"Lng":106.790349},{"StationId":1532,"StationOrder":16,"StationDirection":1,"RouteId":85,"StationName":"Chợ Tăng Nhơn Phú B","pathPoints":"106.79035187,10.84460735 106.79035187,10.84460735 106.79038239,10.84451294 106.78974152,10.84435940 106.78933716,10.84444904 106.78823090,10.84483433 106.78820801,10.84492302 106.78820801,10.84492302","Address":"Đối diện chợ Tăng Nhơn Phú, đường Lê Văn Việt, Quận 9","Lat":10.844923,"Lng":106.788209},{"StationId":1537,"StationOrder":17,"StationDirection":1,"RouteId":85,"StationName":"Chợ Hiệp Phú","pathPoints":"106.78820801,10.84492302 106.78745270,10.84520817 106.78723145,10.84524441 106.78696442,10.84523392 106.78661346,10.84517670 106.78626251,10.84506035 106.78587341,10.84481812 106.78538513,10.84450245 106.78473663,10.84436989 106.78408051,10.84426975","Address":"241-243 (249), đường Lê Văn Việt, Quận 9","Lat":10.84427,"Lng":106.784084},{"StationId":1534,"StationOrder":18,"StationDirection":1,"RouteId":85,"StationName":"Trạm y tế Phường Hiệp Phú","pathPoints":"106.78408051,10.84426975 106.78408051,10.84426975 106.78408051,10.84421730 106.78315735,10.84403324 106.78300476,10.84407043 106.78250122,10.84402752 106.78172302,10.84438133 106.78172302,10.84438133","Address":"189-191, đường Lê Văn Việt, Quận 9","Lat":10.844381,"Lng":106.781723},{"StationId":1536,"StationOrder":19,"StationDirection":1,"RouteId":85,"StationName":"Nhà sách Thành Nghĩa","pathPoints":"106.78172302,10.84438133 106.78146362,10.84446526 106.78127289,10.84455490 106.78038025,10.84517574","Address":"Đối diện 140-142, đường Lê Văn Việt, Quận 9","Lat":10.845176,"Lng":106.780377},{"StationId":1539,"StationOrder":20,"StationDirection":1,"RouteId":85,"StationName":"Bệnh viện 7C-Trường Quân y 2","pathPoints":"106.78038025,10.84517574 106.78038025,10.84517574 106.77896118,10.84595585 106.77751160,10.84679890 106.77751160,10.84679890","Address":"91-93-95, đường Lê Văn Việt, Quận 9","Lat":10.846799,"Lng":106.777512},{"StationId":1538,"StationOrder":21,"StationDirection":1,"RouteId":85,"StationName":"Siêu thị Coopmart","pathPoints":"106.77751160,10.84679890 106.77751160,10.84679890 106.77751160,10.84679890 106.77685547,10.84716225 106.77619171,10.84755802 106.77581787,10.84774208 106.77528381,10.84809017 106.77497864,10.84833717 106.77504730,10.84841061 106.77504730,10.84841061 106.77504730,10.84841061","Address":"21 (17-19), đường Lê Văn Việt, Quận 9","Lat":10.848411,"Lng":106.775045},{"StationId":402,"StationOrder":22,"StationDirection":1,"RouteId":85,"StationName":"Siêu thị Nguyễn Kim","pathPoints":"106.77504730,10.84841061 106.77504730,10.84841061 106.77504730,10.84841061 106.77492523,10.84835815 106.77420044,10.84904385 106.77390289,10.84934425 106.77339172,10.84967613 106.76883698,10.84980488 106.76883698,10.84980488 106.76883698,10.84980488","Address":"307 (312), đường Võ Văn Ngân, Quận Thủ Đức","Lat":10.849805,"Lng":106.768837},{"StationId":403,"StationOrder":23,"StationDirection":1,"RouteId":85,"StationName":"Nhà thiếu nhi Thủ Đức","pathPoints":"106.76883698,10.84980488 106.76883698,10.84980488 106.76853943,10.84981823 106.76824188,10.84981823 106.76798248,10.84984970 106.76776886,10.84990788 106.76754761,10.85013390 106.76741028,10.85036087 106.76727295,10.85047626 106.76709747,10.85051346 106.76679230,10.85055637 106.76679230,10.85055637","Address":"Nhà thiếu nhi, đường Võ Văn Ngân, Quận Thủ Đức","Lat":10.850556,"Lng":106.766794},{"StationId":404,"StationOrder":24,"StationDirection":1,"RouteId":85,"StationName":"Cao đẳng xây dựng 2","pathPoints":"106.76679230,10.85055637 106.76409912,10.85080814","Address":"233 (253), đường Võ Văn Ngân, Quận Thủ Đức","Lat":10.850808,"Lng":106.764101},{"StationId":405,"StationOrder":25,"StationDirection":1,"RouteId":85,"StationName":"Ngã ba Chương Dương","pathPoints":"106.76409912,10.85080814 106.76409912,10.85080814 106.76274109,10.85090351 106.76207733,10.85053444 106.76138306,10.85048676 106.76019287,10.85058212 106.76020050,10.85064507 106.76020050,10.85064507","Address":"Đối diện 100, đường Võ Văn Ngân, Quận Thủ Đức","Lat":10.850645,"Lng":106.760201},{"StationId":3376,"StationOrder":26,"StationDirection":1,"RouteId":85,"StationName":"Trường TH Nguyễn Trung Trực","pathPoints":"106.76020050,10.85064507 106.76021576,10.85057640 106.75943756,10.85063457 106.75867462,10.85062408 106.75839996,10.85082436 106.75804901,10.85102463 106.75759125,10.85116100 106.75708771,10.85128307 106.75601196,10.85116673 106.75555420,10.85118294 106.75497437,10.85123539 106.75484467,10.85206509","Address":"962 (105), đường Kha Vạn Cân, Quận Thủ Đức","Lat":10.852065,"Lng":106.754845},{"StationId":3378,"StationOrder":27,"StationDirection":1,"RouteId":85,"StationName":"Ngã ba Chương Dương","pathPoints":"106.75484467,10.85206509 106.75468445,10.85292625 106.75472260,10.85336876 106.75511169,10.85447025 106.75598907,10.85566998 106.75627136,10.85595989 106.75640869,10.85612965 106.75656128,10.85636997 106.75661469,10.85633278","Address":"1040-1046 (785), đường Kha Vạn Cân, Quận Thủ Đức","Lat":10.856333,"Lng":106.756615},{"StationId":3379,"StationOrder":28,"StationDirection":1,"RouteId":85,"StationName":"Phòng khám đa khoa Á Châu","pathPoints":"106.75661469,10.85633278 106.75656128,10.85636997 106.75685883,10.85674953 106.75691223,10.85686970 106.75711060,10.85732555 106.75732422,10.85763645 106.75760651,10.85785007 106.75802612,10.85801029 106.75832367,10.85808945 106.75860596,10.85831642 106.75895691,10.85855961 106.75896454,10.85855579","Address":"1106, đường Kha Vạn Cân, Quận Thủ Đức","Lat":10.858556,"Lng":106.758965},{"StationId":3380,"StationOrder":29,"StationDirection":1,"RouteId":85,"StationName":"Ngã ba Hoàng Diệu II","pathPoints":"106.75895691,10.85855961 106.75929260,10.85898018 106.75964355,10.85941982 106.75987244,10.85964012 106.76023102,10.85993004 106.76035309,10.86005020 106.76065826,10.86044979","Address":"1176, đường Kha Vạn Cân, Quận Thủ Đức","Lat":10.860415,"Lng":106.760712},{"StationId":3382,"StationOrder":30,"StationDirection":1,"RouteId":85,"StationName":"UBND phường Linh Trung","pathPoints":"106.76065826,10.86044979 106.76091003,10.86087990 106.76103973,10.86145020 106.76106262,10.86205006 106.76103210,10.86233044 106.76097870,10.86252022 106.76090240,10.86297989 106.76090240,10.86326027 106.76098633,10.86363029 106.76116180,10.86400032","Address":"1256, đường Kha Vạn Cân, Quận Thủ Đức","Lat":10.863985,"Lng":106.7612},{"StationId":3383,"StationOrder":31,"StationDirection":1,"RouteId":85,"StationName":"Nhà hàng tiệc cưới Phố Đôi","pathPoints":"106.76119995,10.86398506 106.76119995,10.86398506 106.76116180,10.86400032 106.76165009,10.86485958 106.76197815,10.86538124 106.76221466,10.86637688 106.76221466,10.86668205 106.76223755,10.86690331 106.76236725,10.86711025 106.76245117,10.86732960 106.76280975,10.86789894 106.76316071,10.86843681 106.76339722,10.86878872 106.76339722,10.86878872","Address":"15/3, đường Kha Vạn Cân, Quận Thủ Đức","Lat":10.868789,"Lng":106.763399},{"StationId":3381,"StationOrder":32,"StationDirection":1,"RouteId":85,"StationName":"Trạm cầu vượt Linh Xuân","pathPoints":"106.76339722,10.86878872 106.76339722,10.86878872 106.76352692,10.86938953 106.76354218,10.86960602 106.76351929,10.87006950 106.76354980,10.87038040 106.76362610,10.87078094 106.76382446,10.87115955 106.76399994,10.87135029 106.76399994,10.87135029","Address":"1326-1328 (1129-1131), đường Kha Vạn Cân, Quận Thủ Đức","Lat":10.87135,"Lng":106.763999},{"StationId":330,"StationOrder":33,"StationDirection":1,"RouteId":85,"StationName":"Cầu vượt Linh Xuân","pathPoints":"106.76422119,10.87191963 106.76441956,10.87217045 106.76460266,10.87244034 106.76483154,10.87287045 106.76502991,10.87331009 106.76509857,10.87347031 106.76551819,10.87446022","Address":"4, đường Quốc lộ 1K, Quận Thủ Đức","Lat":10.874434,"Lng":106.765579},{"StationId":327,"StationOrder":34,"StationDirection":1,"RouteId":85,"StationName":"Chợ Linh Xuân","pathPoints":"106.76551819,10.87446022 106.76557922,10.87460995 106.76567078,10.87471008 106.76611328,10.87580013 106.76637268,10.87644958 106.76648712,10.87687016 106.76654053,10.87738037","Address":"74-76, đường Quốc lộ 1K, Quận Thủ Đức","Lat":10.877382,"Lng":106.766628},{"StationId":329,"StationOrder":35,"StationDirection":1,"RouteId":85,"StationName":"Thánh thất Cao Đài Linh Xuân","pathPoints":"106.76654053,10.87738037 106.76657104,10.87773037 106.76660919,10.87810040 106.76670074,10.87843037 106.76685333,10.87876987 106.76699066,10.87901020 106.76754761,10.87965965 106.76802063,10.88018990","Address":"160, đường Quốc lộ 1K, Quận Thủ Đức","Lat":10.88015,"Lng":106.768066},{"StationId":332,"StationOrder":36,"StationDirection":1,"RouteId":85,"StationName":"Đường số 8","pathPoints":"106.76802063,10.88018990 106.76808929,10.88027000 106.76814270,10.88039970 106.76846313,10.88080025 106.76857758,10.88086033 106.76914978,10.88154030 106.76940918,10.88185024","Address":"202-204, đường Quốc lộ 1K, Quận Thủ Đức","Lat":10.881807,"Lng":106.769487},{"StationId":331,"StationOrder":37,"StationDirection":1,"RouteId":85,"StationName":"Chùa Từ Quang","pathPoints":"106.76940918,10.88185024 106.77101135,10.88374043 106.77243805,10.88541985 106.77250671,10.88549995","Address":"Chùa Từ Quang, đường Quốc lộ 1K, Quận Thủ Đức","Lat":10.885452,"Lng":106.772568},{"StationId":333,"StationOrder":38,"StationDirection":1,"RouteId":85,"StationName":"Big C","pathPoints":"106.77250671,10.88549995 106.77284241,10.88582039 106.77326202,10.88615036 106.77419281,10.88685036 106.77484131,10.88731956","Address":"280A, đường Quốc lộ 1K, Quận Thủ Đức","Lat":10.887267,"Lng":106.774879},{"StationId":7216,"StationOrder":39,"StationDirection":1,"RouteId":85,"StationName":"Bến xe Tân Đông Hiệp","pathPoints":"106.77487946,10.88726711 106.77648926,10.88840199 106.77780914,10.88896084 106.77906036,10.88932896 106.78196716,10.89010906 106.78406525,10.89059353 106.78467560,10.89059353 106.78467560,10.89225864 106.78421021,10.89344883 106.78410339,10.89517689 106.78397369,10.89689350 106.78363037,10.89748383 106.78202057,10.89807415 106.78067017,10.89984417 106.78034973,10.90000153 106.77749634,10.90057087 106.77617645,10.90144539 106.77464294,10.90222454 106.77345276,10.90281487 106.77136230,10.90516376 106.77072906,10.90564823 106.76978302,10.90634346 106.76912689,10.90672302 106.76875305,10.90681839 106.76847076,10.90636539 106.76708221,10.90730286 106.76648712,10.90773487 106.76506042,10.90779209 106.76341248,10.90784550 106.76171112,10.90790844 106.75956726,10.90796089 106.75740814,10.90800285 106.75449371,10.90806103 106.75216675,10.90814018 106.74953461,10.90821362 106.74817657,10.90801334 106.74786377,10.90800858 106.74756622,10.90804577 106.74733734,10.90810871 106.74710846,10.90821362 106.74559021,10.90925121 106.74488831,10.90982533 106.74085999,10.90875626 106.74095154,10.91083145 106.74121094,10.91571999 106.74150848,10.92071342 106.74172974,10.92534828 106.74200439,10.92891979 106.74327850,10.92951965 106.74318695,10.93001461","Address":"Bến xe Dĩ An - Tân Đông Hiệp, đường ĐT43C, Ngoại thành","Lat":10.930015,"Lng":106.743188}]