[{"StationId":1560,"StationOrder":0,"StationDirection":0,"RouteId":29,"StationName":"Cư xá Nhiêu Lộc","pathPoints":"","Address":"Bến xe buýt Cư xá Nhiêu Lộc, đường Lê Thúc Hoạch, Quận Tân Phú","Lat":10.787617,"Lng":106.622057},{"StationId":1561,"StationOrder":1,"StationDirection":0,"RouteId":29,"StationName":"Bình Long","pathPoints":"106.62181091,10.78789043 106.62132263,10.78820038 106.62104034,10.78845024 106.61901855,10.78827953 106.61889648,10.78827000","Address":"239, đường Lê Thúc Hoạch, Quận Tân Phú","Lat":10.788292,"Lng":106.618896},{"StationId":1559,"StationOrder":2,"StationDirection":0,"RouteId":29,"StationName":"Nghĩa trang Đa Minh","pathPoints":"106.61889648,10.78829193 106.61729431,10.78818035 106.61762238,10.78726864 106.61757660,10.78727436","Address":"Nghĩa trang Đa Minh, đường Bình Long, Quận Bình Tân","Lat":10.787274,"Lng":106.617578},{"StationId":1564,"StationOrder":3,"StationDirection":0,"RouteId":29,"StationName":"Sơn Xuân Phát","pathPoints":"106.61757660,10.78727436 106.61843109,10.78535557 106.61920166,10.78297901","Address":"175, đường Bình Long, Quận Bình Tân","Lat":10.782979,"Lng":106.619203},{"StationId":1566,"StationOrder":4,"StationDirection":0,"RouteId":29,"StationName":"Bình Long","pathPoints":"106.61920166,10.78297901 106.61946869,10.78234673 106.61983490,10.78120327 106.62040710,10.77943325","Address":"105, đường Bình Long, Quận Bình Tân","Lat":10.779433,"Lng":106.620405},{"StationId":1562,"StationOrder":5,"StationDirection":0,"RouteId":29,"StationName":"Chùa Như Thị Thất","pathPoints":"106.62040710,10.77943325 106.62123871,10.77716160 106.62139893,10.77626610 106.62142181,10.77592754","Address":"25 (Hoa Sen), đường Bình Long, Quận Bình Tân","Lat":10.775928,"Lng":106.621424},{"StationId":1568,"StationOrder":6,"StationDirection":0,"RouteId":29,"StationName":"Ngã 4 bốn xã","pathPoints":"106.62142181,10.77592754 106.62152100,10.77365685 106.62292480,10.77319336","Address":"257, đường Hòa Bình, Quận Tân Phú","Lat":10.773193,"Lng":106.622926},{"StationId":1563,"StationOrder":7,"StationDirection":0,"RouteId":29,"StationName":"Tô Hiệu","pathPoints":"106.62292480,10.77319336 106.62587738,10.77223969 106.62590027,10.77216530","Address":"245, đường Hòa Bình, Quận Tân Phú","Lat":10.772165,"Lng":106.6259},{"StationId":1565,"StationOrder":8,"StationDirection":0,"RouteId":29,"StationName":"Trâm Tâm Mua Sắm","pathPoints":"106.62590027,10.77216530 106.62595367,10.77219772 106.62856293,10.77134895 106.62857056,10.77129555","Address":"165, đường Hòa Bình, Quận Tân Phú","Lat":10.771296,"Lng":106.628569},{"StationId":1570,"StationOrder":9,"StationDirection":0,"RouteId":29,"StationName":"Ngã 4 Hòa Bình","pathPoints":"106.62857056,10.77129555 106.62861633,10.77135944 106.63172913,10.77026844 106.63309479,10.76985264 106.63305664,10.76969433 106.63305664,10.76969433 106.63305664,10.76969433","Address":"69, đường Hòa Bình, Quận Tân Phú","Lat":10.769973,"Lng":106.632539},{"StationId":1567,"StationOrder":10,"StationDirection":0,"RouteId":29,"StationName":"Trường Hoàng Diệu","pathPoints":"106.63305664,10.76969433 106.63314819,10.76984692 106.63445282,10.76950932 106.63477325,10.76953602 106.63479614,10.76945686","Address":"49, đường Hòa Bình, Quận Tân Phú","Lat":10.769583,"Lng":106.633966},{"StationId":1571,"StationOrder":11,"StationDirection":0,"RouteId":29,"StationName":"Thuỷ Tạ","pathPoints":"106.63479614,10.76945686 106.63482666,10.76950932 106.63551331,10.76957321 106.63603973,10.76949883 106.63770294,10.76891899 106.63786316,10.76881409","Address":"ĐD 90 (nhà hàng Thủy Tạ Đầm Sen), đường Hòa Bình, Quận 11","Lat":10.768814,"Lng":106.637866},{"StationId":1569,"StationOrder":12,"StationDirection":0,"RouteId":29,"StationName":"Bãi xe buýt Đầm Sen","pathPoints":"106.63786316,10.76881409 106.63793182,10.76884556 106.63913727,10.76836109 106.63977814,10.76792908","Address":"7B (Bến xe buýt Đầm Sen), đường Hòa Bình, Quận 11","Lat":10.767929,"Lng":106.639776},{"StationId":1043,"StationOrder":13,"StationDirection":0,"RouteId":29,"StationName":"Ngã tư Hòa Bình","pathPoints":"106.63977814,10.76792908 106.64098358,10.76720715 106.64157104,10.76698017","Address":"3 (79), đường Hòa Bình, Quận 11","Lat":10.76698,"Lng":106.641571},{"StationId":1572,"StationOrder":14,"StationDirection":0,"RouteId":29,"StationName":"Cổng 1 Đầm Sen","pathPoints":"106.64157104,10.76698017 106.64157104,10.76698017 106.64157104,10.76698017 106.64157104,10.76698017 106.64162445,10.76703262 106.64216614,10.76686954 106.64218903,10.76671124 106.64228821,10.76665306 106.64220428,10.76613140 106.64220428,10.76519394 106.64212799,10.76519871 106.64212799,10.76519871 106.64212799,10.76519871 106.64212799,10.76519871","Address":"281, đường Lạc Long Quân, Quận 11","Lat":10.765199,"Lng":106.642128},{"StationId":1776,"StationOrder":15,"StationDirection":0,"RouteId":29,"StationName":"Công an Phường 10","pathPoints":"106.64212799,10.76519871 106.64212799,10.76519871 106.64212799,10.76519871 106.64210510,10.76281166 106.64234924,10.76281643 106.64337158,10.76325417 106.64489746,10.76428223 106.64476013,10.76361561 106.64470673,10.76364899 106.64470673,10.76364899","Address":"569 , đường Minh Phụng, Quận 11","Lat":10.763649,"Lng":106.644706},{"StationId":1777,"StationOrder":16,"StationDirection":0,"RouteId":29,"StationName":"Đội Cung","pathPoints":"106.64470673,10.76364899 106.64470673,10.76364899 106.64470673,10.76364899 106.64446259,10.76196766 106.64446259,10.76196766 106.64446259,10.76196766","Address":"461, đường Minh Phụng, Quận 11","Lat":10.761968,"Lng":106.644459},{"StationId":1779,"StationOrder":17,"StationDirection":0,"RouteId":29,"StationName":"Trường Tiểu học Thái Phiên","pathPoints":"106.64446259,10.76196766 106.64405060,10.75944901","Address":"385, đường Minh Phụng, Quận 11","Lat":10.759449,"Lng":106.644051},{"StationId":1576,"StationOrder":18,"StationDirection":0,"RouteId":29,"StationName":"Trường Hàn Hải Nguyên","pathPoints":"106.64405060,10.75944901 106.64386749,10.75832176 106.64534760,10.75821590","Address":"211-213, đường Hàn Hải Nguyên, Quận 11","Lat":10.758216,"Lng":106.645349},{"StationId":1575,"StationOrder":19,"StationDirection":0,"RouteId":29,"StationName":"Đường 3/2","pathPoints":"106.64534760,10.75821590 106.64788055,10.75807381 106.64791107,10.75798416","Address":"107, đường Hàn Hải Nguyên, Quận 11","Lat":10.757984,"Lng":106.647908},{"StationId":1577,"StationOrder":20,"StationDirection":0,"RouteId":29,"StationName":"Nguyễn Thị Nhỏ","pathPoints":"106.64791107,10.75798416 106.64791107,10.75798416 106.64791870,10.75811100 106.65011597,10.75795746 106.65011597,10.75785828 106.65011597,10.75785828","Address":"59-61, đường Hàn Hải Nguyên, Quận 11","Lat":10.757858,"Lng":106.650118},{"StationId":1578,"StationOrder":21,"StationDirection":0,"RouteId":29,"StationName":"Trần Quý","pathPoints":"106.65011597,10.75785828 106.65011597,10.75794697 106.65126038,10.75786781 106.65130615,10.75812149 106.65217590,10.75830555 106.65222931,10.75824833","Address":"225-227, đường Trần Quý, Quận 11","Lat":10.758248,"Lng":106.652226},{"StationId":1015,"StationOrder":22,"StationDirection":0,"RouteId":29,"StationName":"Trạm Trần Quý - Tạ Uyên","pathPoints":"106.65222931,10.75824833 106.65222931,10.75824833 106.65222931,10.75833702 106.65351105,10.75859547 106.65354919,10.75806808 106.65349579,10.75806808 106.65349579,10.75806808","Address":"193, đường Tạ Uyên, Quận 11","Lat":10.758068,"Lng":106.653492},{"StationId":1580,"StationOrder":23,"StationDirection":0,"RouteId":29,"StationName":"Khách sạn Hoàng Hậu","pathPoints":"106.65349579,10.75806808 106.65349579,10.75806808 106.65355682,10.75805283 106.65367126,10.75681400 106.65497589,10.75709343 106.65502167,10.75702572 106.65502167,10.75702572","Address":"321-323, đường Nguyễn Chí Thanh, Quận 5","Lat":10.757026,"Lng":106.655022},{"StationId":1050,"StationOrder":24,"StationDirection":0,"RouteId":29,"StationName":"Chợ Thiếc","pathPoints":"106.65502167,10.75702572 106.65502167,10.75702572 106.65501404,10.75710964 106.65757751,10.75761509 106.65761566,10.75756836 106.65761566,10.75756836","Address":"231-233(235), đường Nguyễn Chí Thanh, Quận 5","Lat":10.757568,"Lng":106.657616},{"StationId":395,"StationOrder":25,"StationDirection":0,"RouteId":29,"StationName":"Bệnh viện Chợ Rẫy","pathPoints":"106.65761566,10.75756836 106.65761566,10.75756836 106.65760040,10.75763130 106.65824127,10.75774193 106.65834045,10.75641346 106.65840149,10.75537014 106.65837097,10.75538063 106.65837097,10.75538063","Address":"Đối diện 30-32, đường Thuận Kiều, Quận 5","Lat":10.755381,"Lng":106.658369},{"StationId":435,"StationOrder":26,"StationDirection":0,"RouteId":29,"StationName":"Thuận Kiều Plaza","pathPoints":"106.65837097,10.75538063 106.65837097,10.75538063 106.65837097,10.75538063 106.65840149,10.75537014 106.65844727,10.75476933 106.65837097,10.75460052 106.65795898,10.75452709 106.65793610,10.75457954 106.65793610,10.75457954 106.65793610,10.75457954","Address":"Đối diện 385, đường Hồng Bàng, Quận 5","Lat":10.75458,"Lng":106.657934},{"StationId":438,"StationOrder":27,"StationDirection":0,"RouteId":29,"StationName":"Dương Tử Giang","pathPoints":"106.65793610,10.75457954 106.65793610,10.75457954 106.65794373,10.75453758 106.65553284,10.75409508 106.65551758,10.75415802 106.65551758,10.75415802","Address":"Đối diện 455-457, đường Hồng Bàng, Quận 5","Lat":10.754158,"Lng":106.65552},{"StationId":4773,"StationOrder":28,"StationDirection":0,"RouteId":29,"StationName":"Cây xăng","pathPoints":"106.65551758,10.75415802 106.65551758,10.75415802 106.65551758,10.75415802 106.65550232,10.75408459 106.65373230,10.75377846 106.65364838,10.75367832 106.65373993,10.75357342 106.65326691,10.75171280 106.65329742,10.75108528 106.65255737,10.75104332 106.65253448,10.75111198 106.65253448,10.75111198 106.65253448,10.75111198","Address":"Đối diện 13, đường Lê Quang Sung, Quận 6","Lat":10.751112,"Lng":106.652538},{"StationId":4418,"StationOrder":29,"StationDirection":0,"RouteId":29,"StationName":"Bãi Sậy","pathPoints":"106.65253448,10.75111198 106.65253448,10.75111198 106.65253448,10.75105381 106.65092468,10.75099087 106.64952850,10.75112724 106.64934540,10.74882412 106.64929962,10.74880314 106.64929962,10.74880314","Address":"1D, đường Phạm Đình Hổ, Quận 6","Lat":10.748803,"Lng":106.649303},{"StationId":1579,"StationOrder":30,"StationDirection":0,"RouteId":29,"StationName":"Ủy ban nhân dân Quận 6","pathPoints":"106.64929962,10.74880314 106.64929962,10.74880314 106.64931488,10.74823952 106.64956665,10.74703217 106.64965057,10.74651623 106.64920044,10.74629498 106.64920044,10.74629498","Address":"Đối diện 91, đường Phạm Văn Chí, Quận 6","Lat":10.746295,"Lng":106.649201},{"StationId":1581,"StationOrder":31,"StationDirection":0,"RouteId":29,"StationName":"Ban Chỉ huy Quân sự Phường 4","pathPoints":"106.64920044,10.74629498 106.64817810,10.74567318 106.64760590,10.74543571","Address":"156, đường Phạm Văn Chí, Quận 6","Lat":10.745436,"Lng":106.647608},{"StationId":1582,"StationOrder":32,"StationDirection":0,"RouteId":29,"StationName":"Phạm Phú Thứ","pathPoints":"106.64760590,10.74543571 106.64760590,10.74543571 106.64764404,10.74537754 106.64624023,10.74460316 106.64622498,10.74466610 106.64622498,10.74466610","Address":"322, đường Phạm Văn Chí, Quận 6","Lat":10.744666,"Lng":106.646224},{"StationId":1585,"StationOrder":33,"StationDirection":0,"RouteId":29,"StationName":"UBND Phường 8","pathPoints":"106.64622498,10.74466610 106.64159393,10.74199390","Address":"560, đường Phạm Văn Chí, Quận 6","Lat":10.741994,"Lng":106.641594},{"StationId":1584,"StationOrder":34,"StationDirection":0,"RouteId":29,"StationName":"Nhà thờ Bình Phước","pathPoints":"106.64159393,10.74199390 106.63934326,10.74069214 106.63931274,10.74073982","Address":"648-650, đường Phạm Văn Chí, Quận 6","Lat":10.740571,"Lng":106.638998},{"StationId":757,"StationOrder":35,"StationDirection":0,"RouteId":29,"StationName":"Cầu Phạm Văn Chí","pathPoints":"106.63931274,10.74073982 106.63934326,10.74068165 106.63551331,10.73850536 106.63548279,10.73852062","Address":"Đối diện 693, đường Phạm Văn Chí, Quận 6","Lat":10.738521,"Lng":106.635484},{"StationId":4352,"StationOrder":36,"StationDirection":0,"RouteId":29,"StationName":"Lý Chiêu Hoàng","pathPoints":"106.63548279,10.73852062 106.63548279,10.73852062 106.63550568,10.73849487 106.63280487,10.73693943 106.63277435,10.73696613 106.63277435,10.73696613","Address":"156/1, đường Lý Chiêu Hoàng, Quận 6","Lat":10.736966,"Lng":106.632775},{"StationId":1586,"StationOrder":37,"StationDirection":0,"RouteId":29,"StationName":"Trường THCS Phú Định","pathPoints":"106.63277435,10.73696613 106.63277435,10.73696613 106.63278961,10.73693943 106.63214111,10.73654938 106.63018799,10.73733521 106.63021851,10.73736095 106.63021851,10.73736095","Address":"94 Bis, đường Lý Chiêu Hoàng, Quận 6","Lat":10.737361,"Lng":106.630216},{"StationId":1587,"StationOrder":38,"StationDirection":0,"RouteId":29,"StationName":"Chợ Bình Phú","pathPoints":"106.63021851,10.73736095 106.63021851,10.73736095 106.63018036,10.73732948 106.62651062,10.73876858 106.62653351,10.73881626 106.62653351,10.73881626 106.62653351,10.73881626","Address":"116 (chợ bình phú), đường Lý Chiêu Hoàng, Quận 6","Lat":10.738816,"Lng":106.626534},{"StationId":1588,"StationOrder":39,"StationDirection":0,"RouteId":29,"StationName":"Nhà hàng Đại Hỷ","pathPoints":"106.62653351,10.73881626 106.62648773,10.73878479 106.62576294,10.73910046 106.62528992,10.73914814 106.62451172,10.73905277 106.62450409,10.73908997","Address":"156, đường Lý Chiêu Hoàng, Quận 6","Lat":10.73909,"Lng":106.624503},{"StationId":806,"StationOrder":40,"StationDirection":0,"RouteId":29,"StationName":"Lý Chiêu Hoàng","pathPoints":"106.62450409,10.73908997 106.62450409,10.73908997 106.62450409,10.73904800 106.62363434,10.73893738 106.62364197,10.74022865 106.62371826,10.74023914 106.62371826,10.74023914","Address":"369/F31, đường An Dương Vương, Quận 6","Lat":10.740239,"Lng":106.623715},{"StationId":1591,"StationOrder":41,"StationDirection":0,"RouteId":29,"StationName":"Chợ An Dương Vương","pathPoints":"106.62371826,10.74023914 106.62370300,10.74023914 106.62364197,10.74024391 106.62369537,10.74387074 106.62378693,10.74387646","Address":"648-650, đường An Dương Vương, Quận 6","Lat":10.743876,"Lng":106.623784},{"StationId":117,"StationOrder":42,"StationDirection":0,"RouteId":29,"StationName":"Vòng xoay Kinh Dương Vương","pathPoints":"106.62378693,10.74387646 106.62378693,10.74387646 106.62371826,10.74385452 106.62377167,10.74532509 106.62397766,10.74543571 106.62392426,10.74567318 106.62373352,10.74570942 106.62352753,10.74556732 106.62252045,10.74469280 106.62247467,10.74474621 106.62247467,10.74474621","Address":"212-214, đường Kinh Dương Vương, Quận Bình Tân","Lat":10.744746,"Lng":106.622475},{"StationId":116,"StationOrder":43,"StationDirection":0,"RouteId":29,"StationName":"Bến xe Miền Tây","pathPoints":"106.62247467,10.74474621 106.62247467,10.74474621 106.62247467,10.74474621 106.62250519,10.74470329 106.61915588,10.74193573 106.61909485,10.74197292 106.61909485,10.74197292","Address":"358-360, đường Kinh Dương Vương, Quận Bình Tân","Lat":10.741973,"Lng":106.619096},{"StationId":4150,"StationOrder":44,"StationDirection":0,"RouteId":29,"StationName":"428, Kinh Dương Vương","pathPoints":"106.61909485,10.74197292 106.61909485,10.74197292 106.61912537,10.74193096 106.61843109,10.74131393 106.61837769,10.74138260 106.61837769,10.74138260","Address":"428, đường Kinh Dương Vương, Quận Bình Tân","Lat":10.741383,"Lng":106.618377},{"StationId":725,"StationOrder":45,"StationDirection":0,"RouteId":29,"StationName":"Bến xe Miền Tây","pathPoints":"106.61837769,10.74138260 106.61837769,10.74138260 106.61843109,10.74134064 106.61671448,10.73985958 106.61681366,10.73971176 106.61816406,10.74084473 106.61831665,10.74070454 106.61831665,10.74070454","Address":"Bến xe Miền Tây, đường Kinh Dương Vương, Quận Bình Tân","Lat":10.740705,"Lng":106.618317},{"StationId":725,"StationOrder":0,"StationDirection":1,"RouteId":29,"StationName":"Bến xe Miền Tây","pathPoints":"","Address":"Bến xe Miền Tây, đường Kinh Dương Vương, Quận Bình Tân","Lat":10.740705,"Lng":106.618317},{"StationId":4149,"StationOrder":1,"StationDirection":1,"RouteId":29,"StationName":"Chợ An Lạc ","pathPoints":"106.61831665,10.74070454 106.61831665,10.74070454 106.61928558,10.74149895 106.61912537,10.74170399 106.62124634,10.74345970 106.62136078,10.74339581 106.62136078,10.74339581","Address":"49-51 (317) - KIA , đường Kinh Dương Vương, Quận Bình Tân","Lat":10.743396,"Lng":106.62136},{"StationId":140,"StationOrder":2,"StationDirection":1,"RouteId":29,"StationName":"Kinh Dương Vương","pathPoints":"106.62136078,10.74339581 106.62129211,10.74351215 106.62309265,10.74495125 106.62316132,10.74491882","Address":"7, đường Kinh Dương Vương, Quận Bình Tân","Lat":10.744919,"Lng":106.623162},{"StationId":761,"StationOrder":3,"StationDirection":1,"RouteId":29,"StationName":"Chợ An Dương Vương","pathPoints":"106.62316132,10.74491882 106.62316132,10.74491882 106.62313080,10.74499798 106.62333679,10.74515152 106.62360382,10.74521446 106.62377167,10.74536228 106.62368011,10.74300575 106.62360382,10.74298477 106.62360382,10.74298477","Address":"421, đường An Dương Vương, Quận 6","Lat":10.742985,"Lng":106.623602},{"StationId":1589,"StationOrder":4,"StationDirection":1,"RouteId":29,"StationName":"Lý Chiêu Hoàng","pathPoints":"106.62360382,10.74298477 106.62360382,10.74298477 106.62368774,10.74298000 106.62364960,10.74005413 106.62355042,10.74006462 106.62355042,10.74006462","Address":"426, đường An Dương Vương, Quận 6","Lat":10.740065,"Lng":106.623548},{"StationId":1592,"StationOrder":5,"StationDirection":1,"RouteId":29,"StationName":"Nhà hàng Đại Hỷ","pathPoints":"106.62355042,10.74006462 106.62355042,10.74006462 106.62364197,10.74007034 106.62362671,10.73893738 106.62435913,10.73902702 106.62436676,10.73897266 106.62436676,10.73897266","Address":"129, đường Lý Chiêu Hoàng, Quận 6","Lat":10.738973,"Lng":106.624367},{"StationId":1590,"StationOrder":6,"StationDirection":1,"RouteId":29,"StationName":"Chợ Bình Phú","pathPoints":"106.62436676,10.73897266 106.62436676,10.73897266 106.62436676,10.73897266 106.62438202,10.73904228 106.62545013,10.73915291 106.62582397,10.73906326 106.62640381,10.73881626 106.62640381,10.73875809 106.62640381,10.73875809","Address":"99, đường Lý Chiêu Hoàng, Quận 6","Lat":10.738758,"Lng":106.626402},{"StationId":1593,"StationOrder":7,"StationDirection":1,"RouteId":29,"StationName":"Trường THCS Phú Định","pathPoints":"106.62640381,10.73875809 106.62642670,10.73880577 106.62823486,10.73806763 106.63005829,10.73737717 106.63007355,10.73730946","Address":"61, đường Lý Chiêu Hoàng, Quận 6","Lat":10.737309,"Lng":106.630071},{"StationId":4607,"StationOrder":8,"StationDirection":1,"RouteId":29,"StationName":"Lý Chiêu Hoàng","pathPoints":"106.63007355,10.73730946 106.63007355,10.73730946 106.63009644,10.73735046 106.63152313,10.73675537 106.63215637,10.73653889 106.63316345,10.73714542 106.63321686,10.73711395 106.63321686,10.73711395","Address":"Đối diện 156/1, đường Lý Chiêu Hoàng, Quận 6","Lat":10.737114,"Lng":106.63322},{"StationId":1595,"StationOrder":9,"StationDirection":1,"RouteId":29,"StationName":"Cầu Phạm Văn Chí","pathPoints":"106.63321686,10.73711395 106.63321686,10.73711395 106.63317108,10.73716068 106.63538361,10.73841000 106.63544464,10.73838425 106.63544464,10.73838425","Address":"713-715, đường Phạm Văn Chí, Quận 6","Lat":10.738384,"Lng":106.635447},{"StationId":1594,"StationOrder":10,"StationDirection":1,"RouteId":29,"StationName":"Nhà thờ Bình Phước","pathPoints":"106.63544464,10.73838425 106.63544464,10.73838425 106.63540649,10.73843670 106.63916779,10.74054527 106.63916779,10.74054527","Address":"621, đường Phạm Văn Chí, Quận 6","Lat":10.740276,"Lng":106.638837},{"StationId":1596,"StationOrder":11,"StationDirection":1,"RouteId":29,"StationName":"UBND Phường 8","pathPoints":"106.63916779,10.74054527 106.63916779,10.74054527 106.64143372,10.74183083 106.64147186,10.74180412 106.64147186,10.74180412","Address":"483, đường Phạm Văn Chí, Quận 6","Lat":10.741804,"Lng":106.641471},{"StationId":1597,"StationOrder":12,"StationDirection":1,"RouteId":29,"StationName":"Phạm Phú Thứ","pathPoints":"106.64147186,10.74180412 106.64597321,10.74439240","Address":"335, đường Phạm Văn Chí, Quận 6","Lat":10.744392,"Lng":106.645972},{"StationId":1598,"StationOrder":13,"StationDirection":1,"RouteId":29,"StationName":"Ủy ban nhân dân Quận 6","pathPoints":"106.64597321,10.74439240 106.64929962,10.74623108","Address":"81, đường Phạm Văn Chí, Quận 6","Lat":10.746231,"Lng":106.649303},{"StationId":4606,"StationOrder":14,"StationDirection":1,"RouteId":29,"StationName":"Bãi Sậy","pathPoints":"106.64929962,10.74623108 106.64969635,10.74651051 106.64959717,10.74702740 106.64955139,10.74752331","Address":"22, đường Phạm Đình Hổ, Quận 6","Lat":10.747523,"Lng":106.64955},{"StationId":1,"StationOrder":15,"StationDirection":1,"RouteId":29,"StationName":"Chu Văn An","pathPoints":"106.64955139,10.74752331 106.64955139,10.74752331 106.64955139,10.74752331 106.64948273,10.74751759 106.64933777,10.74828720 106.64932251,10.74859810 106.64942932,10.74969387 106.65251160,10.75026894 106.65255737,10.75023174 106.65255737,10.75023174 106.65255737,10.75023174","Address":"27, đường Tháp Mười, Quận 6","Lat":10.750232,"Lng":106.652554},{"StationId":470,"StationOrder":16,"StationDirection":1,"RouteId":29,"StationName":"Thuận Kiều Plaza","pathPoints":"106.65255737,10.75023174 106.65255737,10.75023174 106.65255737,10.75023174 106.65254211,10.75026989 106.65338135,10.75043678 106.65332031,10.75108051 106.65327454,10.75167084 106.65376282,10.75358391 106.65398407,10.75365162 106.65672302,10.75415993 106.65674591,10.75411129 106.65674591,10.75411129 106.65674591,10.75411129","Address":"399, đường Hồng Bàng, Quận 5","Lat":10.754111,"Lng":106.656749},{"StationId":279,"StationOrder":17,"StationDirection":1,"RouteId":29,"StationName":"Bệnh viện Chợ Rẫy","pathPoints":"106.65674591,10.75411129 106.65676117,10.75418472 106.65827942,10.75441074 106.65844727,10.75464249 106.65829468,10.75708294 106.65838623,10.75710869","Address":"Đối diện 59C, đường Thuận Kiều, Quận 5","Lat":10.757109,"Lng":106.65839},{"StationId":1608,"StationOrder":18,"StationDirection":1,"RouteId":29,"StationName":"Chợ Thiếc","pathPoints":"106.65838623,10.75710869 106.65838623,10.75710869 106.65827942,10.75710392 106.65824890,10.75775719 106.65739441,10.75758362 106.65738678,10.75763607 106.65738678,10.75763607","Address":"698, đường Nguyễn Chí Thanh, Quận 11","Lat":10.757636,"Lng":106.657387},{"StationId":1599,"StationOrder":19,"StationDirection":1,"RouteId":29,"StationName":"Tạ Uyên","pathPoints":"106.65738678,10.75763607 106.65738678,10.75763607 106.65738678,10.75757790 106.65412140,10.75695133 106.65412140,10.75695133","Address":"(516)816, đường Nguyễn Chí Thanh, Quận 11","Lat":10.756951,"Lng":106.65412},{"StationId":896,"StationOrder":20,"StationDirection":1,"RouteId":29,"StationName":"Trạm Trần Quý - Tạ Uyên","pathPoints":"106.65412140,10.75695133 106.65368652,10.75685120 106.65360260,10.75800228","Address":"114, đường Tạ Uyên, Quận 11","Lat":10.758002,"Lng":106.653603},{"StationId":1610,"StationOrder":21,"StationDirection":1,"RouteId":29,"StationName":"Trần Quý","pathPoints":"106.65360260,10.75800228 106.65360260,10.75800228 106.65360260,10.75800228 106.65356445,10.75802135 106.65349579,10.75858974 106.65190125,10.75825310 106.65190125,10.75829792 106.65190125,10.75829792 106.65190125,10.75829792","Address":"258, đường Trần Quý, Quận 11","Lat":10.758298,"Lng":106.651901},{"StationId":1600,"StationOrder":22,"StationDirection":1,"RouteId":29,"StationName":"Nguyễn Thị Nhỏ","pathPoints":"106.65190125,10.75829792 106.65190125,10.75829792 106.65190125,10.75829792 106.65187073,10.75824738 106.65129852,10.75814724 106.65126801,10.75786781 106.65051270,10.75793171 106.65045166,10.75795841 106.65045166,10.75795841 106.65045166,10.75795841","Address":"36, đường Hàn Hải Nguyên, Quận 11","Lat":10.757958,"Lng":106.650451},{"StationId":1612,"StationOrder":23,"StationDirection":1,"RouteId":29,"StationName":"Trường Hàn Hải Nguyên","pathPoints":"106.65045166,10.75795841 106.64610291,10.75823212 106.64611816,10.75829506","Address":"172-174, đường Hàn Hải Nguyên, Quận 11","Lat":10.758295,"Lng":106.646118},{"StationId":1677,"StationOrder":24,"StationDirection":1,"RouteId":29,"StationName":"Trường Tiểu học Thái Phiên","pathPoints":"106.64611816,10.75829506 106.64397430,10.75843239 106.64425659,10.75972939","Address":"382, đường Minh Phụng, Quận 11","Lat":10.759729,"Lng":106.64426},{"StationId":1680,"StationOrder":25,"StationDirection":1,"RouteId":29,"StationName":"Đội Cung","pathPoints":"106.64425659,10.75972939 106.64418793,10.75973415 106.64451599,10.76183701 106.64459229,10.76184940 106.64459229,10.76184940","Address":"470, đường Minh Phụng, Quận 11","Lat":10.761849,"Lng":106.644592},{"StationId":1679,"StationOrder":26,"StationDirection":1,"RouteId":29,"StationName":"Công an Phường 10","pathPoints":"106.64459229,10.76184940 106.64459229,10.76184940 106.64452362,10.76185799 106.64486694,10.76385498 106.64492798,10.76386547 106.64492798,10.76386547","Address":"618, đường Minh Phụng, Quận 11","Lat":10.763865,"Lng":106.644928},{"StationId":1603,"StationOrder":27,"StationDirection":1,"RouteId":29,"StationName":"Trường Phùng Hưng","pathPoints":"106.64492798,10.76386547 106.64492798,10.76386547 106.64492798,10.76386547 106.64498138,10.76438713 106.64363098,10.76351738 106.64315796,10.76323318 106.64237976,10.76290131 106.64219666,10.76290131 106.64223480,10.76336479 106.64229584,10.76383114 106.64225769,10.76381779 106.64225769,10.76381779","Address":"240, đường Lạc Long Quân, Quận 11","Lat":10.764519,"Lng":106.642265},{"StationId":1029,"StationOrder":28,"StationDirection":1,"RouteId":29,"StationName":"Bãi xe buýt Đầm Sen","pathPoints":"106.64226532,10.76451874 106.64223480,10.76590538 106.64231110,10.76661110 106.64247131,10.76671124 106.64250946,10.76693249 106.64231110,10.76700115 106.64215851,10.76690102 106.64117432,10.76719570","Address":"40A, đường Hòa Bình, Quận 11","Lat":10.767196,"Lng":106.641176},{"StationId":1616,"StationOrder":29,"StationDirection":1,"RouteId":29,"StationName":"Trường Hòa Bình","pathPoints":"106.64117432,10.76719570 106.64099121,10.76724911 106.63928223,10.76831341 106.63925934,10.76836109","Address":"72, đường Hòa Bình, Quận 11","Lat":10.768361,"Lng":106.639261},{"StationId":1604,"StationOrder":30,"StationDirection":1,"RouteId":29,"StationName":"Đầm Sen","pathPoints":"106.63925934,10.76836109 106.63705444,10.76923561 106.63706970,10.76936722","Address":"45 (Đối diện công viên nước Đầm Sen), đường Hòa Bình, Quận Tân Phú","Lat":10.769367,"Lng":106.63707},{"StationId":1617,"StationOrder":31,"StationDirection":1,"RouteId":29,"StationName":"Chùa Huệ Quang","pathPoints":"106.63706970,10.76936722 106.63706970,10.76936722 106.63706970,10.76936722 106.63706970,10.76936722 106.63696289,10.76920414 106.63597107,10.76955700 106.63553619,10.76959419 106.63460541,10.76951981 106.63460541,10.76959896 106.63460541,10.76959896","Address":"116, đường Hòa Bình, Quận Tân Phú","Lat":10.769599,"Lng":106.634604},{"StationId":1619,"StationOrder":32,"StationDirection":1,"RouteId":29,"StationName":"Ngã 4 Hòa Bình","pathPoints":"106.63460541,10.76959896 106.63453674,10.76950455 106.63283539,10.76994133 106.63283539,10.77000999","Address":"126, đường Hòa Bình, Quận Tân Phú","Lat":10.77001,"Lng":106.632839},{"StationId":1621,"StationOrder":33,"StationDirection":1,"RouteId":29,"StationName":"Trung Tâm Mua Sắm","pathPoints":"106.63283539,10.77000999 106.63281250,10.76995754 106.63155365,10.77033710 106.63034058,10.77079582 106.62902832,10.77123260 106.62904358,10.77127743","Address":"214, đường Hòa Bình, Quận Tân Phú","Lat":10.771277,"Lng":106.629044},{"StationId":1605,"StationOrder":34,"StationDirection":1,"RouteId":29,"StationName":"Tô Hiệu","pathPoints":"106.62904358,10.77127743 106.62614441,10.77223396","Address":"278, đường Hòa Bình, Quận Tân Phú","Lat":10.772234,"Lng":106.626145},{"StationId":1606,"StationOrder":35,"StationDirection":1,"RouteId":29,"StationName":"Ngã 4 bốn xã","pathPoints":"106.62614441,10.77223396 106.62608337,10.77222347 106.62314606,10.77320385 106.62310028,10.77326679","Address":"314-316, đường Hòa Bình, Quận Tân Phú","Lat":10.773267,"Lng":106.6231},{"StationId":1609,"StationOrder":36,"StationDirection":1,"RouteId":29,"StationName":"Bình Long","pathPoints":"106.62310028,10.77326679 106.62160492,10.77373123 106.62152863,10.77615547","Address":"54 (445), đường Bình Long, Quận Tân Phú","Lat":10.776155,"Lng":106.621531},{"StationId":1623,"StationOrder":37,"StationDirection":1,"RouteId":29,"StationName":"Đỗ Bí","pathPoints":"106.62152863,10.77615547 106.62147522,10.77615452 106.62131500,10.77714062 106.62114716,10.77767277 106.62021637,10.78028679 106.62030029,10.78031254","Address":"156, đường Bình Long, Quận Tân Phú","Lat":10.780313,"Lng":106.6203},{"StationId":1626,"StationOrder":38,"StationDirection":1,"RouteId":29,"StationName":"Nguyễn Sơn","pathPoints":"106.62030029,10.78031254 106.61895752,10.78402328","Address":"220B-C, đường Bình Long, Quận Tân Phú","Lat":10.784023,"Lng":106.618956},{"StationId":1611,"StationOrder":39,"StationDirection":1,"RouteId":29,"StationName":"Phú Thọ Hòa","pathPoints":"106.61895752,10.78402328 106.61851501,10.78534031 106.61801147,10.78670788","Address":"333 (gần 358), đường Bình Long, Quận Tân Phú","Lat":10.786708,"Lng":106.618011},{"StationId":1614,"StationOrder":40,"StationDirection":1,"RouteId":29,"StationName":"Bình Long","pathPoints":"106.61801147,10.78670788 106.61801147,10.78670788 106.61801147,10.78670788 106.61791229,10.78668880 106.61741638,10.78803825 106.61876678,10.78816986 106.61882019,10.78811169 106.61882019,10.78811169 106.61882019,10.78811169","Address":"214, đường Lê Thúc Hoạch, Quận Tân Phú","Lat":10.788112,"Lng":106.61882},{"StationId":1560,"StationOrder":41,"StationDirection":1,"RouteId":29,"StationName":"Cư xá Nhiêu Lộc","pathPoints":"106.61882019,10.78811169 106.61882019,10.78811169 106.61883545,10.78816986 106.62104034,10.78832245 106.62125397,10.78811741 106.62182617,10.78776932 106.62207031,10.78768539 106.62205505,10.78761673","Address":"Bến xe buýt Cư xá Nhiêu Lộc, đường Lê Thúc Hoạch, Quận Tân Phú","Lat":10.787617,"Lng":106.622057}]