[{"StationId":166,"StationOrder":0,"StationDirection":0,"RouteId":48,"StationName":"Bến xe An Sương","pathPoints":"","Address":"Bến xe An Sương, đường Quốc lộ 22, Quận 12","Lat":10.843737602233887,"Lng":106.61337280273438},{"StationId":167,"StationOrder":1,"StationDirection":0,"RouteId":48,"StationName":"Bitis","pathPoints":"106.61337280,10.84373760 106.61418152,10.84418106 106.61734772,10.83889103","Address":"487, đường Trường Chinh, Quận 12","Lat":10.838891,"Lng":106.617347},{"StationId":172,"StationOrder":2,"StationDirection":0,"RouteId":48,"StationName":"Chùa Lạc Quang","pathPoints":"106.61734772,10.83889103 106.61751556,10.83894348 106.62035370,10.83460712 106.62020874,10.83449745","Address":"257, đường Trường Chinh, Quận 12","Lat":10.834497,"Lng":106.620212},{"StationId":168,"StationOrder":3,"StationDirection":0,"RouteId":48,"StationName":"Chùa Vĩnh Phước","pathPoints":"106.62020874,10.83449745 106.62020874,10.83449745 106.62033844,10.83462811 106.62194061,10.83214664 106.62179565,10.83201981 106.62179565,10.83201981","Address":"Chùa Vĩnh Phước, đường Trường Chinh, Quận 12","Lat":10.83202,"Lng":106.621794},{"StationId":169,"StationOrder":4,"StationDirection":0,"RouteId":48,"StationName":"Cầu Tham Lương - Siêu thị Thiên Hòa","pathPoints":"106.62179565,10.83201981 106.62179565,10.83201981 106.62197876,10.83206749 106.62510681,10.82725239 106.62592316,10.82639885 106.62586212,10.82623959 106.62586212,10.82623959","Address":"21 (Kế 2/6B), đường Trường Chinh, Quận 12","Lat":10.82624,"Lng":106.62586},{"StationId":174,"StationOrder":5,"StationDirection":0,"RouteId":48,"StationName":"Trạm Dệt Thành Công","pathPoints":"106.62586212,10.82623959 106.62586212,10.82623959 106.62600708,10.82635117 106.62802124,10.82440186 106.62945557,10.82314205 106.62996674,10.82238388 106.62982178,10.82231522 106.62982178,10.82231522","Address":"8, đường Trường Chinh, Quận Tân Phú","Lat":10.822315,"Lng":106.629825},{"StationId":173,"StationOrder":6,"StationDirection":0,"RouteId":48,"StationName":"Trạm KCN Tân Bình","pathPoints":"106.62982178,10.82231522 106.62982178,10.82231522 106.62982178,10.82231522 106.63002777,10.82231522 106.63089752,10.81951714 106.63061523,10.81938553 106.63061523,10.81938553 106.63061523,10.81938553","Address":"881, đường Trường Chinh, Quận Tân Phú","Lat":10.819386,"Lng":106.630615},{"StationId":176,"StationOrder":7,"StationDirection":0,"RouteId":48,"StationName":"Ngã 3 Chế Lan Viên","pathPoints":"106.63061523,10.81938553 106.63061523,10.81938553 106.63061523,10.81938553 106.63091278,10.81945419 106.63162994,10.81718254 106.63152313,10.81715679 106.63146973,10.81711388 106.63146973,10.81711388 106.63146973,10.81711388","Address":"831 (trước showroom o tô), đường Trường Chinh, Quận Tân Phú","Lat":10.817114,"Lng":106.631472},{"StationId":175,"StationOrder":8,"StationDirection":0,"RouteId":48,"StationName":"Chế Lan Viên","pathPoints":"106.63146973,10.81711388 106.63161469,10.81711960 106.63289642,10.81295681 106.63275146,10.81287766","Address":"28/7B, đường Trường Chinh, Quận Tân Phú","Lat":10.812878,"Lng":106.632748},{"StationId":177,"StationOrder":9,"StationDirection":0,"RouteId":48,"StationName":"Trạm Đài Liệt Sỹ","pathPoints":"106.63275146,10.81287766 106.63275146,10.81287766 106.63275146,10.81287766 106.63289642,10.81290436 106.63359833,10.81051254 106.63431549,10.80824661 106.63426208,10.80820942 106.63426208,10.80820942 106.63426208,10.80820942","Address":"1/3, đường Trường Chinh, Quận Tân Phú","Lat":10.808209,"Lng":106.634262},{"StationId":2292,"StationOrder":10,"StationDirection":0,"RouteId":48,"StationName":"Siêu thị BigC","pathPoints":"106.63426208,10.80820942 106.63435364,10.80816746 106.63450623,10.80760860 106.63494110,10.80632305 106.63477325,10.80621243","Address":"1/1, đường Trường Chinh, Quận Tân Phú","Lat":10.806212,"Lng":106.634773},{"StationId":2291,"StationOrder":11,"StationDirection":0,"RouteId":48,"StationName":"Trạm Tân Kỳ Tân Quý","pathPoints":"106.63477325,10.80621243 106.63497925,10.80623913 106.63541412,10.80489540 106.63526917,10.80480003","Address":"33/24 (659-661), đường Trường Chinh, Quận Tân Phú","Lat":10.8048,"Lng":106.635269},{"StationId":2392,"StationOrder":12,"StationDirection":0,"RouteId":48,"StationName":"Trạm Ngã ba Bà Quẹo","pathPoints":"106.63526917,10.80480003 106.63545990,10.80486012 106.63601685,10.80313015 106.63610840,10.80288029 106.63636780,10.80230999 106.63643646,10.80220032 106.63659668,10.80173397 106.63666534,10.80138016 106.63677979,10.80096436 106.63681030,10.80075932","Address":"971, đường Âu Cơ, Quận Tân Phú","Lat":10.800759,"Lng":106.636814},{"StationId":2395,"StationOrder":13,"StationDirection":0,"RouteId":48,"StationName":"Trạm chợ Võ Thành Trang","pathPoints":"106.63677979,10.80089283 106.63684082,10.80088520 106.63754272,10.79828167 106.63749695,10.79821110","Address":"885-887, đường Âu Cơ, Quận Tân Phú","Lat":10.798211,"Lng":106.637497},{"StationId":2394,"StationOrder":14,"StationDirection":0,"RouteId":48,"StationName":"Trạm Lũy Bán Bích","pathPoints":"106.63749695,10.79821110 106.63757324,10.79819775 106.63827515,10.79572105 106.63870239,10.79434013 106.63861847,10.79428291","Address":"825, đường Âu Cơ, Quận Tân Phú","Lat":10.794283,"Lng":106.638618},{"StationId":2396,"StationOrder":15,"StationDirection":0,"RouteId":48,"StationName":"Nguyễn Hồng Đào","pathPoints":"106.63861847,10.79428291 106.63871002,10.79426670 106.63996887,10.79056072","Address":"Đối diện 770, đường Âu Cơ, Quận Tân Phú","Lat":10.789466,"Lng":106.640253},{"StationId":2299,"StationOrder":16,"StationDirection":0,"RouteId":48,"StationName":"Trạm Ngã 4 Thoại Ngọc Hầu","pathPoints":"106.64025116,10.78946590 106.64030457,10.78948212 106.64078522,10.78803825 106.64123535,10.78660488","Address":"647, đường Âu Cơ, Quận Tân Phú","Lat":10.786605,"Lng":106.641235},{"StationId":2300,"StationOrder":17,"StationDirection":0,"RouteId":48,"StationName":"Bệnh viện Quân Tân Phú","pathPoints":"106.64123535,10.78660488 106.64171600,10.78549862 106.64211273,10.78441811 106.64233398,10.78371239","Address":"577 (1004-1008A), đường Âu Cơ, Quận Tân Phú","Lat":10.783712,"Lng":106.642334},{"StationId":2397,"StationOrder":18,"StationDirection":0,"RouteId":48,"StationName":"Bông Bạch Tuyết","pathPoints":"106.64233398,10.78371239 106.64236450,10.78368568 106.64282990,10.78227806 106.64325714,10.78135586 106.64369965,10.78062344","Address":"523, đường Âu Cơ, Quận Tân Phú","Lat":10.780623,"Lng":106.6437},{"StationId":2399,"StationOrder":19,"StationDirection":0,"RouteId":48,"StationName":"Trạm Chợ Trần Văn Quang","pathPoints":"106.64369965,10.78062344 106.64378357,10.78063965 106.64543152,10.77825260 106.64533234,10.77809429","Address":"425, đường Âu Cơ, Quận Tân Phú","Lat":10.778094,"Lng":106.645332},{"StationId":2398,"StationOrder":20,"StationDirection":0,"RouteId":48,"StationName":"Trạm Nhà Thiếu Nhi Q.TB","pathPoints":"106.64533234,10.77809429 106.64550781,10.77814674 106.64733124,10.77561760 106.64723969,10.77545929","Address":"309, đường Âu Cơ, Quận Tân Phú","Lat":10.775459,"Lng":106.64724},{"StationId":2401,"StationOrder":21,"StationDirection":0,"RouteId":48,"StationName":"Trường Phạm Ngọc Thạch","pathPoints":"106.64723969,10.77545929 106.64723969,10.77545929 106.64739990,10.77552795 106.64803314,10.77474022 106.64888763,10.77343082 106.64886475,10.77332973 106.64886475,10.77332973","Address":"185-189, đường Âu Cơ, Quận 11","Lat":10.77333,"Lng":106.648863},{"StationId":2400,"StationOrder":22,"StationDirection":0,"RouteId":48,"StationName":"Chợ Tân Phước","pathPoints":"106.64886475,10.77332973 106.64893341,10.77335167 106.65047455,10.77102184 106.65043640,10.77095318","Address":"113-115(105), đường Âu Cơ, Quận 11","Lat":10.770953,"Lng":106.650436},{"StationId":2404,"StationOrder":23,"StationDirection":0,"RouteId":48,"StationName":"Bình Thới","pathPoints":"106.65043640,10.77095318 106.65050507,10.77095890 106.65152740,10.76949883 106.65152740,10.76948261","Address":"27P, đường Âu Cơ, Quận 11","Lat":10.769483,"Lng":106.651524},{"StationId":2402,"StationOrder":24,"StationDirection":0,"RouteId":48,"StationName":"Trường Đua Phú Thọ","pathPoints":"106.65152740,10.76948261 106.65185547,10.76908779 106.65186310,10.76887703 106.65206146,10.76881886 106.65225220,10.76873016 106.65241241,10.76871872 106.65270233,10.76845551 106.65337372,10.76733017 106.65335846,10.76728058","Address":"407A, đường Lê Đại Hành, Quận 11","Lat":10.767281,"Lng":106.653358},{"StationId":2406,"StationOrder":25,"StationDirection":0,"RouteId":48,"StationName":"Tôn Thất Hiệp","pathPoints":"106.65335846,10.76728058 106.65341949,10.76730156 106.65463257,10.76555157 106.65461731,10.76548386","Address":"321, đường Lê Đại Hành, Quận 11","Lat":10.765484,"Lng":106.654617},{"StationId":2403,"StationOrder":26,"StationDirection":0,"RouteId":48,"StationName":"Đường 3/2","pathPoints":"106.65461731,10.76548386 106.65467834,10.76549435 106.65632629,10.76320171 106.65631866,10.76311684","Address":"157, đường Lê Đại Hành, Quận 11","Lat":10.763117,"Lng":106.656319},{"StationId":155,"StationOrder":27,"StationDirection":0,"RouteId":48,"StationName":"Phú Thọ","pathPoints":"106.65631866,10.76311684 106.65631866,10.76311684 106.65638733,10.76309109 106.65703583,10.76219463 106.65753937,10.76245022 106.65753937,10.76245022","Address":"957, đường Đường 3/2, Quận 11","Lat":10.762574,"Lng":106.657881},{"StationId":156,"StationOrder":28,"StationDirection":0,"RouteId":48,"StationName":"Ngã ba Nguyễn Kim","pathPoints":"106.65788269,10.76257420 106.65793610,10.76263714 106.66102600,10.76434994 106.66107941,10.76434040 106.66107941,10.76434040","Address":"781, đường Đường 3/2, Quận 10","Lat":10.76434,"Lng":106.661078},{"StationId":157,"StationOrder":29,"StationDirection":0,"RouteId":48,"StationName":"Nhà thờ tin lành Nguyễn Tri Phương","pathPoints":"106.66107941,10.76434040 106.66108704,10.76439762 106.66457367,10.76624203 106.66462708,10.76623154 106.66462708,10.76623154","Address":"635, đường Đường 3/2, Quận 10","Lat":10.766232,"Lng":106.664627},{"StationId":1397,"StationOrder":30,"StationDirection":0,"RouteId":48,"StationName":"Bệnh viện Nhi Đồng 1","pathPoints":"106.66462708,10.76623154 106.66465759,10.76629543 106.66783142,10.76801872 106.66822052,10.76791286 106.67031860,10.76782322 106.67037964,10.76776505","Address":"359, đường Lý Thái Tổ, Quận 10","Lat":10.767765,"Lng":106.67038},{"StationId":1398,"StationOrder":31,"StationDirection":0,"RouteId":48,"StationName":"Chợ Phường 10","pathPoints":"106.67037964,10.76776505 106.67047119,10.76784992 106.67329407,10.76770210 106.67335510,10.76762295","Address":"183, đường Lý Thái Tổ, Quận 10","Lat":10.767623,"Lng":106.673357},{"StationId":1404,"StationOrder":32,"StationDirection":0,"RouteId":48,"StationName":"Ngã ba Hồ Thị Kỷ","pathPoints":"106.67335510,10.76762295 106.67342377,10.76768589 106.67414856,10.76764393 106.67422485,10.76750755 106.67438507,10.76740742 106.67456055,10.76747513 106.67463684,10.76758099 106.67552948,10.76729107 106.67557526,10.76719570","Address":"87, đường Lý Thái Tổ, Quận 10","Lat":10.767196,"Lng":106.675572},{"StationId":1402,"StationOrder":33,"StationDirection":0,"RouteId":48,"StationName":"Nhà khách Chính Phủ","pathPoints":"106.67557526,10.76719570 106.67565155,10.76725960 106.67778778,10.76660061 106.67779541,10.76652241","Address":"Đối diện 180 (1B), đường Lý Thái Tổ, Quận 10","Lat":10.766522,"Lng":106.677799},{"StationId":1406,"StationOrder":34,"StationDirection":0,"RouteId":48,"StationName":"Ngã sáu Cộng Hòa","pathPoints":"106.67779541,10.76652241 106.67787933,10.76656914 106.68043518,10.76577854 106.68045044,10.76570988","Address":"Đối diện 30-32, đường Lý Thái Tổ, Quận 10","Lat":10.76571,"Lng":106.680449},{"StationId":2405,"StationOrder":35,"StationDirection":0,"RouteId":48,"StationName":"Nhà Sách Minh Khai","pathPoints":"106.68045044,10.76570988 106.68048859,10.76576233 106.68135834,10.76548862 106.68143463,10.76520920 106.68170929,10.76515102 106.68186951,10.76530933 106.68187714,10.76555729 106.68271637,10.76608944 106.68280029,10.76601982 106.68280029,10.76601982","Address":"59-61, đường Phạm Viết Chánh, Quận 1","Lat":10.76602,"Lng":106.6828},{"StationId":2407,"StationOrder":36,"StationDirection":0,"RouteId":48,"StationName":"Bệnh viện Truyền máu huyết học","pathPoints":"106.68280029,10.76601982 106.68270874,10.76614761 106.68502808,10.76765442 106.68508148,10.76759720","Address":"19-21, đường Phạm Viết Chánh, Quận 1","Lat":10.767597,"Lng":106.685084},{"StationId":164,"StationOrder":37,"StationDirection":0,"RouteId":48,"StationName":"Chợ Thái Bình","pathPoints":"106.68508148,10.76759720 106.68505859,10.76767540 106.68544769,10.76790237 106.68762970,10.76694870 106.68765259,10.76686287 106.68765259,10.76686287","Address":"A43, đường Cống Quỳnh, Quận 1","Lat":10.766863,"Lng":106.687653},{"StationId":35,"StationOrder":38,"StationDirection":0,"RouteId":48,"StationName":"Bến xe buýt Sài Gòn","pathPoints":"106.68765259,10.76686287 106.68801880,10.76673222 106.68820190,10.76662731 106.68835449,10.76657391 106.68849182,10.76666355 106.68849945,10.76676369 106.68862152,10.76682758 106.69048309,10.76755428 106.68991852,10.76846600 106.68919373,10.76817131 106.68936157,10.76767635","Address":"BẾN XE BUÝT SÀI GÒN, đường Lê Lai, Quận 1","Lat":10.767676,"Lng":106.689362},{"StationId":35,"StationOrder":0,"StationDirection":1,"RouteId":48,"StationName":"Bến xe buýt Sài Gòn","pathPoints":"","Address":"BẾN XE BUÝT SÀI GÒN, đường Lê Lai, Quận 1","Lat":10.767676,"Lng":106.689362},{"StationId":86,"StationOrder":1,"StationDirection":1,"RouteId":48,"StationName":"Nhà thờ Huyện Sỹ","pathPoints":"106.68936157,10.76767635 106.68936157,10.76767635 106.68936157,10.76767635 106.68957520,10.76721191 106.69049072,10.76756477 106.68993378,10.76845551 106.68895721,10.76809692 106.68859100,10.76769161 106.68859100,10.76769161 106.68859100,10.76769161","Address":"206Bis, đường Nguyễn Trãi, Quận 1","Lat":10.767692,"Lng":106.688591},{"StationId":88,"StationOrder":2,"StationDirection":1,"RouteId":48,"StationName":"Chợ Thái Bình","pathPoints":"106.68859100,10.76769161 106.68859100,10.76769161 106.68825531,10.76684284 106.68809509,10.76678467 106.68780518,10.76689529 106.68778992,10.76694298 106.68778992,10.76694298","Address":"244, đường Cống Quỳnh, Quận 1","Lat":10.766943,"Lng":106.687793},{"StationId":89,"StationOrder":3,"StationDirection":1,"RouteId":48,"StationName":"Trung ương Hội Chữ thập đỏ TP","pathPoints":"106.68778992,10.76694298 106.68775177,10.76692200 106.68444824,10.76831913 106.68432617,10.76829243 106.68373871,10.76768112 106.68365479,10.76772308","Address":"464 - 466, đường Nguyễn Thị Minh Khai, Quận 3","Lat":10.767723,"Lng":106.683657},{"StationId":90,"StationOrder":4,"StationDirection":1,"RouteId":48,"StationName":"Nhà sách Minh Khai","pathPoints":"106.68365479,10.76772308 106.68369293,10.76765442 106.68245697,10.76637363 106.68238068,10.76639462","Address":"488, đường Nguyễn Thị Minh Khai, Quận 3","Lat":10.766395,"Lng":106.68238},{"StationId":1409,"StationOrder":5,"StationDirection":1,"RouteId":48,"StationName":"Nhà khách Chính phủ","pathPoints":"106.68238068,10.76639462 106.68239594,10.76631069 106.68174744,10.76568890 106.68157196,10.76566792 106.68141174,10.76558876 106.68035126,10.76589489 106.68036652,10.76596260","Address":"120, đường Lý Thái Tổ, Quận 3","Lat":10.765963,"Lng":106.680363},{"StationId":1413,"StationOrder":6,"StationDirection":1,"RouteId":48,"StationName":"Nguyễn Đình Chiểu","pathPoints":"106.68036652,10.76596260 106.68027496,10.76592636 106.67810822,10.76660061 106.67810059,10.76667976","Address":"170, đường Lý Thái Tổ, Quận 3","Lat":10.76668,"Lng":106.678099},{"StationId":1416,"StationOrder":7,"StationDirection":1,"RouteId":48,"StationName":"Hồ Thị Kỷ","pathPoints":"106.67810059,10.76667976 106.67804718,10.76662159 106.67568970,10.76735973 106.67566681,10.76742268","Address":"306, đường Lý Thái Tổ, Quận 3","Lat":10.767423,"Lng":106.675664},{"StationId":1411,"StationOrder":8,"StationDirection":1,"RouteId":48,"StationName":"Chợ Phường 10","pathPoints":"106.67566681,10.76742268 106.67562866,10.76738071 106.67466736,10.76767063 106.67459106,10.76782894 106.67445374,10.76791286 106.67429352,10.76790237 106.67415619,10.76773930 106.67308807,10.76779175 106.67304993,10.76786518","Address":"430, đường Lý Thái Tổ, Quận 10","Lat":10.767865,"Lng":106.673051},{"StationId":1412,"StationOrder":9,"StationDirection":1,"RouteId":48,"StationName":"Bện viện Nhi Đồng 1","pathPoints":"106.67304993,10.76786518 106.67301178,10.76779652 106.66977692,10.76796532 106.66973877,10.76802921 106.66973877,10.76802921","Address":"532, đường Lý Thái Tổ, Quận 10","Lat":10.768029,"Lng":106.669739},{"StationId":98,"StationOrder":10,"StationDirection":1,"RouteId":48,"StationName":"Ngã ba Nguyễn Kim","pathPoints":"106.66973877,10.76802921 106.66973877,10.76802921 106.66973877,10.76802921 106.66973877,10.76802921 106.66969299,10.76795483 106.66830444,10.76801872 106.66796112,10.76817608 106.66188049,10.76491928 106.66174316,10.76497173 106.66174316,10.76497173 106.66174316,10.76497173","Address":"626-628, đường Đường 3/2, Quận 10","Lat":10.764972,"Lng":106.661743},{"StationId":100,"StationOrder":11,"StationDirection":1,"RouteId":48,"StationName":"Nhà sách Phương Nam","pathPoints":"106.66174316,10.76497173 106.66174316,10.76497173 106.66174316,10.76497173 106.66176605,10.76486683 106.65847778,10.76309109 106.65840912,10.76311493 106.65840912,10.76311493 106.65840912,10.76311493","Address":"940 (6B), đường Đường 3/2, Quận 11","Lat":10.763115,"Lng":106.658409},{"StationId":2410,"StationOrder":12,"StationDirection":1,"RouteId":48,"StationName":"Parkson","pathPoints":"106.65840912,10.76311493 106.65840149,10.76305962 106.65744781,10.76252651 106.65680695,10.76263714 106.65630341,10.76332760","Address":"Đối diện 195 (155), đường Lê Đại Hành, Quận 11","Lat":10.763655,"Lng":106.656218},{"StationId":2413,"StationOrder":13,"StationDirection":1,"RouteId":48,"StationName":"Tôn Thất Hiệp","pathPoints":"106.65630341,10.76332760 106.65634155,10.76336479 106.65480042,10.76553059","Address":"Đối diện 281 (265), đường Lê Đại Hành, Quận 11","Lat":10.765562,"Lng":106.65485},{"StationId":2412,"StationOrder":14,"StationDirection":1,"RouteId":48,"StationName":"Trường Đua Phú Thọ","pathPoints":"106.65480042,10.76553059 106.65357208,10.76731205 106.65361786,10.76734447","Address":"Đối diện 349, đường Lê Đại Hành, Quận 11","Lat":10.767344,"Lng":106.653616},{"StationId":2415,"StationOrder":15,"StationDirection":1,"RouteId":48,"StationName":"Siêu thị Coopmart","pathPoints":"106.65361786,10.76734447 106.65361786,10.76734447 106.65355682,10.76732254 106.65287781,10.76842976 106.65290070,10.76846600 106.65290070,10.76846600","Address":"2, đường Lê Đại Hành, Quận 11","Lat":10.768466,"Lng":106.652902},{"StationId":2414,"StationOrder":16,"StationDirection":1,"RouteId":48,"StationName":"Vòng xoay Lê Đại Hành","pathPoints":"106.65290070,10.76846600 106.65290070,10.76846600 106.65283203,10.76847172 106.65244293,10.76904106 106.65223694,10.76908779 106.65195465,10.76917267 106.65184784,10.76910877 106.65150452,10.76958370 106.65159607,10.76964664","Address":"52, đường Âu Cơ, Quận Tân Bình","Lat":10.769647,"Lng":106.651599},{"StationId":2417,"StationOrder":17,"StationDirection":1,"RouteId":48,"StationName":"Chợ Tân Phước","pathPoints":"106.65159607,10.76964664 106.65145874,10.76961517 106.65061951,10.77079582 106.64989471,10.77190208 106.65000153,10.77199173","Address":"130, đường Âu Cơ, Quận Tân Bình","Lat":10.771992,"Lng":106.65},{"StationId":2416,"StationOrder":18,"StationDirection":1,"RouteId":48,"StationName":"Ngã tư Lạc Long Quân","pathPoints":"106.65006256,10.77180958 106.64920044,10.77309895 106.64860535,10.77400970","Address":"274 (260), đường Âu Cơ, Quận Tân Bình","Lat":10.7744,"Lng":106.648423},{"StationId":2419,"StationOrder":19,"StationDirection":1,"RouteId":48,"StationName":"Ủy ban nhân dân Phường 10","pathPoints":"106.64842224,10.77439976 106.64831543,10.77434731 106.64706421,10.77602291 106.64716339,10.77611256","Address":"290 (Ủy ban nhân dân phường 10), đường Âu Cơ, Quận Tân Bình","Lat":10.776113,"Lng":106.647162},{"StationId":2418,"StationOrder":20,"StationDirection":1,"RouteId":48,"StationName":"Chợ Trần Văn Quang","pathPoints":"106.64716339,10.77611256 106.64704132,10.77604961 106.64613342,10.77727222 106.64543152,10.77829933 106.64552307,10.77836800","Address":"402, đường Âu Cơ, Quận Tân Bình","Lat":10.778368,"Lng":106.645526},{"StationId":2421,"StationOrder":21,"StationDirection":1,"RouteId":48,"StationName":"Công ty Bông Bạch Tuyết","pathPoints":"106.64552307,10.77836800 106.64541626,10.77831554 106.64360809,10.78091335 106.64370728,10.78098679","Address":"548 (Công ty Bạch Tuyết), đường Âu Cơ, Quận Tân Bình","Lat":10.780987,"Lng":106.643708},{"StationId":2199,"StationOrder":22,"StationDirection":1,"RouteId":48,"StationName":"Bệnh Viện Tân Phú","pathPoints":"106.64370728,10.78098679 106.64358521,10.78094006 106.64328766,10.78139305 106.64290619,10.78222561 106.64266968,10.78291035 106.64278412,10.78299046","Address":"584-590, đường Âu Cơ, Quận Tân Bình","Lat":10.78299,"Lng":106.642785},{"StationId":2195,"StationOrder":23,"StationDirection":1,"RouteId":48,"StationName":"Ngã tư Thoại Ngọc Hầu","pathPoints":"106.64278412,10.78299046 106.64264679,10.78296852 106.64188385,10.78528214 106.64199066,10.78533459","Address":"678, đường Âu Cơ, Quận Tân Bình","Lat":10.785335,"Lng":106.641991},{"StationId":2196,"StationOrder":24,"StationDirection":1,"RouteId":48,"StationName":"Bàu Cát 8","pathPoints":"106.64199066,10.78533459 106.64187622,10.78529263 106.64122772,10.78682613 106.64106750,10.78724289 106.64118195,10.78728962 106.64118195,10.78728962","Address":"722, đường Âu Cơ, Quận Tân Bình","Lat":10.78729,"Lng":106.641182},{"StationId":2420,"StationOrder":25,"StationDirection":1,"RouteId":48,"StationName":"Chợ Bàu Cát","pathPoints":"106.64118195,10.78728962 106.64118195,10.78728962 106.64105988,10.78727913 106.64012146,10.79023075 106.64022064,10.79029369","Address":"794, đường Âu Cơ, Quận Tân Bình","Lat":10.790294,"Lng":106.640221},{"StationId":2423,"StationOrder":26,"StationDirection":1,"RouteId":48,"StationName":"Công ty Giấy Mai Lan","pathPoints":"106.64022064,10.79029369 106.64009857,10.79025173 106.63885498,10.79391384 106.63898468,10.79397202","Address":"129, đường Âu Cơ, Quận Tân Bình","Lat":10.793972,"Lng":106.638982},{"StationId":2422,"StationOrder":27,"StationDirection":1,"RouteId":48,"StationName":"Ngã ba Ba Vân","pathPoints":"106.63898468,10.79397202 106.63883972,10.79394531 106.63822937,10.79594803 106.63835144,10.79599953","Address":"928, đường Âu Cơ, Quận Tân Bình","Lat":10.796,"Lng":106.638349},{"StationId":2425,"StationOrder":28,"StationDirection":1,"RouteId":48,"StationName":"Chợ Võ Thành Trang","pathPoints":"106.63835144,10.79599953 106.63822174,10.79598999 106.63745117,10.79866123 106.63757324,10.79870892","Address":"988-990, đường Âu Cơ, Quận Tân Bình","Lat":10.798709,"Lng":106.637576},{"StationId":2424,"StationOrder":29,"StationDirection":1,"RouteId":48,"StationName":"Ngã ba Bà Quẹo","pathPoints":"106.63757324,10.79870892 106.63745117,10.79869843 106.63692474,10.80060577 106.63704681,10.80067444","Address":"1064, đường Âu Cơ, Quận Tân Bình","Lat":10.800674,"Lng":106.637045},{"StationId":1302,"StationOrder":30,"StationDirection":1,"RouteId":48,"StationName":"Ngã tư Tân Kỳ Tân Quý","pathPoints":"106.63704681,10.80067444 106.63691711,10.80065823 106.63654327,10.80213451 106.63610840,10.80295563 106.63555908,10.80469513 106.63562775,10.80473232","Address":"638, đường Trường Chinh, Quận Tân Bình","Lat":10.804732,"Lng":106.635629},{"StationId":2202,"StationOrder":31,"StationDirection":1,"RouteId":48,"StationName":"Siêu thị Big C","pathPoints":"106.63562775,10.80473232 106.63556671,10.80474281 106.63513184,10.80617046 106.63518524,10.80620193","Address":"680, đường Trường Chinh, Quận Tân Bình","Lat":10.806202,"Lng":106.635184},{"StationId":268,"StationOrder":32,"StationDirection":1,"RouteId":48,"StationName":"Mũi tàu Cộng Hòa","pathPoints":"106.63518524,10.80620193 106.63511658,10.80621815 106.63491058,10.80690289 106.63487244,10.80759811 106.63466644,10.80801964 106.63469696,10.80807781","Address":"19B1, đường Trường Chinh, Quận Tân Bình","Lat":10.808078,"Lng":106.634696},{"StationId":267,"StationOrder":33,"StationDirection":1,"RouteId":48,"StationName":"Ngã ba Chế Lan Viên","pathPoints":"106.63469696,10.80807781 106.63462830,10.80806732 106.63436127,10.80879974 106.63346100,10.81161880 106.63349915,10.81169510 106.63349915,10.81169510","Address":"Đối diện đường Chế Lan Viên, đường Trường Chinh, Quận Tân Bình","Lat":10.812204,"Lng":106.633349},{"StationId":270,"StationOrder":34,"StationDirection":1,"RouteId":48,"StationName":"UBND Phường 15","pathPoints":"106.63334656,10.81220436 106.63169098,10.81754112 106.63146210,10.81833172","Address":"850, đường Trường Chinh, Quận Tân Bình","Lat":10.818332,"Lng":106.631461},{"StationId":271,"StationOrder":35,"StationDirection":1,"RouteId":48,"StationName":"Khu Công Nghiệp Tân Bình","pathPoints":"106.63146210,10.81833172 106.63044739,10.82164383 106.63025665,10.82245159","Address":"932, đường Trường Chinh, Quận Tân Bình","Lat":10.822452,"Lng":106.630254},{"StationId":272,"StationOrder":36,"StationDirection":1,"RouteId":48,"StationName":"Cầu Tham Lương - Siêu thị Thiên Hòa","pathPoints":"106.63025665,10.82245159 106.62979126,10.82302094 106.62933350,10.82344246 106.62625122,10.82635117 106.62583160,10.82695675 106.62583160,10.82695675 106.62583160,10.82695675 106.62583160,10.82695675","Address":"60A-B (1/17A), đường Trường Chinh, Quận 12","Lat":10.826957,"Lng":106.625828},{"StationId":273,"StationOrder":37,"StationDirection":1,"RouteId":48,"StationName":"Chùa Vĩnh Phước","pathPoints":"106.62583160,10.82695675 106.62583160,10.82695675 106.62583160,10.82695675 106.62500763,10.82784748 106.62459564,10.82862663 106.62459564,10.82862663 106.62459564,10.82862663","Address":"110 (189/4), đường Trường Chinh, Quận 12","Lat":10.828627,"Lng":106.624594},{"StationId":275,"StationOrder":38,"StationDirection":1,"RouteId":48,"StationName":"Chùa Lạc Quang","pathPoints":"106.62459564,10.82862663 106.62459564,10.82862663 106.62459564,10.82862663 106.62252045,10.83172512 106.62061310,10.83478069 106.62061310,10.83478069 106.62061310,10.83478069","Address":"408, đường Trường Chinh, Quận 12","Lat":10.834781,"Lng":106.620614},{"StationId":277,"StationOrder":39,"StationDirection":1,"RouteId":48,"StationName":"Bitis","pathPoints":"106.62061310,10.83478069 106.62061310,10.83478069 106.62061310,10.83478069 106.61933136,10.83654118 106.61840057,10.83822155 106.61840057,10.83822155 106.61840057,10.83822155","Address":"590 (640), đường Trường Chinh, Quận 12","Lat":10.838222,"Lng":106.618398},{"StationId":1115,"StationOrder":40,"StationDirection":1,"RouteId":48,"StationName":"Bến xe An Sương","pathPoints":"106.61840057,10.83822155 106.61840057,10.83822155 106.61840057,10.83822155 106.61840057,10.83822155 106.61840057,10.83822155 106.61664581,10.84064579 106.61558533,10.84245205 106.61567688,10.84259987 106.61566162,10.84274197 106.61561584,10.84288979 106.61542511,10.84300041 106.61524200,10.84301090 106.61395264,10.84496021 106.61351776,10.84580326 106.61351776,10.84580326 106.61351776,10.84580326 106.61351776,10.84580326 106.61351776,10.84580326","Address":"F42, đường Quốc lộ 22, Quận 12","Lat":10.845803,"Lng":106.613517},{"StationId":166,"StationOrder":41,"StationDirection":1,"RouteId":48,"StationName":"Bến xe An Sương","pathPoints":"106.61351776,10.84580326 106.61343384,10.84579849 106.61246490,10.84728336 106.61235046,10.84719944 106.61411285,10.84443378 106.61328888,10.84383774 106.61337280,10.84373760","Address":"Bến xe An Sương, đường Quốc lộ 22, Quận 12","Lat":10.843737602233887,"Lng":106.61337280273438}]