[{"StationId":2745,"StationOrder":0,"StationDirection":0,"RouteId":57,"StationName":"Bến xe buýt Thới An","pathPoints":"","Address":"BẾN XE BUÝT THỚI AN, đường Lê Văn Khương, Quận 12","Lat":10.878467,"Lng":106.64798},{"StationId":1746,"StationOrder":1,"StationDirection":0,"RouteId":57,"StationName":"UBND Phường Thới An","pathPoints":"106.64797974,10.87846661 106.64892578,10.87841415 106.64907074,10.87550640 106.64899445,10.87549591","Address":"Đài liệt sĩ, đường Lê Văn Khương, Quận 12","Lat":10.875496,"Lng":106.648997},{"StationId":1745,"StationOrder":2,"StationDirection":0,"RouteId":57,"StationName":"Bảo hiểm xã hội Quận 12","pathPoints":"106.64899445,10.87549591 106.64915466,10.87248802","Address":"251, đường Lê Văn Khương, Quận 12","Lat":10.872488,"Lng":106.649158},{"StationId":1748,"StationOrder":3,"StationDirection":0,"RouteId":57,"StationName":"Công ty Bia Tiger","pathPoints":"106.64915466,10.87248802 106.64918518,10.87142372 106.64935303,10.86850452","Address":"119, đường Lê Văn Khương, Quận 12","Lat":10.868505,"Lng":106.649351},{"StationId":1747,"StationOrder":4,"StationDirection":0,"RouteId":57,"StationName":"Metro Hiệp Phú","pathPoints":"106.64935303,10.86850452 106.64944458,10.86846256 106.64969635,10.86286259 106.64958954,10.86284733","Address":"Metro Hiệp Phú, đường Lê Văn Khương, Quận 12","Lat":10.863379,"Lng":106.649619},{"StationId":973,"StationOrder":5,"StationDirection":0,"RouteId":57,"StationName":"Nhà thờ Nữ Vương Hòa Bình","pathPoints":"106.64964294,10.86276817 106.64980316,10.86125088 106.64985657,10.86099720 106.64997101,10.86074448 106.65338135,10.85738373 106.65380859,10.85684109","Address":"Đối diện nhà thờ Nữ Vương Hòa Bình, đường Lê Đức Thọ, Quận Gò Vấp","Lat":10.856836,"Lng":106.653825},{"StationId":2755,"StationOrder":6,"StationDirection":0,"RouteId":57,"StationName":"Cầu Cụt","pathPoints":"106.65382385,10.85683632 106.65380859,10.85684109 106.65485382,10.85601330 106.65582275,10.85507584 106.65688324,10.85439110 106.65682220,10.85433769","Address":"1181, đường Lê Đức Thọ, Quận Gò Vấp","Lat":10.854338,"Lng":106.656824},{"StationId":4740,"StationOrder":7,"StationDirection":0,"RouteId":57,"StationName":"Trường Lê Thị Hồng Gấm","pathPoints":"106.65682220,10.85433769 106.65686035,10.85439587 106.65871429,10.85339260 106.66059875,10.85244656 106.66127014,10.85267353 106.66131592,10.85262585","Address":"624, đường Phạm Văn Chiêu, Quận Gò Vấp","Lat":10.852626,"Lng":106.661314},{"StationId":2621,"StationOrder":8,"StationDirection":0,"RouteId":57,"StationName":"Nhà thờ Hợp An","pathPoints":"106.66131592,10.85262585 106.66131592,10.85262585 106.66129303,10.85266304 106.66439819,10.85376930 106.66444397,10.85370064 106.66444397,10.85370064","Address":"778, đường Phạm Văn Chiêu, Quận Gò Vấp","Lat":10.853701,"Lng":106.664447},{"StationId":2623,"StationOrder":9,"StationDirection":0,"RouteId":57,"StationName":"Nhà Thờ Hà Nội","pathPoints":"106.66444397,10.85370064 106.66439819,10.85379028 106.66551208,10.85418034 106.66549683,10.85346413 106.66518402,10.85105610 106.66510773,10.85108185","Address":"687, đường Thống Nhất, Quận Gò Vấp","Lat":10.851082,"Lng":106.665106},{"StationId":2758,"StationOrder":10,"StationDirection":0,"RouteId":57,"StationName":"Chùa Tiên Long","pathPoints":"106.66510773,10.85108185 106.66514587,10.85103989 106.66495514,10.84983921 106.66449738,10.84798527 106.66449738,10.84798527","Address":"537, đường Thống Nhất, Quận Gò Vấp","Lat":10.847985,"Lng":106.6645},{"StationId":2759,"StationOrder":11,"StationDirection":0,"RouteId":57,"StationName":"Trường Đại học Hồng Bàng","pathPoints":"106.66449738,10.84798527 106.66459656,10.84690952 106.66472626,10.84583473 106.66471100,10.84520817","Address":"429, đường Thống Nhất, Quận Gò Vấp","Lat":10.844581,"Lng":106.664661},{"StationId":2760,"StationOrder":12,"StationDirection":0,"RouteId":57,"StationName":"UBND Phường 16","pathPoints":"106.66465759,10.84458065 106.66472626,10.84447575 106.66464233,10.84366417 106.66464233,10.84249973","Address":"375 (109A), đường Thống Nhất, Quận Gò Vấp","Lat":10.8425,"Lng":106.66464},{"StationId":1754,"StationOrder":13,"StationDirection":0,"RouteId":57,"StationName":"Ngã ba Nguyễn Văn Lượng","pathPoints":"106.66466522,10.84211540 106.66500092,10.84042931 106.66528320,10.83973408 106.66524506,10.83922291","Address":"303, đường Thống Nhất, Quận Gò Vấp","Lat":10.839223,"Lng":106.665245},{"StationId":2761,"StationOrder":14,"StationDirection":0,"RouteId":57,"StationName":"Chợ Thông Tây","pathPoints":"106.66524506,10.83922291 106.66524506,10.83922291 106.66525269,10.83865929 106.66470337,10.83631992","Address":"195, đường Thống Nhất, Quận Gò Vấp","Lat":10.83632,"Lng":106.664704},{"StationId":2762,"StationOrder":15,"StationDirection":0,"RouteId":57,"StationName":"Chợ Thông Tây","pathPoints":"106.66470337,10.83631992 106.66470337,10.83631992 106.66474152,10.83631420 106.66462708,10.83561897 106.66471100,10.83542442 106.66586304,10.83500767 106.66586304,10.83500767","Address":"1417, đường Phan Văn Trị, Quận Gò Vấp","Lat":10.835008,"Lng":106.665863},{"StationId":2763,"StationOrder":16,"StationDirection":0,"RouteId":57,"StationName":"Country House","pathPoints":"106.66586304,10.83500767 106.66596222,10.83503914 106.66897583,10.83393860 106.66901398,10.83386993","Address":"1319, đường Phan Văn Trị, Quận Gò Vấp","Lat":10.83387,"Lng":106.669012},{"StationId":2764,"StationOrder":17,"StationDirection":0,"RouteId":57,"StationName":"Nhà khách Phía Nam","pathPoints":"106.66901398,10.83386993 106.66908264,10.83389568 106.67195892,10.83284187 106.67198944,10.83277416","Address":"1195-1197, đường Phan Văn Trị, Quận Gò Vấp","Lat":10.832774,"Lng":106.671989},{"StationId":2766,"StationOrder":18,"StationDirection":0,"RouteId":57,"StationName":"Du Miên Garden","pathPoints":"106.67198944,10.83277416 106.67198944,10.83277416 106.67205811,10.83281040 106.67426300,10.83201027 106.67424011,10.83193588","Address":"7, đường Phan Văn Trị, Quận Gò Vấp","Lat":10.831936,"Lng":106.674237},{"StationId":2765,"StationOrder":19,"StationDirection":0,"RouteId":57,"StationName":"Ngã tư Nguyễn Oanh","pathPoints":"106.67424011,10.83193588 106.67425537,10.83202076 106.67677307,10.83110332 106.67671967,10.83105087","Address":"1071, đường Phan Văn Trị, Quận Gò Vấp","Lat":10.831051,"Lng":106.67672},{"StationId":2768,"StationOrder":20,"StationDirection":0,"RouteId":57,"StationName":"Cây xăng Petrolimex","pathPoints":"106.67671967,10.83105087 106.67671967,10.83105087 106.67680359,10.83114529 106.67902374,10.83036041 106.67909241,10.83028221","Address":"1013, đường Phan Văn Trị, Quận Gò Vấp","Lat":10.830261,"Lng":106.679065},{"StationId":2772,"StationOrder":21,"StationDirection":0,"RouteId":57,"StationName":"Coop Mart","pathPoints":"106.67909241,10.83028221 106.67916107,10.83031368 106.68135834,10.82958031 106.68144989,10.82949734","Address":"893, đường Phan Văn Trị, Quận Gò Vấp","Lat":10.82946,"Lng":106.681441},{"StationId":2770,"StationOrder":22,"StationDirection":0,"RouteId":57,"StationName":"PCCC Quận Gò Vấp","pathPoints":"106.68144989,10.82949734 106.68153381,10.82952785 106.68526459,10.82832241","Address":"771, đường Phan Văn Trị, Quận Gò Vấp","Lat":10.828237,"Lng":106.685234},{"StationId":2767,"StationOrder":23,"StationDirection":0,"RouteId":57,"StationName":"Vincom Plaza","pathPoints":"106.68526459,10.82832241 106.68751526,10.82758427","Address":"689, đường Phan Văn Trị, Quận Gò Vấp","Lat":10.8275,"Lng":106.687455},{"StationId":1766,"StationOrder":24,"StationDirection":0,"RouteId":57,"StationName":"Bãi hậu cần số 1","pathPoints":"106.68751526,10.82758427 106.68807983,10.82739925 106.69219208,10.82360554 106.69216156,10.82355881 106.69216156,10.82355881","Address":"439, đường Phan Văn Trị, Quận Gò Vấp","Lat":10.823537,"Lng":106.692106},{"StationId":1767,"StationOrder":25,"StationDirection":0,"RouteId":57,"StationName":"Chùa Giác Quang","pathPoints":"106.69216156,10.82355881 106.69216156,10.82355881 106.69216156,10.82355881 106.69216156,10.82355881 106.69216156,10.82355881 106.69216156,10.82355881 106.69216156,10.82355881 106.69216156,10.82355881 106.69216156,10.82355881 106.69216156,10.82355881 106.69216156,10.82355881 106.69221497,10.82359505 106.69315338,10.82271576 106.69337463,10.82239914 106.69364929,10.82148266 106.69398499,10.82073975 106.69389343,10.82066059 106.69390869,10.82052326 106.69400787,10.82041836 106.69415283,10.82041836 106.69441223,10.81985474 106.69458008,10.81928539 106.69449615,10.81926441 106.69449615,10.81926441","Address":"189, đường Phan Văn Trị, Quận Bình Thạnh","Lat":10.819264,"Lng":106.694493},{"StationId":1769,"StationOrder":26,"StationDirection":0,"RouteId":57,"StationName":"Chợ Phan Văn Trị","pathPoints":"106.69449615,10.81926441 106.69449615,10.81926441 106.69457245,10.81927967 106.69515991,10.81782627 106.69532013,10.81733036 106.69523621,10.81641388 106.69523621,10.81323147 106.69515991,10.81323624 106.69515991,10.81323624","Address":"235, đường Phan Văn Trị, Quận Bình Thạnh","Lat":10.813236,"Lng":106.695163},{"StationId":1768,"StationOrder":27,"StationDirection":0,"RouteId":57,"StationName":"Nhà thờ Bình Hòa","pathPoints":"106.69515991,10.81323624 106.69525909,10.81316757 106.69522858,10.81229305 106.69517517,10.81175041 106.69528961,10.81148720 106.69546509,10.81126022 106.69518280,10.81051254 106.69509888,10.80992699 106.69503784,10.80990601","Address":"89, đường Nơ Trang Long, Quận Bình Thạnh","Lat":10.809906,"Lng":106.695035},{"StationId":2107,"StationOrder":28,"StationDirection":0,"RouteId":57,"StationName":"Hồ bơi Đại Đồng","pathPoints":"106.69503784,10.80990601 106.69503784,10.80990601 106.69509888,10.80982971 106.69507599,10.80832005 106.69502258,10.80699730 106.69495392,10.80699158 106.69495392,10.80699158","Address":"27, đường Nơ Trang Long, Quận Bình Thạnh","Lat":10.806992,"Lng":106.694954},{"StationId":2110,"StationOrder":29,"StationDirection":0,"RouteId":57,"StationName":"Bệnh Viện Gia Định","pathPoints":"106.69495392,10.80699158 106.69495392,10.80699158 106.69504547,10.80694008 106.69496155,10.80398369 106.69488525,10.80398369 106.69488525,10.80398369","Address":"1, đường Nơ Trang Long, Quận Bình Thạnh","Lat":10.803984,"Lng":106.694884},{"StationId":422,"StationOrder":30,"StationDirection":0,"RouteId":57,"StationName":"UBND Quận Bình Thạnh","pathPoints":"106.69488525,10.80398369 106.69494629,10.80398369 106.69490814,10.80271912 106.69515991,10.80269814 106.69515228,10.80266571","Address":"3, đường Phan Đăng Lưu, Quận Bình Thạnh","Lat":10.802666,"Lng":106.695153},{"StationId":2037,"StationOrder":31,"StationDirection":0,"RouteId":57,"StationName":"Lăng Ông Bà Chiểu","pathPoints":"106.69515228,10.80266571 106.69654083,10.80250835 106.69650269,10.80177593 106.69643402,10.80180740","Address":"129, đường Đinh Tiên Hoàng, Quận Bình Thạnh","Lat":10.801807,"Lng":106.696435},{"StationId":2034,"StationOrder":32,"StationDirection":0,"RouteId":57,"StationName":"Bệnh viện Bình Thạnh","pathPoints":"106.69643402,10.80180740 106.69652557,10.80171204 106.69623566,10.79761314 106.69615173,10.79757118","Address":"95, đường Đinh Tiên Hoàng, Quận Bình Thạnh","Lat":10.797571,"Lng":106.69615},{"StationId":2112,"StationOrder":33,"StationDirection":0,"RouteId":57,"StationName":"Cầu Bông","pathPoints":"106.69615173,10.79757118 106.69622803,10.79757118 106.69609833,10.79523087 106.69601440,10.79524708","Address":"51, đường Đinh Tiên Hoàng, Quận Bình Thạnh","Lat":10.795247,"Lng":106.696011},{"StationId":4269,"StationOrder":34,"StationDirection":0,"RouteId":57,"StationName":"Đa Kao","pathPoints":"106.69601440,10.79524708 106.69601440,10.79524708 106.69608307,10.79522038 106.69601440,10.79393482 106.69587708,10.79272270 106.69519806,10.79262161 106.69519806,10.79262161 106.69519806,10.79262161 106.69519806,10.79262161","Address":"30, đường Trần Quang Khải, Quận 1","Lat":10.792622,"Lng":106.695195},{"StationId":4270,"StationOrder":35,"StationDirection":0,"RouteId":57,"StationName":"Nguyễn Hữu Cầu","pathPoints":"106.69519806,10.79262161 106.69519806,10.79262161 106.69272614,10.79216385 106.69268799,10.79221153","Address":"98-100, đường Trần Quang Khải, Quận 1","Lat":10.792212,"Lng":106.69269},{"StationId":234,"StationOrder":36,"StationDirection":0,"RouteId":57,"StationName":"Chợ Tân Định","pathPoints":"106.69268799,10.79221153 106.69268799,10.79215336 106.69143677,10.79193211 106.69148254,10.79177952 106.69142151,10.79160595 106.69113159,10.79108906 106.69001007,10.78939247 106.69045258,10.78905010 106.69044495,10.78897190 106.69044495,10.78897190","Address":"295, đường Hai Bà Trưng, Quận 3","Lat":10.788972,"Lng":106.690445},{"StationId":2769,"StationOrder":37,"StationDirection":0,"RouteId":57,"StationName":"Phạm Ngọc Thạch","pathPoints":"106.69044495,10.78897190 106.69044495,10.78897190 106.69193268,10.78785419 106.69109344,10.78702068 106.69183350,10.78624153 106.69183350,10.78624153","Address":"61-63, đường Phạm Ngọc Thạch, Quận 3","Lat":10.786242,"Lng":106.691833},{"StationId":2565,"StationOrder":38,"StationDirection":0,"RouteId":57,"StationName":"Điện Biên Phủ","pathPoints":"106.69183350,10.78624153 106.69190979,10.78627300 106.69342804,10.78494453 106.69338989,10.78485489","Address":"43, đường Phạm Ngọc Thạch, Quận 3","Lat":10.784824,"Lng":106.693372},{"StationId":2566,"StationOrder":39,"StationDirection":0,"RouteId":57,"StationName":"Đại học Kinh tế","pathPoints":"106.69337463,10.78482437 106.69348145,10.78491879 106.69524384,10.78328514 106.69519806,10.78321075","Address":"17, đường Phạm Ngọc Thạch, Quận 3","Lat":10.783211,"Lng":106.695201},{"StationId":2567,"StationOrder":40,"StationDirection":0,"RouteId":57,"StationName":"Nhà Văn Hóa Thanh Niên","pathPoints":"106.69519806,10.78321075 106.69525146,10.78324318 106.69559479,10.78295326 106.69551849,10.78271008 106.69559479,10.78237820 106.69593811,10.78227806 106.69618988,10.78236294 106.69680786,10.78180981 106.69679260,10.78174114 106.69679260,10.78174114","Address":"3-5, đường Phạm Ngọc Thạch, Quận 3","Lat":10.781741,"Lng":106.696794},{"StationId":2568,"StationOrder":41,"StationDirection":0,"RouteId":57,"StationName":"Nhà Thờ Đức Bà","pathPoints":"106.69679260,10.78174114 106.69679260,10.78174114 106.69684601,10.78179932 106.69844818,10.78034973 106.69845581,10.78014374 106.69859314,10.77987003 106.69921112,10.77930069 106.69915771,10.77923298 106.69915771,10.77923298","Address":"1, đường Công xã Paris, Quận 1","Lat":10.779233,"Lng":106.699154},{"StationId":2771,"StationOrder":42,"StationDirection":0,"RouteId":57,"StationName":"Pasteur","pathPoints":"106.69915771,10.77923298 106.69922638,10.77927017 106.69975281,10.77883720 106.69924164,10.77827358 106.69918823,10.77830982","Address":"84, đường Nguyễn Du, Quận 1","Lat":10.77831,"Lng":106.699192},{"StationId":2774,"StationOrder":43,"StationDirection":0,"RouteId":57,"StationName":"Nam Kỳ Khởi Nghĩa","pathPoints":"106.69918823,10.77830982 106.69918823,10.77830982 106.69921875,10.77824211 106.69834137,10.77724552 106.69825745,10.77725601 106.69825745,10.77725601","Address":"100, đường Nguyễn Du, Quận 1","Lat":10.777256,"Lng":106.698259},{"StationId":200,"StationOrder":44,"StationDirection":0,"RouteId":57,"StationName":"Tòa án Nhân dân Thành Phố","pathPoints":"106.69825745,10.77725601 106.69829559,10.77719879 106.69798279,10.77677727 106.69869995,10.77613926 106.69864655,10.77605247","Address":"131, đường Nam Kỳ Khởi Nghĩa, Quận 1","Lat":10.776052,"Lng":106.698647},{"StationId":199,"StationOrder":45,"StationDirection":0,"RouteId":57,"StationName":"Chùa Ông","pathPoints":"106.69864655,10.77605247 106.69875336,10.77610207 106.69905090,10.77583885 106.69981384,10.77404690 106.69972229,10.77395725","Address":"Đối diện 96A, đường Nam Kỳ Khởi Nghĩa, Quận 1","Lat":10.773957,"Lng":106.699722},{"StationId":201,"StationOrder":46,"StationDirection":0,"RouteId":57,"StationName":"Trường CĐKT Cao Thắng","pathPoints":"106.69972229,10.77395725 106.69972229,10.77395725 106.69984436,10.77394199 106.70088959,10.77151203 106.70085144,10.77141571 106.70085144,10.77141571","Address":"Đối diện 86, đường Nam Kỳ Khởi Nghĩa, Quận 1","Lat":10.771416,"Lng":106.700851},{"StationId":7272,"StationOrder":47,"StationDirection":0,"RouteId":57,"StationName":"Trạm Trung chuyển trên đường Hàm Nghi","pathPoints":"106.70085144,10.77141571 106.70102692,10.77111721 106.70010376,10.77115440","Address":"Hàm Nghi 14, đường Hàm Nghi, Quận 1","Lat":10.771254,"Lng":106.699525},{"StationId":7273,"StationOrder":48,"StationDirection":0,"RouteId":57,"StationName":"Khách sạn New World","pathPoints":"106.69952393,10.77125359 106.69876099,10.77132797 106.69882965,10.77155399 106.69877625,10.77178097 106.69861603,10.77193928 106.69832611,10.77192307 106.69807434,10.77175426 106.69594574,10.77096367","Address":"Đối diện cây xanh số 105, đường Lê Lai, Quận 1","Lat":10.770964,"Lng":106.695946},{"StationId":7274,"StationOrder":49,"StationDirection":0,"RouteId":57,"StationName":"Nguyễn Thị Nghĩa","pathPoints":"106.69594574,10.77096367 106.69594574,10.77096367 106.69595337,10.77092171 106.69351959,10.76990986 106.69349670,10.76995182 106.69349670,10.76995182","Address":"94-96, đường Lê Lai, Quận 1","Lat":10.769952,"Lng":106.693495},{"StationId":7275,"StationOrder":50,"StationDirection":0,"RouteId":57,"StationName":"Tôn Thất Tùng","pathPoints":"106.69349670,10.76995182 106.69351196,10.76987362 106.69049835,10.76869774 106.69046783,10.76876068","Address":"202-204, đường Lê Lai, Quận 1","Lat":10.768761,"Lng":106.690469},{"StationId":35,"StationOrder":51,"StationDirection":0,"RouteId":57,"StationName":"Bến xe buýt Sài Gòn","pathPoints":"106.69046783,10.76876068 106.69050598,10.76870823 106.68921661,10.76814461 106.68936157,10.76767635","Address":"BẾN XE BUÝT SÀI GÒN, đường Lê Lai, Quận 1","Lat":10.767676,"Lng":106.689362},{"StationId":35,"StationOrder":0,"StationDirection":1,"RouteId":57,"StationName":"Bến xe buýt Sài Gòn","pathPoints":"","Address":"BẾN XE BUÝT SÀI GÒN, đường Lê Lai, Quận 1","Lat":10.767676,"Lng":106.689362},{"StationId":7276,"StationOrder":1,"StationDirection":1,"RouteId":57,"StationName":"Tôn Thất Tùng","pathPoints":"106.68936157,10.76767635 106.68955994,10.76718521 106.69094086,10.76766968","Address":"277-279-275Y, đường Phạm Ngũ Lão, Quận 1","Lat":10.76767,"Lng":106.690941},{"StationId":7277,"StationOrder":2,"StationDirection":1,"RouteId":57,"StationName":"Nguyễn Thị Nghĩa","pathPoints":"106.69094086,10.76766968 106.69089508,10.76772308 106.69366455,10.76882458 106.69370270,10.76878834","Address":"187, đường Phạm Ngũ Lão, Quận 1","Lat":10.768788,"Lng":106.693699},{"StationId":7278,"StationOrder":3,"StationDirection":1,"RouteId":57,"StationName":"Trường Emst Thalmann","pathPoints":"106.69370270,10.76878834 106.69366455,10.76887226 106.69554138,10.76958847 106.69558716,10.76950359","Address":"Trường Emst Thalmann, đường Phạm Ngũ Lão, Quận 1","Lat":10.769504,"Lng":106.695587},{"StationId":7264,"StationOrder":4,"StationDirection":1,"RouteId":57,"StationName":"Trạm Trung chuyển trên đường Hàm Nghi","pathPoints":"106.69558716,10.76950359 106.69612885,10.76976299 106.69644165,10.76911449 106.69766998,10.77047920 106.69908142,10.77096462 106.69992065,10.77092743","Address":"Hàm nghi 3, đường Hàm Nghi, Quận 1","Lat":10.770985,"Lng":106.700758},{"StationId":1256,"StationOrder":5,"StationDirection":1,"RouteId":57,"StationName":"Chợ Cũ","pathPoints":"106.70075989,10.77098465 106.70199585,10.77081108","Address":"89A, đường Hàm Nghi, Quận 1","Lat":10.770811,"Lng":106.701998},{"StationId":4271,"StationOrder":6,"StationDirection":1,"RouteId":57,"StationName":"Đền Thờ Ấn Giáo, Pasteur","pathPoints":"106.70199585,10.77081108 106.70259094,10.77077961 106.70139313,10.77359486","Address":"Đền Thờ Ấn Giáo, đường Pasteur, Quận 1","Lat":10.773595,"Lng":106.70139},{"StationId":2724,"StationOrder":7,"StationDirection":1,"RouteId":57,"StationName":"Lê Thánh Tôn","pathPoints":"106.70139313,10.77359486 106.70076752,10.77508831","Address":"144, đường Pasteur, Quận 1","Lat":10.775088,"Lng":106.700768},{"StationId":4272,"StationOrder":8,"StationDirection":1,"RouteId":57,"StationName":"Lý Tự Trọng","pathPoints":"106.70076752,10.77508831 106.70076752,10.77508831 106.70070648,10.77512741 106.69995117,10.77685070 106.69965363,10.77708912 106.69965363,10.77708912","Address":"158, đường Pasteur, Quận 1","Lat":10.777089,"Lng":106.699657},{"StationId":4273,"StationOrder":9,"StationDirection":1,"RouteId":57,"StationName":"Lê Duẫn","pathPoints":"106.69965363,10.77708912 106.69833374,10.77830791","Address":"178, đường Pasteur, Quận 1","Lat":10.778307999999999,"Lng":106.698333},{"StationId":2704,"StationOrder":10,"StationDirection":1,"RouteId":57,"StationName":"Nhà Văn Hóa Thanh Niên","pathPoints":"106.69833374,10.77830791 106.69833374,10.77830791 106.69824982,10.77833652 106.69732666,10.77918530 106.69844818,10.78037643 106.69685364,10.78180981 106.69687653,10.78186226 106.69687653,10.78186226","Address":"6B-8, đường Phạm Ngọc Thạch, Quận 3","Lat":10.781862,"Lng":106.696874},{"StationId":2706,"StationOrder":11,"StationDirection":1,"RouteId":57,"StationName":"Đại học Kinh tế","pathPoints":"106.69687653,10.78186226 106.69680786,10.78183079 106.69618988,10.78236294 106.69631958,10.78249931 106.69635773,10.78267860 106.69631958,10.78285313 106.69622803,10.78299999 106.69609070,10.78306866 106.69593811,10.78311062 106.69576263,10.78307438 106.69558716,10.78297901 106.69456482,10.78394413 106.69457245,10.78401184","Address":"18Bis, đường Phạm Ngọc Thạch, Quận 3","Lat":10.784012,"Lng":106.694573},{"StationId":2707,"StationOrder":12,"StationDirection":1,"RouteId":57,"StationName":"Điện Biên Phủ","pathPoints":"106.69457245,10.78401184 106.69454193,10.78396511 106.69331360,10.78509235 106.69335175,10.78514004","Address":"42, đường Phạm Ngọc Thạch, Quận 3","Lat":10.78514,"Lng":106.69335},{"StationId":43,"StationOrder":13,"StationDirection":1,"RouteId":57,"StationName":"Công viên Lê Văn Tám","pathPoints":"106.69335175,10.78514004 106.69332123,10.78513527 106.69284058,10.78551960 106.69377899,10.78649902 106.69259644,10.78742695 106.69259644,10.78742695","Address":"Đối diện 245, đường Hai Bà Trưng, Quận 1","Lat":10.787427,"Lng":106.692599},{"StationId":46,"StationOrder":14,"StationDirection":1,"RouteId":57,"StationName":"Nhà thờ Tân Định","pathPoints":"106.69259644,10.78742695 106.69142914,10.78834343 106.69039917,10.78921509","Address":"298, đường Hai Bà Trưng, Quận 1","Lat":10.789215,"Lng":106.690399},{"StationId":47,"StationOrder":15,"StationDirection":1,"RouteId":57,"StationName":"Chợ Tân Định","pathPoints":"106.69039917,10.78921509 106.69006348,10.78941917 106.68884277,10.79045582","Address":"372-374, đường Hai Bà Trưng, Quận 1","Lat":10.790456,"Lng":106.688843},{"StationId":2728,"StationOrder":16,"StationDirection":1,"RouteId":57,"StationName":"Bà Lê Chân","pathPoints":"106.68884277,10.79045582 106.68884277,10.79045582 106.68885040,10.79046249 106.68884277,10.79045868 106.68884277,10.79045582 106.68775177,10.79127884 106.69013214,10.79168987 106.69023132,10.79162025 106.69023132,10.79162025 106.69023132,10.79162025","Address":"151Bis, đường Trần Quang Khải, Quận 1","Lat":10.79162,"Lng":106.690231},{"StationId":2726,"StationOrder":17,"StationDirection":1,"RouteId":57,"StationName":"Chợ Dakao","pathPoints":"106.69023132,10.79162025 106.69033813,10.79172134 106.69467163,10.79245949 106.69487762,10.79238987","Address":"45-47, đường Trần Quang Khải, Quận 1","Lat":10.79239,"Lng":106.694878},{"StationId":2033,"StationOrder":18,"StationDirection":1,"RouteId":57,"StationName":"Cầu Bông","pathPoints":"106.69487762,10.79238987 106.69487762,10.79238987 106.69509125,10.79252243 106.69532013,10.79258060 106.69594574,10.79267025 106.69611359,10.79435158 106.69616699,10.79551601 106.69622803,10.79603195 106.69622803,10.79603195","Address":"96, đường Đinh Tiên Hoàng, Quận Bình Thạnh","Lat":10.796032,"Lng":106.696225},{"StationId":2727,"StationOrder":19,"StationDirection":1,"RouteId":57,"StationName":"Bệnh viện Bình Thạnh","pathPoints":"106.69622803,10.79603195 106.69615936,10.79606342 106.69635773,10.79858780 106.69641876,10.79864025","Address":"114, đường Đinh Tiên Hoàng, Quận Bình Thạnh","Lat":10.79864,"Lng":106.696419},{"StationId":2109,"StationOrder":20,"StationDirection":1,"RouteId":57,"StationName":"Lăng Ông Bà Chiểu","pathPoints":"106.69641876,10.79864025 106.69641876,10.79864025 106.69635010,10.79866123 106.69650269,10.80104828 106.69657898,10.80107021 106.69657898,10.80107021","Address":"Đối diện 129, đường Đinh Tiên Hoàng, Quận Bình Thạnh","Lat":10.80107,"Lng":106.696579},{"StationId":591,"StationOrder":21,"StationDirection":1,"RouteId":57,"StationName":"UBND Quận Bình Thạnh","pathPoints":"106.69657898,10.80107021 106.69652557,10.80110168 106.69657898,10.80265045 106.69579315,10.80275631 106.69578552,10.80281925 106.69578552,10.80281925","Address":"6-8, đường Phan Đăng Lưu, Quận Bình Thạnh","Lat":10.802819,"Lng":106.695786},{"StationId":2039,"StationOrder":22,"StationDirection":1,"RouteId":57,"StationName":"Bệnh Viện Gia Định","pathPoints":"106.69578552,10.80281925 106.69578552,10.80281925 106.69578552,10.80281925 106.69578552,10.80281925 106.69574738,10.80279827 106.69494629,10.80289268 106.69496918,10.80346203 106.69501495,10.80348778 106.69501495,10.80348778 106.69501495,10.80348778 106.69501495,10.80348778","Address":"2, đường Nơ Trang Long, Quận Bình Thạnh","Lat":10.803488,"Lng":106.695013},{"StationId":2035,"StationOrder":23,"StationDirection":1,"RouteId":57,"StationName":"Hồ bơi Đại Đồng","pathPoints":"106.69501495,10.80348778 106.69501495,10.80348778 106.69496155,10.80350399 106.69504547,10.80631828 106.69512939,10.80635548","Address":"48, đường Nơ Trang Long, Quận Bình Thạnh","Lat":10.806355,"Lng":106.695131},{"StationId":1650,"StationOrder":24,"StationDirection":1,"RouteId":57,"StationName":"Nhà thờ Bình Hòa","pathPoints":"106.69512939,10.80635548 106.69512939,10.80635548 106.69506073,10.80634975 106.69512939,10.80966949 106.69515991,10.80973244 106.69518280,10.80967426 106.69518280,10.80967426","Address":"124, đường Nơ Trang Long, Quận Bình Thạnh","Lat":10.809674,"Lng":106.695185},{"StationId":1654,"StationOrder":25,"StationDirection":1,"RouteId":57,"StationName":"Chợ Phan Văn Trị","pathPoints":"106.69518280,10.80967426 106.69515991,10.80973244 106.69518280,10.81048107 106.69546509,10.81124496 106.69518280,10.81175613 106.69526672,10.81249905 106.69533539,10.81249332","Address":"182B/2, đường Phan Văn Trị, Quận Bình Thạnh","Lat":10.812493,"Lng":106.695335},{"StationId":1652,"StationOrder":26,"StationDirection":1,"RouteId":57,"StationName":"Chùa Giác Quang","pathPoints":"106.69533539,10.81249332 106.69533539,10.81249332 106.69524384,10.81250381 106.69523621,10.81655025 106.69533539,10.81725693 106.69525146,10.81764126 106.69493103,10.81838989 106.69469452,10.81893253 106.69452667,10.81947994 106.69459534,10.81954384 106.69459534,10.81954384","Address":"342, đường Phan Văn Trị, Quận Bình Thạnh","Lat":10.819544,"Lng":106.694595},{"StationId":539,"StationOrder":27,"StationDirection":1,"RouteId":57,"StationName":"Bãi hậu cần số 1","pathPoints":"106.69448853,10.81949043 106.69436646,10.81991005 106.69412994,10.82044983 106.69406128,10.82061958 106.69364929,10.82153988 106.69357300,10.82178020 106.69345093,10.82215023 106.69341278,10.82229996 106.69316101,10.82269955 106.69277191,10.82308006 106.69232941,10.82347965 106.69180298,10.82396984","Address":"Đối diện 439, đường Phan Văn Trị, Quận Gò Vấp","Lat":10.823964,"Lng":106.69195},{"StationId":2729,"StationOrder":28,"StationDirection":1,"RouteId":57,"StationName":"Vincom Plaza","pathPoints":"106.69194794,10.82396412 106.69187164,10.82393265 106.68840027,10.82711506 106.68843842,10.82721996","Address":"12, đường Phan Văn Trị, Quận Gò Vấp","Lat":10.827184,"Lng":106.688409},{"StationId":2731,"StationOrder":29,"StationDirection":1,"RouteId":57,"StationName":"PCCC Quận Gò Vấp","pathPoints":"106.68843842,10.82721996 106.68843842,10.82721996 106.68840027,10.82714176 106.68791962,10.82748413 106.68473053,10.82853794 106.68473816,10.82865429 106.68473816,10.82865429 106.68473816,10.82865429 106.68473816,10.82865429","Address":"B2 - 15-17, đường Phan Văn Trị, Quận Gò Vấp","Lat":10.828496,"Lng":106.684976},{"StationId":2730,"StationOrder":30,"StationDirection":1,"RouteId":57,"StationName":"Coop Mart","pathPoints":"106.68473816,10.82865429 106.68473816,10.82865429 106.68473816,10.82865429 106.68464661,10.82854843 106.68150330,10.82957077 106.68151855,10.82964420 106.68151855,10.82964420 106.68151855,10.82964420","Address":"30D, đường Phan Văn Trị, Quận Gò Vấp","Lat":10.829644,"Lng":106.681516},{"StationId":2733,"StationOrder":31,"StationDirection":1,"RouteId":57,"StationName":"Cây xăng Petrolimex","pathPoints":"106.68151855,10.82964420 106.68151855,10.82964420 106.68151855,10.82964420 106.68144989,10.82959175 106.67921448,10.83032417 106.67920685,10.83041286 106.67920685,10.83041286","Address":"596, đường Phan Văn Trị, Quận Gò Vấp","Lat":10.830403,"Lng":106.679167},{"StationId":2732,"StationOrder":32,"StationDirection":1,"RouteId":57,"StationName":"Nhà máy Z751","pathPoints":"106.67920685,10.83041286 106.67920685,10.83041286 106.67920685,10.83041286 106.67916870,10.83035564 106.67730713,10.83097744 106.67546082,10.83164120 106.67546844,10.83169937 106.67546844,10.83169937 106.67546844,10.83169937","Address":"2A, đường Phan Văn Trị, Quận Gò Vấp","Lat":10.831694,"Lng":106.675454},{"StationId":2734,"StationOrder":33,"StationDirection":1,"RouteId":57,"StationName":"Nhà khách Phía Nam","pathPoints":"106.67546844,10.83169937 106.67546844,10.83169937 106.67541504,10.83165169 106.67272949,10.83258438 106.67269897,10.83267879 106.67269897,10.83267879","Address":"670 (18A), đường Phan Văn Trị, Quận Gò Vấp","Lat":10.832679,"Lng":106.672697},{"StationId":2737,"StationOrder":34,"StationDirection":1,"RouteId":57,"StationName":"Country House","pathPoints":"106.67269897,10.83267879 106.67269897,10.83267879 106.67261505,10.83263683 106.66989136,10.83362198 106.66988373,10.83371735","Address":"Đối diện 1287, đường Phan Văn Trị, Quận Gò Vấp","Lat":10.833717,"Lng":106.669881},{"StationId":2735,"StationOrder":35,"StationDirection":1,"RouteId":57,"StationName":"Chợ Thông Tây","pathPoints":"106.66988373,10.83371735 106.66988373,10.83371735 106.66977692,10.83367443 106.66646576,10.83488178 106.66646576,10.83495045 106.66646576,10.83495045","Address":"676, đường Phan Văn Trị, Quận Gò Vấp","Lat":10.83495,"Lng":106.666469},{"StationId":2738,"StationOrder":36,"StationDirection":1,"RouteId":57,"StationName":"Chợ Thông Tây","pathPoints":"106.66646576,10.83495045 106.66646576,10.83495045 106.66638184,10.83489227 106.66472626,10.83542442 106.66463470,10.83556652 106.66464233,10.83571339 106.66475677,10.83585072 106.66475677,10.83585072","Address":"214, đường Thống Nhất, Quận Gò Vấp","Lat":10.835793,"Lng":106.664736},{"StationId":2736,"StationOrder":37,"StationDirection":1,"RouteId":57,"StationName":"Ngã ba Nguyễn Văn Lượng","pathPoints":"106.66475677,10.83585072 106.66473389,10.83598804 106.66514587,10.83810043 106.66522980,10.83815861","Address":"308, đường Thống Nhất, Quận Gò Vấp","Lat":10.838159,"Lng":106.66523},{"StationId":4744,"StationOrder":38,"StationDirection":1,"RouteId":57,"StationName":"UBND Phường 16","pathPoints":"106.66522980,10.83815861 106.66519165,10.83821106 106.66526031,10.83864307 106.66532898,10.83973408 106.66509247,10.84023952 106.66493988,10.84079838 106.66477203,10.84208393 106.66481018,10.84212589","Address":"328, đường Thống Nhất, Quận Gò Vấp","Lat":10.842126,"Lng":106.664811},{"StationId":2741,"StationOrder":39,"StationDirection":1,"RouteId":57,"StationName":"Trường Đại học Hồng Bàng","pathPoints":"106.66481018,10.84212589 106.66481018,10.84212589 106.66481018,10.84212589 106.66473389,10.84214211 106.66464233,10.84360123 106.66474152,10.84452343 106.66478729,10.84549236 106.66483307,10.84550285 106.66483307,10.84550285 106.66483307,10.84550285","Address":"452, đường Thống Nhất, Quận Gò Vấp","Lat":10.845503,"Lng":106.664833},{"StationId":4726,"StationOrder":40,"StationDirection":1,"RouteId":57,"StationName":"Chùa Tiên Long","pathPoints":"106.66483307,10.84550285 106.66483307,10.84550285 106.66477966,10.84549236 106.66458893,10.84709930 106.66457367,10.84756279 106.66460419,10.84796906 106.66464996,10.84799480 106.66464996,10.84799480","Address":"540, đường Thống Nhất, Quận Gò Vấp","Lat":10.847995,"Lng":106.66465},{"StationId":2632,"StationOrder":41,"StationDirection":1,"RouteId":57,"StationName":"Nhà Thờ Hà Nội","pathPoints":"106.66464996,10.84799480 106.66464996,10.84799480 106.66464996,10.84799480 106.66458130,10.84805298 106.66495514,10.84982300 106.66525269,10.85176182 106.66531372,10.85183620 106.66531372,10.85183620 106.66531372,10.85183620","Address":"716, đường Thống Nhất, Quận Gò Vấp","Lat":10.851836,"Lng":106.665316},{"StationId":2633,"StationOrder":42,"StationDirection":1,"RouteId":57,"StationName":"Nhà thờ Hợp An","pathPoints":"106.66531372,10.85183620 106.66531372,10.85183620 106.66524506,10.85185146 106.66551208,10.85392761 106.66548920,10.85419655 106.66439056,10.85377979 106.66435242,10.85384846 106.66435242,10.85384846 106.66435242,10.85384846","Address":"671, đường Phạm Văn Chiêu, Quận Gò Vấp","Lat":10.853848,"Lng":106.66435},{"StationId":4738,"StationOrder":43,"StationDirection":1,"RouteId":57,"StationName":"Trường Lê Thị Hồng Gấm","pathPoints":"106.66435242,10.85384846 106.66435242,10.85384846 106.66432953,10.85377502 106.66200256,10.85296822 106.66189575,10.85296917","Address":"545, đường Phạm Văn Chiêu, Quận Gò Vấp","Lat":10.852969,"Lng":106.661893},{"StationId":2743,"StationOrder":44,"StationDirection":1,"RouteId":57,"StationName":"Cầu Cụt","pathPoints":"106.66189575,10.85296917 106.66189575,10.85296917 106.66189575,10.85292625 106.66060638,10.85246277 106.65865326,10.85345364 106.65673065,10.85449123 106.65670776,10.85457516 106.65670776,10.85457516","Address":"1370, đường Lê Đức Thọ, Quận Gò Vấp","Lat":10.854575,"Lng":106.656711},{"StationId":2742,"StationOrder":45,"StationDirection":1,"RouteId":57,"StationName":"Nhà thờ Nữ Vương Hòa Bình","pathPoints":"106.65670776,10.85457516 106.65670776,10.85457516 106.65664673,10.85454369 106.65587616,10.85505486 106.65522003,10.85571861 106.65452576,10.85636139 106.65452576,10.85641861 106.65452576,10.85641861","Address":"1410 (408), đường Lê Đức Thọ, Quận Gò Vấp","Lat":10.856419,"Lng":106.654528},{"StationId":1670,"StationOrder":46,"StationDirection":1,"RouteId":57,"StationName":"Metro Hiệp Phú","pathPoints":"106.65452576,10.85641861 106.65445709,10.85638809 106.65196228,10.85879040 106.65072632,10.85998631 106.64991760,10.86082935 106.64980316,10.86133480 106.64968872,10.86254120 106.64967346,10.86346817 106.64975739,10.86351299 106.64975739,10.86351299","Address":"48, đường Lê Văn Khương, Quận 12","Lat":10.863711,"Lng":106.649705},{"StationId":1669,"StationOrder":47,"StationDirection":1,"RouteId":57,"StationName":"Công ty Bia Tiger","pathPoints":"106.64970398,10.86371136 106.64960480,10.86591244 106.64949036,10.86808300 106.64955139,10.86809444","Address":"Công ty Bia Tiger, đường Lê Văn Khương, Quận 12","Lat":10.868094,"Lng":106.649555},{"StationId":1674,"StationOrder":48,"StationDirection":1,"RouteId":57,"StationName":"Bảo hiểm xã hội Quận 12","pathPoints":"106.64955139,10.86809444 106.64955139,10.86809444 106.64946747,10.86812592 106.64925385,10.87202358 106.64933777,10.87206554 106.64933777,10.87206554","Address":"270, đường Lê Văn Khương, Quận 12","Lat":10.872066,"Lng":106.649335},{"StationId":1671,"StationOrder":49,"StationDirection":1,"RouteId":57,"StationName":"UBND Phường Thới An","pathPoints":"106.64933777,10.87206554 106.64933777,10.87206554 106.64925385,10.87208176 106.64912415,10.87508488 106.64918518,10.87519455","Address":"UBND Phường Thới An, đường Lê Văn Khương, Quận 12","Lat":10.875195,"Lng":106.649185},{"StationId":2745,"StationOrder":50,"StationDirection":1,"RouteId":57,"StationName":"Bến xe buýt Thới An","pathPoints":"106.64918518,10.87519455 106.64918518,10.87519455 106.64910126,10.87532711 106.64894104,10.87850857 106.64797974,10.87846661","Address":"BẾN XE BUÝT THỚI AN, đường Lê Văn Khương, Quận 12","Lat":10.878467,"Lng":106.64798}]