[{"StationId":3522,"StationOrder":0,"StationDirection":0,"RouteId":106,"StationName":"Bến xe buýt Bến Súc","pathPoints":"","Address":"Bến xe buýt Bến Súc, đường Tỉnh lộ 15, Huyện Củ Chi","Lat":11.154887,"Lng":106.455696},{"StationId":3536,"StationOrder":1,"StationDirection":0,"RouteId":106,"StationName":"Ngã 3 Đền Bến Dược","pathPoints":"106.45569611,11.15488720 106.45718384,11.15444565 106.45772552,11.15405560 106.45817566,11.15348721 106.45852661,11.15290833 106.45989990,11.15044498 106.46046448,11.14966679 106.46072388,11.14948177","Address":"2185, đường Tỉnh lộ 15, Huyện Củ Chi","Lat":11.149482,"Lng":106.460727},{"StationId":3533,"StationOrder":2,"StationDirection":0,"RouteId":106,"StationName":"Ngã 3 tỉnh lộ 6","pathPoints":"106.46046448,11.14966679 106.46981812,11.14256668","Address":"2045, đường Tỉnh lộ 15, Huyện Củ Chi","Lat":11.142477,"Lng":106.469879},{"StationId":3534,"StationOrder":3,"StationDirection":0,"RouteId":106,"StationName":"Cầu Thai Thai","pathPoints":"106.46981812,11.14256668 106.47148895,11.14106655 106.47348022,11.13904953","Address":"1979, đường Tỉnh lộ 15, Huyện Củ Chi","Lat":11.138829,"Lng":106.473699},{"StationId":3538,"StationOrder":4,"StationDirection":0,"RouteId":106,"StationName":"Ngã 3 xã Phú Mỹ Hưng","pathPoints":"106.47348022,11.13904953 106.47412872,11.13828754 106.47433472,11.13787651 106.47466278,11.13657093 106.47518921,11.13585567 106.47598267,11.13501358 106.47730255,11.13354969 106.47933960,11.13132858 106.47985077,11.13049984","Address":"1833, đường Tỉnh lộ 15, Huyện Củ Chi","Lat":11.130334,"Lng":106.479959},{"StationId":3537,"StationOrder":5,"StationDirection":0,"RouteId":106,"StationName":"Ngã 3 Nguyễn Thị Rành","pathPoints":"106.47985077,11.13049984 106.48011780,11.13010788 106.48025513,11.13000298 106.48041534,11.12993908 106.48208618,11.12974453 106.48374939,11.12948322","Address":"1799 (Đối diện 1694), đường Tỉnh lộ 15, Huyện Củ Chi","Lat":11.129481,"Lng":106.483719},{"StationId":3539,"StationOrder":6,"StationDirection":0,"RouteId":106,"StationName":"Ngã 3 Cây Gõ","pathPoints":"106.48374939,11.12948322 106.48463440,11.12938690 106.48527527,11.12926579 106.48695374,11.12916660","Address":"1771 , đường Tỉnh lộ 15 , Huyện Củ Chi","Lat":11.129171,"Lng":106.486938},{"StationId":3540,"StationOrder":7,"StationDirection":0,"RouteId":106,"StationName":"Trường học An Phú","pathPoints":"106.48695374,11.12916660 106.48805237,11.12918186 106.48841858,11.12907600 106.49060822,11.12687588 106.49323273,11.12434959","Address":"1645-1647, đường Tỉnh lộ 15, Huyện Củ Chi","Lat":11.124365,"Lng":106.493247},{"StationId":3541,"StationOrder":8,"StationDirection":0,"RouteId":106,"StationName":"Làng nghề Một Thoáng Việt Nam","pathPoints":"106.49323273,11.12434959 106.49788666,11.11978340","Address":"1561, đường Tỉnh lộ 15, Huyện Củ Chi","Lat":11.119728,"Lng":106.49793},{"StationId":3542,"StationOrder":9,"StationDirection":0,"RouteId":106,"StationName":"Công ty bò sữa An Phú","pathPoints":"106.49788666,11.11978340 106.50209808,11.11561680","Address":"1467-1469, đường Tỉnh lộ 15, Huyện Củ Chi","Lat":11.115517,"Lng":106.502168},{"StationId":3544,"StationOrder":10,"StationDirection":0,"RouteId":106,"StationName":"Ùy ban nhân dân xã An Phú","pathPoints":"106.50209808,11.11561680 106.50277710,11.11501694 106.50337219,11.11438560 106.50371552,11.11413288 106.50453186,11.11324310 106.50582886,11.11190605 106.50603485,11.11170101 106.50624084,11.11142731 106.50659943,11.11048317","Address":"1329, đường Tỉnh lộ 15, Huyện Củ Chi","Lat":11.110448,"Lng":106.506647},{"StationId":3543,"StationOrder":11,"StationDirection":0,"RouteId":106,"StationName":"Quán Phú Yên, đường 787","pathPoints":"106.50659943,11.11048317 106.50715637,11.10933208 106.50767517,11.10802078 106.50831604,11.10622597 106.50845337,11.10551739","Address":"1239, đường Tỉnh lộ 15, Huyện Củ Chi","Lat":11.105517,"Lng":106.508453},{"StationId":3545,"StationOrder":12,"StationDirection":0,"RouteId":106,"StationName":"Nghĩa trang liệt sỹ huyện Củ Chi","pathPoints":"106.50845337,11.10551739 106.50878906,11.10439968 106.50908661,11.10317326 106.50988007,11.10085297 106.51023865,11.09970379 106.51034546,11.09931469 106.51066589,11.09853268","Address":"112, đường Tỉnh lộ 15, Huyện Củ Chi","Lat":11.09852,"Lng":106.510708},{"StationId":3546,"StationOrder":13,"StationDirection":0,"RouteId":106,"StationName":"Lẩu dê Tư Hổ","pathPoints":"106.51066589,11.09853268 106.51091003,11.09838772 106.51177216,11.09672451 106.51229095,11.09598732 106.51240540,11.09563541 106.51249695,11.09468555","Address":"1109, đường Tỉnh lộ 15, Huyện Củ Chi","Lat":11.094503,"Lng":106.512548},{"StationId":3547,"StationOrder":14,"StationDirection":0,"RouteId":106,"StationName":"Nhà văn hóa Cụm An Nhơn Tây","pathPoints":"106.51249695,11.09468555 106.51268005,11.09429264 106.51332092,11.09198666 106.51376343,11.09018612 106.51388550,11.08946705","Address":"1045 (20-22), đường Tỉnh lộ 15, Huyện Củ Chi","Lat":11.089467,"Lng":106.513885},{"StationId":3548,"StationOrder":15,"StationDirection":0,"RouteId":106,"StationName":"Cây xăng số 5","pathPoints":"106.51388550,11.08946705 106.51429749,11.08819675 106.51513672,11.08460045","Address":"Đối diện 872, đường Tỉnh lộ 15, Huyện Củ Chi","Lat":11.0846,"Lng":106.515137},{"StationId":3549,"StationOrder":16,"StationDirection":0,"RouteId":106,"StationName":"Chùa Hoàng Linh, Ấp văn hóa Bến Mương","pathPoints":"106.51513672,11.08460045 106.51548767,11.08323765 106.51580048,11.08186913 106.51625061,11.08066654","Address":"911A, đường Tỉnh lộ 15, Huyện Củ Chi","Lat":11.080667,"Lng":106.516251},{"StationId":3551,"StationOrder":17,"StationDirection":0,"RouteId":106,"StationName":"Trường Thiếu Sinh Quân","pathPoints":"106.51625061,11.08066654 106.51645660,11.07998943 106.51674652,11.07931614 106.51728821,11.07796288 106.51839447,11.07527256 106.51903534,11.07368755 106.52014160,11.07146645 106.52068329,11.07099819 106.52130127,11.07065582 106.52200317,11.07006741","Address":"825, đường Tỉnh lộ 15, Huyện Củ Chi","Lat":11.070008,"Lng":106.522059},{"StationId":3550,"StationOrder":18,"StationDirection":0,"RouteId":106,"StationName":"Địa đạo Bến Đình","pathPoints":"106.52200317,11.07006741 106.52390289,11.06843948 106.52587128,11.06683350 106.52613068,11.06658077 106.52642059,11.06626511 106.52678680,11.06578064 106.52709198,11.06540108 106.52754211,11.06470108 106.52861023,11.06299019 106.52894592,11.06222725 106.52935028,11.06148338","Address":"Cột điện ANT 116b, đường Tỉnh lộ 15, Huyện Củ Chi","Lat":11.061469,"Lng":106.529306},{"StationId":3552,"StationOrder":19,"StationDirection":0,"RouteId":106,"StationName":"Cây xăng Tân Phong","pathPoints":"106.52935028,11.06148338 106.53001404,11.05991554 106.53078461,11.05826283 106.53130341,11.05712032 106.53171539,11.05648327","Address":"667 (Xăng dầu Tân Phong), đường Tỉnh lộ 15, Huyện Củ Chi","Lat":11.056462,"Lng":106.531699},{"StationId":3553,"StationOrder":20,"StationDirection":0,"RouteId":106,"StationName":"Văn phòng Ấp Bến Đình","pathPoints":"106.53171539,11.05648327 106.53192139,11.05594063 106.53227997,11.05528736 106.53267670,11.05490875 106.53445435,11.05365086 106.53568268,11.05298138 106.53712463,11.05233383 106.53748322,11.05206680","Address":"599, đường Tỉnh lộ 15, Huyện Củ Chi","Lat":11.052055,"Lng":106.537605},{"StationId":3555,"StationOrder":21,"StationDirection":0,"RouteId":106,"StationName":"Dốc Mít - Chen - Lin","pathPoints":"106.53748322,11.05206680 106.53816986,11.05169201 106.54419708,11.04775047","Address":"529, đường Tỉnh lộ 15, Huyện Củ Chi","Lat":11.047691,"Lng":106.544235},{"StationId":3554,"StationOrder":22,"StationDirection":0,"RouteId":106,"StationName":"Nông trường Phạm Văn Cội","pathPoints":"106.54419708,11.04775047 106.54627991,11.04637909 106.54846954,11.04504013","Address":"501, đường Tỉnh lộ 15, Huyện Củ Chi","Lat":11.045105,"Lng":106.548302},{"StationId":3556,"StationOrder":23,"StationDirection":0,"RouteId":106,"StationName":"Bãi Cát","pathPoints":"106.54846954,11.04504013 106.55051422,11.04372025 106.55183411,11.04269981","Address":"483, đường Tỉnh lộ 15, Huyện Củ Chi","Lat":11.042689,"Lng":106.551949},{"StationId":3557,"StationOrder":24,"StationDirection":0,"RouteId":106,"StationName":"Trường tiểu học Phú Hòa Đông 2","pathPoints":"106.55183411,11.04269981 106.55560303,11.04004955","Address":"431-433, đường Tỉnh lộ 15, Huyện Củ Chi","Lat":11.040093,"Lng":106.555538},{"StationId":3558,"StationOrder":25,"StationDirection":0,"RouteId":106,"StationName":"Cây xăng Tài Lộc","pathPoints":"106.55560303,11.04004955 106.55953217,11.03726673","Address":"395 (Tiệm Duyên), đường Tỉnh lộ 15, Huyện Củ Chi","Lat":11.037245,"Lng":106.559513},{"StationId":3559,"StationOrder":26,"StationDirection":0,"RouteId":106,"StationName":"Chợ, Nhà thờ Phú Hòa Đông","pathPoints":"106.55953217,11.03726673 106.55991364,11.03698158 106.56036377,11.03661251 106.56121826,11.03577042 106.56152344,11.03552818 106.56183624,11.03542805 106.56211090,11.03540134 106.56278229,11.03551197 106.56369019,11.03562832 106.56411743,11.03560734 106.56451416,11.03552818 106.56468201,11.03548050 106.56480408,11.03540134 106.56486511,11.03528595 106.56499481,11.03473282 106.56558228,11.03407478 106.56600189,11.03363228 106.56611633,11.03339005 106.56609344,11.03318501 106.56573486,11.03262138 106.56543732,11.03233719 106.56530762,11.03206921 106.56526947,11.03178406 106.56527710,11.03115749 106.56522369,11.03050232 106.56501770,11.02866745","Address":"257A (Đối diện 254), đường Tỉnh lộ 15, Huyện Củ Chi","Lat":11.028725,"Lng":106.565028},{"StationId":3560,"StationOrder":27,"StationDirection":0,"RouteId":106,"StationName":"Trường Tiểu học Phú Hòa Đông 1","pathPoints":"106.56501770,11.02866745 106.56455994,11.02518749 106.56449127,11.02461815 106.56423187,11.02347565 106.56378937,11.02178669","Address":"101-103A, đường Tỉnh lộ 15, Huyện Củ Chi","Lat":11.022754,"Lng":106.563971},{"StationId":3561,"StationOrder":28,"StationDirection":0,"RouteId":106,"StationName":"Hoa viên Vườn Hồng","pathPoints":"106.56378937,11.02178669 106.56361389,11.02087975 106.56359100,11.02053261 106.56349182,11.01923752 106.56340027,11.01863575","Address":"51 (CÔNG TY THANH VÂN), đường Tỉnh lộ 15, Huyện Củ Chi","Lat":11.018616,"Lng":106.563419},{"StationId":3563,"StationOrder":29,"StationDirection":0,"RouteId":106,"StationName":"Cầu Bến Nẩy","pathPoints":"106.56340027,11.01863575 106.56333923,11.01710987 106.56310272,11.01591969 106.56296539,11.01468754 106.56327057,11.01230717 106.56352997,11.01170731 106.56407928,11.01083279","Address":"1203, đường Tỉnh lộ 15 Củ Chi, Huyện Củ Chi","Lat":11.010854,"Lng":106.563987},{"StationId":3562,"StationOrder":30,"StationDirection":0,"RouteId":106,"StationName":"Cây xăng Minh Tân 2","pathPoints":"106.56407928,11.01083279 106.56988525,10.99930000","Address":"Kế 373, đường Tỉnh lộ 15 Củ Chi, Huyện Củ Chi","Lat":10.999233,"Lng":106.569952},{"StationId":3564,"StationOrder":31,"StationDirection":0,"RouteId":106,"StationName":"Láng The","pathPoints":"106.56988525,10.99930000 106.57008362,10.99894333 106.57102966,10.99660015","Address":"339 , đường Tỉnh lộ 15 Củ Chi, Huyện Củ Chi","Lat":10.996558,"Lng":106.571057},{"StationId":3565,"StationOrder":32,"StationDirection":0,"RouteId":106,"StationName":"Công ty Carimax Sài Gòn","pathPoints":"106.57102966,10.99660015 106.57227325,10.99365616 106.57348633,10.99063301","Address":"263, đường Tỉnh lộ 15, Huyện Củ Chi","Lat":10.990628,"Lng":106.573568},{"StationId":3566,"StationOrder":33,"StationDirection":0,"RouteId":106,"StationName":"Ngã tư Tân Quy","pathPoints":"106.57348633,10.99063301 106.57415009,10.98929596 106.57478333,10.98776817 106.57601166,10.98479176","Address":"179 (171-173), đường Tỉnh lộ 15, Huyện Củ Chi","Lat":10.985346,"Lng":106.575746},{"StationId":1185,"StationOrder":34,"StationDirection":0,"RouteId":106,"StationName":"Bến xe buýt Tân Quy","pathPoints":"106.57601166,10.98479176 106.57647705,10.98365021 106.57740021,10.98359299 106.57740784,10.98397732","Address":"BẾN XE BUÝT TÂN QUY, đường Tỉnh lộ 8, Củ Chi, Huyện Củ Chi","Lat":10.984251,"Lng":106.578176},{"StationId":1185,"StationOrder":0,"StationDirection":1,"RouteId":106,"StationName":"Bến xe buýt Tân Quy","pathPoints":"","Address":"BẾN XE BUÝT TÂN QUY, đường Tỉnh lộ 8, Củ Chi, Huyện Củ Chi","Lat":10.984251,"Lng":106.578176},{"StationId":3485,"StationOrder":1,"StationDirection":1,"RouteId":106,"StationName":"Ngã tư Tân Quy","pathPoints":"106.57817841,10.98425102 106.57811737,10.98362446 106.57651520,10.98372936 106.57610321,10.98483467","Address":"1044 (46-47), đường Tỉnh lộ 15 Củ Chi, Huyện Củ Chi","Lat":10.984835,"Lng":106.576105},{"StationId":3489,"StationOrder":2,"StationDirection":1,"RouteId":106,"StationName":"Chùa Pháp Bửu, cây xăng 63","pathPoints":"106.57610321,10.98483467 106.57459259,10.98850060","Address":"94 (1112), đường Tỉnh lộ 15 Củ Chi, Huyện Củ Chi","Lat":10.988501,"Lng":106.574593},{"StationId":3491,"StationOrder":3,"StationDirection":1,"RouteId":106,"StationName":"Công ty Carimax Sài Gòn","pathPoints":"106.57459259,10.98850060 106.57345581,10.99119186","Address":"1152, đường Tỉnh lộ 15 Củ Chi, Huyện Củ Chi","Lat":10.991192,"Lng":106.573455},{"StationId":3487,"StationOrder":4,"StationDirection":1,"RouteId":106,"StationName":"Láng The","pathPoints":"106.57345581,10.99119186 106.57180023,10.99512005","Address":"1206, đường Tỉnh lộ 15 Củ Chi, Huyện Củ Chi","Lat":10.99512,"Lng":106.571803},{"StationId":3493,"StationOrder":5,"StationDirection":1,"RouteId":106,"StationName":"Cây xăng Minh Tân 2","pathPoints":"106.57180023,10.99512005 106.56993866,10.99959564","Address":"Đối diện 375 , đường Tỉnh lộ 15 Củ Chi, Huyện Củ Chi","Lat":10.999596,"Lng":106.569936},{"StationId":3488,"StationOrder":6,"StationDirection":1,"RouteId":106,"StationName":"Cầu Bến Nẩy","pathPoints":"106.56984711,10.99961662 106.56378174,11.01144981","Address":"Đối diện 1203 (HTX Cây cảnh Ngọc Vân), đường Tỉnh lộ 15 Củ Chi, Huyện Củ Chi","Lat":11.011555,"Lng":106.563773},{"StationId":3490,"StationOrder":7,"StationDirection":1,"RouteId":106,"StationName":"Hoa viên Vườn Hồng","pathPoints":"106.56378174,11.01144981 106.56341553,11.01235008 106.56336212,11.01304436 106.56313324,11.01459312 106.56313324,11.01508808 106.56345367,11.01699352 106.56351471,11.01774979","Address":"42, đường Tỉnh lộ 15 Củ Chi, Huyện Củ Chi","Lat":11.01775,"Lng":106.563515},{"StationId":3494,"StationOrder":8,"StationDirection":1,"RouteId":106,"StationName":"Trường tiểu học Phú Hòa Đông 1","pathPoints":"106.56351471,11.01774979 106.56375885,11.02089024 106.56414795,11.02248287","Address":"108, đường Tỉnh lộ 15, Huyện Củ Chi","Lat":11.022483,"Lng":106.564148},{"StationId":3492,"StationOrder":9,"StationDirection":1,"RouteId":106,"StationName":"Chợ, nhà thờ Phú Hòa Đông","pathPoints":"106.56414795,11.02248287 106.56411743,11.02251244 106.56460571,11.02455521 106.56478882,11.02587986 106.56488800,11.02661991 106.56493378,11.02702999 106.56502533,11.02758789","Address":"236-238 (Đình), đường Tỉnh lộ 15, Huyện Củ Chi","Lat":11.027588,"Lng":106.565022},{"StationId":3495,"StationOrder":10,"StationDirection":1,"RouteId":106,"StationName":"Cây xăng Tài Lộc","pathPoints":"106.56531525,11.02979660 106.56539917,11.03139496 106.56538391,11.03177357 106.56542206,11.03204250 106.56551361,11.03226852 106.56583405,11.03258991 106.56620789,11.03313255 106.56623840,11.03341675 106.56610107,11.03369617 106.56568909,11.03413296 106.56510925,11.03474903 106.56497192,11.03530693 106.56491089,11.03545952 106.56465912,11.03560734 106.56411743,11.03570747 106.56370544,11.03572845 106.56282806,11.03562260 106.56211853,11.03550720 106.56185913,11.03553867 106.56160736,11.03562260 106.56130219,11.03583908 106.56104279,11.03608131 106.56042480,11.03670216 106.55984497,11.03714943 106.55924988,11.03756714","Address":"Đối diện 401 (366), đường Tỉnh lộ 15, Huyện Củ Chi","Lat":11.037597,"Lng":106.55925},{"StationId":3497,"StationOrder":11,"StationDirection":1,"RouteId":106,"StationName":"Trường tiểu học Phú Hòa Đông 2","pathPoints":"106.55924988,11.03759670 106.55924988,11.03756714 106.55599213,11.03990364 106.55599976,11.03991890","Address":"394, đường Tỉnh lộ 15 Củ Chi, Huyện Củ Chi","Lat":11.039919,"Lng":106.556},{"StationId":3496,"StationOrder":12,"StationDirection":1,"RouteId":106,"StationName":"Bãi Cát","pathPoints":"106.55599976,11.03991890 106.55183411,11.04292011","Address":"Đối diện 483, đường Tỉnh lộ 15, Huyện Củ Chi","Lat":11.04292,"Lng":106.551831},{"StationId":3499,"StationOrder":13,"StationDirection":1,"RouteId":106,"StationName":"Nông trường Phạm Văn Cội","pathPoints":"106.55183411,11.04292011 106.54867554,11.04500008","Address":"452A, đường Tỉnh lộ 15, Huyện Củ Chi","Lat":11.045,"Lng":106.548677},{"StationId":3498,"StationOrder":14,"StationDirection":1,"RouteId":106,"StationName":"Dốc Mít - Chen - Lin","pathPoints":"106.54867554,11.04500008 106.54865265,11.04496670 106.54462433,11.04756927 106.54463196,11.04759026","Address":"Kế 476A, đường Tỉnh lộ 15, Huyện Củ Chi","Lat":11.04759,"Lng":106.544632},{"StationId":3500,"StationOrder":15,"StationDirection":1,"RouteId":106,"StationName":"Văn phòng Ấp Bến Đình","pathPoints":"106.54463196,11.04759026 106.53838348,11.05173397","Address":"đd 599, đường Tỉnh lộ 15, Huyện Củ Chi","Lat":11.051734,"Lng":106.538383},{"StationId":3502,"StationOrder":16,"StationDirection":1,"RouteId":106,"StationName":"Cây xăng Tân Phong","pathPoints":"106.53838348,11.05173397 106.53833771,11.05176544 106.53717041,11.05242920 106.53571320,11.05310249 106.53452301,11.05377674 106.53275299,11.05499840 106.53239441,11.05534554 106.53186035,11.05625153 106.53146362,11.05716324 106.53148651,11.05718327","Address":"608, đường Tỉnh lộ 15, Huyện Củ Chi","Lat":11.057183,"Lng":106.531484},{"StationId":3501,"StationOrder":17,"StationDirection":1,"RouteId":106,"StationName":"Địa đạo Bến Đình","pathPoints":"106.53146362,11.05716324 106.52911377,11.06216049","Address":"654, đường Tỉnh lộ 15, Huyện Củ Chi","Lat":11.06216,"Lng":106.529114},{"StationId":3503,"StationOrder":18,"StationDirection":1,"RouteId":106,"StationName":"Trường Thiếu Sinh Quân","pathPoints":"106.52911377,11.06215954 106.52868652,11.06306362 106.52786255,11.06440639 106.52680969,11.06603813 106.52642822,11.06650162 106.52269745,11.06961346","Address":"724, đường Tỉnh lộ 15, Huyện Củ Chi","Lat":11.069613,"Lng":106.522697},{"StationId":3505,"StationOrder":19,"StationDirection":1,"RouteId":106,"StationName":"Chùa Hoàng Linh, Ấp văn hóa Bến Mương","pathPoints":"106.52268219,11.06959248 106.52138519,11.07072926 106.52064514,11.07114029 106.52024078,11.07147694 106.51914978,11.07374096 106.51827240,11.07580948 106.51721191,11.07841015 106.51678467,11.07945824 106.51652527,11.08009529 106.51643372,11.08034706 106.51644897,11.08051491","Address":"820, đường Tỉnh lộ 15, Huyện Củ Chi","Lat":11.080515,"Lng":106.516449},{"StationId":3504,"StationOrder":20,"StationDirection":1,"RouteId":106,"StationName":"Cây xăng số 5","pathPoints":"106.51644897,11.08051491 106.51590729,11.08203697 106.51515198,11.08518982","Address":"890, đường Tỉnh lộ 15, Huyện Củ Chi","Lat":11.085133,"Lng":106.515149},{"StationId":3506,"StationOrder":21,"StationDirection":1,"RouteId":106,"StationName":"Nhà văn hóa Cụm An Nhơn Tây","pathPoints":"106.51515198,11.08518982 106.51408386,11.08906746","Address":"Đối diện 1029 (104), đường Tỉnh lộ 15, Huyện Củ Chi","Lat":11.089071,"Lng":106.514109},{"StationId":3507,"StationOrder":22,"StationDirection":1,"RouteId":106,"StationName":"Lẩu dê Tư Hổ","pathPoints":"106.51408386,11.08906746 106.51278687,11.09433651","Address":"35A (Kế 1020), đường Tỉnh lộ 15, Huyện Củ Chi","Lat":11.094219,"Lng":106.512773},{"StationId":3510,"StationOrder":23,"StationDirection":1,"RouteId":106,"StationName":"Nghĩa trang liệt sỹ huyện Củ Chi","pathPoints":"106.51277161,11.09421921 106.51278687,11.09433651 106.51222229,11.09599781 106.51142120,11.09758759 106.51100922,11.09822941 106.51103973,11.09824562","Address":"1070-1072, đường Tỉnh lộ 15, Huyện Củ Chi","Lat":11.098246,"Lng":106.51104},{"StationId":3509,"StationOrder":24,"StationDirection":1,"RouteId":106,"StationName":"Quán Phú Yên, Đường 787","pathPoints":"106.51103973,11.09824562 106.51044464,11.09932995 106.50972748,11.10164642 106.50920105,11.10315228 106.50869751,11.10513687","Address":"1154, đường Tỉnh lộ 15, Huyện Củ Chi","Lat":11.105137,"Lng":106.508696},{"StationId":3512,"StationOrder":25,"StationDirection":1,"RouteId":106,"StationName":"Ủy ban nhân dân xã An Phú","pathPoints":"106.50869751,11.10513687 106.50825500,11.10663605 106.50738525,11.10905266 106.50662231,11.11083221","Address":"1242, đường Tỉnh lộ 15, Huyện Củ Chi","Lat":11.110832,"Lng":106.506625},{"StationId":3508,"StationOrder":26,"StationDirection":1,"RouteId":106,"StationName":"Công ty bò sữa An Phú","pathPoints":"106.50662231,11.11083221 106.50608063,11.11178493 106.50348663,11.11442184 106.50128174,11.11658001","Address":"1360, đường Tỉnh lộ 15, Huyện Củ Chi","Lat":11.11658,"Lng":106.501282},{"StationId":3513,"StationOrder":27,"StationDirection":1,"RouteId":106,"StationName":"Làng nghề Một Thoáng Việt Nam","pathPoints":"106.50128174,11.11658001 106.49752808,11.12028599","Address":"Đối diện 1567, đường Tỉnh lộ 15, Huyện Củ Chi","Lat":11.120286,"Lng":106.497527},{"StationId":3511,"StationOrder":28,"StationDirection":1,"RouteId":106,"StationName":"Trường học An Phú","pathPoints":"106.49752808,11.12028599 106.49383545,11.12395954","Address":"1532, đường Tỉnh lộ 15, Huyện Củ Chi","Lat":11.12396,"Lng":106.493837},{"StationId":3517,"StationOrder":29,"StationDirection":1,"RouteId":106,"StationName":"Ngã 3 Cây Gõ","pathPoints":"106.49383545,11.12395954 106.49357605,11.12422276 106.49114227,11.12658691 106.48854828,11.12918186 106.48809814,11.12929153 106.48737335,11.12928677 106.48648071,11.12932873","Address":"Kế 1656, đường Tỉnh lộ 15, Huyện Củ Chi","Lat":11.129329,"Lng":106.486482},{"StationId":3514,"StationOrder":30,"StationDirection":1,"RouteId":106,"StationName":"Ngã 3 Nguyễn Thị Rành","pathPoints":"106.48648071,11.12932873 106.48526764,11.12936592 106.48406982,11.12955475","Address":"1686, đường Tỉnh lộ 15, Huyện Củ Chi","Lat":11.129555,"Lng":106.484068},{"StationId":3515,"StationOrder":31,"StationDirection":1,"RouteId":106,"StationName":"ngã 3 xã Phú Mỹ Hưng","pathPoints":"106.48406982,11.12955475 106.48052216,11.13005543 106.48022461,11.13017082 106.47943115,11.13143444 106.47908020,11.13177109","Address":"Đối diện 1873, đường Tỉnh lộ 15 Củ Chi, Huyện Củ Chi","Lat":11.131771,"Lng":106.479084},{"StationId":3518,"StationOrder":32,"StationDirection":1,"RouteId":106,"StationName":"Cầu Thai Thai","pathPoints":"106.47908020,11.13177109 106.47791290,11.13301849 106.47677612,11.13429260 106.47617340,11.13492870 106.47489929,11.13647175 106.47474670,11.13674545 106.47467041,11.13698196 106.47441101,11.13797188 106.47422791,11.13836098 106.47380829,11.13891315 106.47339630,11.13934517","Address":"1832, đường Tỉnh lộ 15, Huyện Củ Chi","Lat":11.139345,"Lng":106.473393},{"StationId":3520,"StationOrder":33,"StationDirection":1,"RouteId":106,"StationName":"Ngã 3 tỉnh lộ 6","pathPoints":"106.47333527,11.13933277 106.47209930,11.14069748 106.47067261,11.14202404 106.46913147,11.14316654","Address":"1928-1930, đường Tỉnh lộ 15, Huyện Củ Chi","Lat":11.143235,"Lng":106.469112},{"StationId":3516,"StationOrder":34,"StationDirection":1,"RouteId":106,"StationName":"Ngã 3 Đền Bến Dược","pathPoints":"106.46913147,11.14316654 106.46099854,11.14935017","Address":"2056, đường Tỉnh lộ 15, Huyện Củ Chi","Lat":11.149403,"Lng":106.461033},{"StationId":3522,"StationOrder":35,"StationDirection":1,"RouteId":106,"StationName":"Bến xe buýt Bến Súc","pathPoints":"106.46099854,11.14935017 106.46015167,11.15016079 106.45902252,11.15222454 106.45875549,11.15287685 106.45777893,11.15420341 106.45720673,11.15462399 106.45382690,11.15564537 106.45372009,11.15542412","Address":"Bến xe buýt Bến Súc, đường Tỉnh lộ 15, Huyện Củ Chi","Lat":11.154887,"Lng":106.455696}]