[{"StationId":1185,"StationOrder":0,"StationDirection":0,"RouteId":20,"StationName":"Bến xe buýt Tân Quy","pathPoints":"","Address":"BẾN XE BUÝT TÂN QUY, đường Tỉnh lộ 8, Củ Chi, Huyện Củ Chi","Lat":10.984251,"Lng":106.578176},{"StationId":1206,"StationOrder":1,"StationDirection":0,"RouteId":20,"StationName":"Ngã tư Tân Quy","pathPoints":"106.57817841,10.98425102 106.57814789,10.98359776 106.57649994,10.98369312 106.57673645,10.98313046 106.57688141,10.98263264","Address":"115, đường Tỉnh lộ 15 Củ Chi, Huyện Củ Chi","Lat":10.982633,"Lng":106.576881},{"StationId":1205,"StationOrder":2,"StationDirection":0,"RouteId":20,"StationName":"Công ty Hongwon","pathPoints":"106.57688141,10.98263264 106.57744598,10.98128033 106.57929993,10.97933292","Address":"33 (37), đường Tỉnh lộ 15 Củ Chi, Huyện Củ Chi","Lat":10.979333,"Lng":106.5793},{"StationId":1207,"StationOrder":3,"StationDirection":0,"RouteId":20,"StationName":"Cây xăng Quang Vinh","pathPoints":"106.57929993,10.97933292 106.58065796,10.97797012 106.58238220,10.97605038","Address":"715, đường Tỉnh lộ 15 Củ Chi, Huyện Củ Chi","Lat":10.97605,"Lng":106.582382},{"StationId":1208,"StationOrder":4,"StationDirection":0,"RouteId":20,"StationName":"Cửa hàng sữa Việt Xuân","pathPoints":"106.58238220,10.97605038 106.58409882,10.97426987 106.58495331,10.97331715","Address":"Trường tiểu học Tân Thạnh Đông 3, đường Tỉnh lộ 15 Củ Chi, Huyện Củ Chi","Lat":10.973317,"Lng":106.584953},{"StationId":1211,"StationOrder":5,"StationDirection":0,"RouteId":20,"StationName":"Trường cấp 2 Tân Thạnh Đông","pathPoints":"106.58618927,10.97208023 106.58878326,10.96932030","Address":"Trường cấp 2 Tân Thạnh Đông, đường Tỉnh lộ 15 Củ Chi, Huyện Củ Chi","Lat":10.9693,"Lng":106.58873},{"StationId":1209,"StationOrder":6,"StationDirection":0,"RouteId":20,"StationName":"Miếu Bà Chúa Xứ","pathPoints":"106.58872986,10.96930027 106.58878326,10.96932030 106.59104919,10.96681690","Address":"565C (Đối diện 640A), đường Tỉnh lộ 15 Củ Chi, Huyện Củ Chi","Lat":10.966817,"Lng":106.591049},{"StationId":1212,"StationOrder":7,"StationDirection":0,"RouteId":20,"StationName":"Cây xăng 57","pathPoints":"106.59104919,10.96681690 106.59169769,10.96619987 106.59383392,10.96388340","Address":"517 , đường Tỉnh lộ 15 Củ Chi, Huyện Củ Chi","Lat":10.963883,"Lng":106.593834},{"StationId":1210,"StationOrder":8,"StationDirection":0,"RouteId":20,"StationName":"Chợ Chiều","pathPoints":"106.59383392,10.96388340 106.59510803,10.96255016 106.59638214,10.96101665","Address":"455-457, đường Tỉnh lộ 15, Huyện Củ Chi","Lat":10.961017,"Lng":106.596382},{"StationId":1214,"StationOrder":9,"StationDirection":0,"RouteId":20,"StationName":"Sân banh","pathPoints":"106.59838867,10.95872974 106.59954071,10.95736980 106.59986877,10.95689964 106.60037231,10.95596981","Address":"369, đường Tỉnh lộ 15 Củ Chi, Huyện Củ Chi","Lat":10.9552,"Lng":106.600815},{"StationId":1216,"StationOrder":10,"StationDirection":0,"RouteId":20,"StationName":"Quán Hoa Sứ","pathPoints":"106.60081482,10.95520020 106.60238647,10.95276737","Address":"301 (309), đường Tỉnh lộ 15 Củ Chi, Huyện Củ Chi","Lat":10.952767,"Lng":106.602386},{"StationId":1213,"StationOrder":11,"StationDirection":0,"RouteId":20,"StationName":"Chợ Sáng","pathPoints":"106.60238647,10.95276737 106.60545349,10.94810009","Address":"195 (Đối diện giáo xứ Tân Thạnh Đông), đường Tỉnh lộ 15 Củ Chi, Huyện Củ Chi","Lat":10.9481,"Lng":106.605453},{"StationId":1218,"StationOrder":12,"StationDirection":0,"RouteId":20,"StationName":"Mẫu giáo Tân Thạnh Đông","pathPoints":"106.60545349,10.94810009 106.60604858,10.94727993 106.60577393,10.94598484 106.60528564,10.94480038","Address":"163 (165B), đường Tỉnh lộ 15 Củ Chi, Huyện Củ Chi","Lat":10.94480037689209,"Lng":106.60528564453125},{"StationId":1215,"StationOrder":13,"StationDirection":0,"RouteId":20,"StationName":"Ngã 3 Bình Mỹ","pathPoints":"106.60485077,10.94367027 106.60455322,10.94316006 106.60430145,10.94281960 106.60418701,10.94262028 106.60414124,10.94235039 106.60414124,10.94219971 106.60424042,10.94161034 106.60433197,10.94124985 106.60436249,10.94099045 106.60437012,10.94027996 106.60436249,10.93947029 106.60433197,10.93879986 106.60420990,10.93795013 106.60381317,10.93537998 106.60360718,10.93424034 106.60331726,10.93288040 106.60244751,10.92881966 106.60156250,10.92483044","Address":"19/4C, đường Tỉnh lộ 15 Củ Chi, Huyện Củ Chi","Lat":10.921883,"Lng":106.600868},{"StationId":1222,"StationOrder":14,"StationDirection":0,"RouteId":20,"StationName":"Cây xăng Tài Lộc 3","pathPoints":"106.60086823,10.92188263 106.60057831,10.92055988 106.60057068,10.92035961 106.60038757,10.91668034 106.60031891,10.91520023 106.60020447,10.91496086","Address":"22/3A, đường Đỗ Văn Dậy, Huyện Hóc Môn","Lat":10.914961,"Lng":106.600202},{"StationId":1217,"StationOrder":15,"StationDirection":0,"RouteId":20,"StationName":"Ngã 3 Ông Trác","pathPoints":"106.60020447,10.91496086 106.60031891,10.91492939 106.60033417,10.91424465 106.60018158,10.91312027 106.59995270,10.91162014 106.59986115,10.91102123 106.59973907,10.91100025","Address":"59, đường Đỗ Văn Dậy, Huyện Hóc Môn","Lat":10.911,"Lng":106.599741},{"StationId":1219,"StationOrder":16,"StationDirection":0,"RouteId":20,"StationName":"Công ty Nam Ho","pathPoints":"106.59973907,10.91100025 106.59964752,10.91006279 106.59963226,10.90690231 106.59954834,10.90690231","Address":"6/9C, đường Đỗ Văn Dậy, Huyện Hóc Môn","Lat":10.906902,"Lng":106.599548},{"StationId":1224,"StationOrder":17,"StationDirection":0,"RouteId":20,"StationName":"Tân Hiệp 35","pathPoints":"106.59954834,10.90690231 106.59975433,10.90168667","Address":"146/3, đường Đỗ Văn Dậy, Huyện Hóc Môn","Lat":10.901687,"Lng":106.599757},{"StationId":1225,"StationOrder":18,"StationDirection":0,"RouteId":20,"StationName":"Lê Thị Lơ","pathPoints":"106.59975433,10.90168667 106.60005188,10.90112877 106.60017395,10.90017033 106.59999847,10.89931679 106.59967804,10.89884281","Address":"88/3A, đường Đỗ Văn Dậy, Huyện Hóc Môn","Lat":10.898843,"Lng":106.599677},{"StationId":1221,"StationOrder":19,"StationDirection":0,"RouteId":20,"StationName":"Nhà trẻ Phước An","pathPoints":"106.59967804,10.89884281 106.59966278,10.89850616 106.59809875,10.89468670 106.59739685,10.89331245","Address":"49/2, đường Trương Nữ Vương, Huyện Hóc Môn","Lat":10.893312,"Lng":106.597397},{"StationId":1223,"StationOrder":20,"StationDirection":0,"RouteId":20,"StationName":"Chợ Hóc Môn","pathPoints":"106.59739685,10.89331245 106.59734344,10.89299011 106.59664154,10.89127827 106.59651184,10.89014626","Address":"29/2A, đường Trương Nữ Vương, Huyện Hóc Môn","Lat":10.890146,"Lng":106.596512},{"StationId":4746,"StationOrder":21,"StationDirection":0,"RouteId":20,"StationName":"Thị trần Hóc Môn","pathPoints":"106.59651184,10.89014626 106.59657288,10.88998795 106.59651184,10.88835430 106.59627533,10.88838100 106.59622192,10.88801193 106.59616089,10.88773346 106.59609222,10.88773823","Address":"45/4, đường Bà Triệu, Huyện Hóc Môn","Lat":10.887738,"Lng":106.596093},{"StationId":1227,"StationOrder":22,"StationDirection":0,"RouteId":20,"StationName":"Mần non 23-11","pathPoints":"106.59609222,10.88773823 106.59608459,10.88764381 106.59612274,10.88690567 106.59503174,10.88470459 106.59494781,10.88469887","Address":"24, đường Bà Triệu, Huyện Hóc Môn","Lat":10.884699,"Lng":106.594945},{"StationId":4747,"StationOrder":23,"StationDirection":0,"RouteId":20,"StationName":"Bệnh viện Hóc Môn","pathPoints":"106.59494781,10.88469887 106.59496307,10.88463593 106.59381104,10.88175964 106.59373474,10.88178635","Address":"Đối diện 1/11A, đường Bà Triệu, Huyện Hóc Môn","Lat":10.881786,"Lng":106.593733},{"StationId":1228,"StationOrder":24,"StationDirection":0,"RouteId":20,"StationName":"Ngã tư Giếng Nước","pathPoints":"106.59373474,10.88178635 106.59378815,10.88175392 106.59263611,10.87884617 106.59205627,10.87835598 106.59205627,10.87835598","Address":"106, đường Bà Triệu, Huyện Hóc Môn","Lat":10.878356,"Lng":106.592054},{"StationId":1230,"StationOrder":25,"StationDirection":0,"RouteId":20,"StationName":"Ngã tư giếng nước","pathPoints":"106.59205627,10.87835598 106.59131622,10.87773418 106.59175873,10.87708664 106.59168243,10.87702274","Address":"Cây xăng Thành Công, đường Quốc lộ 22, Huyện Hóc Môn","Lat":10.877023,"Lng":106.591684},{"StationId":1232,"StationOrder":26,"StationDirection":0,"RouteId":20,"StationName":"Cây xăng Hoàng Anh 1","pathPoints":"106.59168243,10.87702274 106.59168243,10.87702274 106.59178162,10.87705517 106.59318542,10.87506390 106.59307861,10.87496853 106.59307861,10.87496853","Address":"42/7B, đường Quốc lộ 22, Huyện Hóc Môn","Lat":10.874969,"Lng":106.593078},{"StationId":1231,"StationOrder":27,"StationDirection":0,"RouteId":20,"StationName":"Ngã 3 Bùi Môn","pathPoints":"106.59307861,10.87496853 106.59321594,10.87504292 106.59677124,10.87003231 106.59675598,10.86995411","Address":"58/5, đường Quốc lộ 22, Huyện Hóc Môn","Lat":10.869954,"Lng":106.596758},{"StationId":1235,"StationOrder":28,"StationDirection":0,"RouteId":20,"StationName":"Trường học Tân Xuân","pathPoints":"106.59675598,10.86995411 106.59890747,10.86691856","Address":"1/4, đường Quốc lộ 22, Huyện Hóc Môn","Lat":10.866919,"Lng":106.598904},{"StationId":1233,"StationOrder":29,"StationDirection":0,"RouteId":20,"StationName":"Ngân Hàng Aribank","pathPoints":"106.59890747,10.86691856 106.60197449,10.86254597","Address":"114, đường Quốc lộ 22, Huyện Hóc Môn","Lat":10.862546,"Lng":106.601978},{"StationId":1234,"StationOrder":30,"StationDirection":0,"RouteId":20,"StationName":"Ngã 3 Củ Cải","pathPoints":"106.60197449,10.86254597 106.60197449,10.86254597 106.60208893,10.86254692 106.60343933,10.86065483 106.60332489,10.86060238 106.60332489,10.86060238","Address":"43/1, đường Quốc lộ 22, Huyện Hóc Môn","Lat":10.860602,"Lng":106.603324},{"StationId":1236,"StationOrder":31,"StationDirection":0,"RouteId":20,"StationName":"Ngã ba Nguyễn Thị Sóc","pathPoints":"106.60332489,10.86060238 106.60345459,10.86061859 106.60578918,10.85743618 106.60566711,10.85737324 106.60566711,10.85737324","Address":"43/5, đường Quốc lộ 22, Huyện Hóc Môn","Lat":10.857373,"Lng":106.605669},{"StationId":3635,"StationOrder":32,"StationDirection":0,"RouteId":20,"StationName":"Chùa Linh Sơn","pathPoints":"106.60566711,10.85737324 106.60566711,10.85737324 106.60577393,10.85744190 106.60625458,10.85666656 106.60617828,10.85661983 106.60617828,10.85661983","Address":"G68A, đường Quốc lộ 22, Huyện Hóc Môn","Lat":10.85662,"Lng":106.606178},{"StationId":1237,"StationOrder":33,"StationDirection":0,"RouteId":20,"StationName":"Trung tâm văn hóa Quận 12 - Ngã 4 Trung Chánh","pathPoints":"106.60617828,10.85661983 106.60817719,10.85353756","Address":"Quán ăn xuyên Á, đường Quốc lộ 22, Huyện Hóc Môn","Lat":10.853538,"Lng":106.608179},{"StationId":1238,"StationOrder":34,"StationDirection":0,"RouteId":20,"StationName":"Cư xá Bà Điểm","pathPoints":"106.60817719,10.85353756 106.60826874,10.85356903 106.61072540,10.84973335 106.61064148,10.84971333","Address":"3A, đường Quốc lộ 22, Huyện Hóc Môn","Lat":10.849713,"Lng":106.610641},{"StationId":1239,"StationOrder":35,"StationDirection":0,"RouteId":20,"StationName":"Bến xe An Sương","pathPoints":"106.61064148,10.84971333 106.61064148,10.84971333 106.61079407,10.84963894 106.61349487,10.84535027 106.61352539,10.84518719 106.61352539,10.84518719","Address":"1B, đường Quốc lộ 22, Huyện Hóc Môn","Lat":10.845187,"Lng":106.613522},{"StationId":166,"StationOrder":36,"StationDirection":0,"RouteId":20,"StationName":"Bến xe An Sương","pathPoints":"106.61352539,10.84518719 106.61405945,10.84441757 106.61337280,10.84373760","Address":"Bến xe An Sương, đường Quốc lộ 22, Quận 12","Lat":10.843737602233887,"Lng":106.61337280273438},{"StationId":166,"StationOrder":0,"StationDirection":1,"RouteId":20,"StationName":"Bến xe An Sương","pathPoints":"","Address":"Bến xe An Sương, đường Quốc lộ 22, Quận 12","Lat":10.843737602233887,"Lng":106.61337280273438},{"StationId":1115,"StationOrder":1,"StationDirection":1,"RouteId":20,"StationName":"Bến xe An Sương","pathPoints":"106.61337280,10.84373760 106.61412048,10.84432316 106.61479950,10.84339523 106.61502075,10.84286308 106.61499023,10.84270000 106.61505127,10.84253693 106.61524200,10.84235764 106.61550903,10.84243107 106.61565399,10.84261036 106.61558533,10.84286880 106.61545563,10.84297943 106.61525726,10.84302711 106.61491394,10.84348488 106.61347198,10.84574032 106.61351776,10.84580326","Address":"F42, đường Quốc lộ 22, Quận 12","Lat":10.845803,"Lng":106.613517},{"StationId":1151,"StationOrder":2,"StationDirection":1,"RouteId":20,"StationName":"Cây xăng Quân Đội","pathPoints":"106.61351776,10.84580326 106.61344910,10.84576130 106.61117554,10.84933376 106.61127472,10.84936047","Address":"2, đường Quốc lộ 22, Quận 12","Lat":10.84936,"Lng":106.611274},{"StationId":1152,"StationOrder":3,"StationDirection":1,"RouteId":20,"StationName":"Trung tâm Văn hóa Quận 12","pathPoints":"106.61127472,10.84936047 106.61127472,10.84936047 106.61113739,10.84938622 106.60781097,10.85460186 106.60786438,10.85466003 106.60786438,10.85466003","Address":"Trung tâm văn hóa Quận 12, đường Quốc lộ 22, Quận 12","Lat":10.85466,"Lng":106.607863},{"StationId":1154,"StationOrder":4,"StationDirection":1,"RouteId":20,"StationName":"Liên đoàn lao động Hóc Môn","pathPoints":"106.60786438,10.85466003 106.60786438,10.85466003 106.60775757,10.85468102 106.60618591,10.85704613 106.60620117,10.85711479 106.60620117,10.85711479","Address":"69/1, đường Quốc lộ 22, Huyện Hóc Môn","Lat":10.857115,"Lng":106.6062},{"StationId":1153,"StationOrder":5,"StationDirection":1,"RouteId":20,"StationName":"Cây xăng Củ Cải","pathPoints":"106.60620117,10.85711479 106.60620117,10.85711479 106.60612488,10.85710430 106.60425568,10.85974407 106.60430908,10.85982323 106.60430908,10.85982323","Address":"33/4, đường Quốc lộ 22, Huyện Hóc Môn","Lat":10.859823,"Lng":106.604306},{"StationId":1156,"StationOrder":6,"StationDirection":1,"RouteId":20,"StationName":"Ngã 3 Củ Cải","pathPoints":"106.60430908,10.85982323 106.60419464,10.85978603 106.60263824,10.86198807 106.60269928,10.86201382","Address":"42/1, đường Quốc lộ 22, Huyện Hóc Môn","Lat":10.862014,"Lng":106.602697},{"StationId":1155,"StationOrder":7,"StationDirection":1,"RouteId":20,"StationName":"Trường học Tân Xuân","pathPoints":"106.60269928,10.86201382 106.60264587,10.86195660 106.59928894,10.86676121 106.59934998,10.86678219","Address":"8/6B, đường Quốc lộ 22, Huyện Hóc Môn","Lat":10.866782,"Lng":106.599349},{"StationId":1158,"StationOrder":8,"StationDirection":1,"RouteId":20,"StationName":"Ngã 3 Bùi Môn","pathPoints":"106.59934998,10.86678219 106.59934998,10.86678219 106.59928894,10.86672974 106.59696960,10.86996460 106.59707642,10.87007523 106.59707642,10.87007523","Address":"1/1, đường Quốc lộ 22, Huyện Hóc Môn","Lat":10.870075,"Lng":106.597075},{"StationId":1160,"StationOrder":9,"StationDirection":1,"RouteId":20,"StationName":"Ngã 3 Bùi Môn","pathPoints":"106.59707642,10.87007523 106.59707642,10.87007523 106.59699249,10.87000084 106.59604645,10.87131786 106.59614563,10.87139702 106.59614563,10.87139702","Address":"đd công ty Tây Bắc Sài Gòn, đường Quốc lộ 22, Huyện Hóc Môn","Lat":10.871397,"Lng":106.596147},{"StationId":1157,"StationOrder":10,"StationDirection":1,"RouteId":20,"StationName":"Ngã tư Giếng Nước","pathPoints":"106.59614563,10.87139702 106.59597778,10.87141800 106.59171295,10.87739182 106.59175110,10.87748241","Address":"3/88C, đường Quốc lộ 22, Huyện Hóc Môn","Lat":10.877482,"Lng":106.591748},{"StationId":4586,"StationOrder":11,"StationDirection":1,"RouteId":20,"StationName":"Ngã tư Giếng nước","pathPoints":"106.59175110,10.87748241 106.59169769,10.87747097 106.59143066,10.87782955 106.59180450,10.87811947 106.59184265,10.87807655","Address":"3/88C, đường Bà Triệu, Huyện Hóc Môn","Lat":10.878077,"Lng":106.591845},{"StationId":1162,"StationOrder":12,"StationDirection":1,"RouteId":20,"StationName":"Bệnh viện Hóc Môn","pathPoints":"106.59184265,10.87807655 106.59254456,10.87876225 106.59273529,10.87926769 106.59402466,10.88226986 106.59410095,10.88226032","Address":"77/4, đường Bà Triệu, Huyện Hóc Môn","Lat":10.88226,"Lng":106.594098},{"StationId":1164,"StationOrder":13,"StationDirection":1,"RouteId":20,"StationName":"Trường mầm non 23-11","pathPoints":"106.59410095,10.88226032 106.59410095,10.88226032 106.59404755,10.88231277 106.59513092,10.88493061 106.59521484,10.88495159 106.59521484,10.88495159","Address":"84/2A, đường Bà Triệu, Huyện Hóc Môn","Lat":10.884952,"Lng":106.595213},{"StationId":1161,"StationOrder":14,"StationDirection":1,"RouteId":20,"StationName":"Thị trấn Hóc Môn","pathPoints":"106.59521484,10.88495159 106.59521484,10.88495159 106.59516144,10.88498306 106.59612274,10.88693237 106.59608459,10.88753319 106.59619141,10.88788605 106.59623718,10.88790226 106.59623718,10.88790226","Address":"98/2, đường Bà Triệu, Huyện Hóc Môn","Lat":10.887902,"Lng":106.596238},{"StationId":1166,"StationOrder":15,"StationDirection":1,"RouteId":20,"StationName":"Chợ Hóc Môn","pathPoints":"106.59623718,10.88790226 106.59619141,10.88791752 106.59626770,10.88836002 106.59653473,10.88835430 106.59661102,10.89044094 106.59667206,10.89044094","Address":"8/2, đường Trương Nữ Vương, Huyện Hóc Môn","Lat":10.890441,"Lng":106.596673},{"StationId":1163,"StationOrder":16,"StationDirection":1,"RouteId":20,"StationName":"Nhà trẻ Phước An","pathPoints":"106.59667206,10.89044094 106.59664917,10.89131546 106.59726715,10.89260101","Address":"21/1, đường Trương Nữ Vương, Huyện Hóc Môn","Lat":10.892601,"Lng":106.597268},{"StationId":1168,"StationOrder":17,"StationDirection":1,"RouteId":20,"StationName":"nhà văn hóa thiếu nhi huyện Hóc Môn","pathPoints":"106.59726715,10.89260101 106.59726715,10.89260101 106.59867096,10.89608288 106.59881592,10.89606190 106.59881592,10.89606190","Address":"16, đường Đỗ Văn Dậy, Huyện Hóc Môn","Lat":10.896062,"Lng":106.598818},{"StationId":1167,"StationOrder":18,"StationDirection":1,"RouteId":20,"StationName":"Lê Thị Lơ","pathPoints":"106.59881592,10.89606190 106.59870148,10.89619827 106.59973145,10.89857960 106.59976959,10.89856434","Address":"25/2, đường Đỗ Văn Dậy, Huyện Hóc Môn","Lat":10.898564,"Lng":106.599768},{"StationId":1170,"StationOrder":19,"StationDirection":1,"RouteId":20,"StationName":"Tân Hiệp 35","pathPoints":"106.59976959,10.89856434 106.59998322,10.89927959 106.60015106,10.89999104 106.60015106,10.90065479 106.60005188,10.90131855","Address":"đd 146/2, đường Đỗ Văn Dậy, Huyện Hóc Môn","Lat":10.901319,"Lng":106.600052},{"StationId":1169,"StationOrder":20,"StationDirection":1,"RouteId":20,"StationName":"Ngã 3 Ông Trác","pathPoints":"106.60005188,10.90131855 106.59990692,10.90139771 106.59968567,10.90227222 106.59963226,10.90511990 106.59961700,10.90631008 106.59966278,10.90928841 106.59974670,10.91039467 106.59993744,10.91047382","Address":"8/2B, đường Đỗ Văn Dậy, Huyện Hóc Môn","Lat":10.910474,"Lng":106.599934},{"StationId":1172,"StationOrder":21,"StationDirection":1,"RouteId":20,"StationName":"Cây xăng Tài Lộc 3","pathPoints":"106.59993744,10.91047382 106.59989929,10.91141987 106.60018158,10.91312027 106.60028076,10.91425991 106.60034943,10.91539860 106.60045624,10.91543579","Address":"98, đường Đỗ Văn Dậy, Huyện Hóc Môn","Lat":10.915436,"Lng":106.600454},{"StationId":1171,"StationOrder":22,"StationDirection":1,"RouteId":20,"StationName":"Ngã 3 Bình Mỹ","pathPoints":"106.60074615,10.91557312 106.60038757,10.91553020 106.60063934,10.92041874 106.60077667,10.92134953","Address":"Đối diện 19/4C (Cây xăng Tây Nam), đường Tỉnh lộ 15 Củ Chi, Huyện Củ Chi","Lat":10.921309,"Lng":106.600889},{"StationId":1173,"StationOrder":23,"StationDirection":1,"RouteId":20,"StationName":"Trường mẫu giáo Tân Thạnh Đông","pathPoints":"106.60077667,10.92134953 106.60347748,10.93343925 106.60416412,10.93714714 106.60459137,10.93988514 106.60429382,10.94254017 106.60494995,10.94381714","Address":"218 (Trường mẫu giáo Bông Sen 15), đường Tỉnh lộ 15 Củ Chi, Huyện Củ Chi","Lat":10.943783,"Lng":106.605003},{"StationId":1174,"StationOrder":24,"StationDirection":1,"RouteId":20,"StationName":"Chợ Sáng","pathPoints":"106.60494995,10.94381714 106.60583496,10.94588947 106.60617828,10.94725895 106.60534668,10.94839954","Address":"Giáo xứ Tân Thạnh Đông, đường Tỉnh lộ 15, Huyện Củ Chi","Lat":10.948313,"Lng":106.605492},{"StationId":1176,"StationOrder":25,"StationDirection":1,"RouteId":20,"StationName":"Quán Hoa Sứ","pathPoints":"106.60534668,10.94839954 106.60334015,10.95139027 106.60275269,10.95231724","Address":"318, đường Tỉnh lộ 15, Huyện Củ Chi","Lat":10.952363,"Lng":106.602788},{"StationId":1175,"StationOrder":26,"StationDirection":1,"RouteId":20,"StationName":"San banh","pathPoints":"106.60275269,10.95231724 106.60112762,10.95475960 106.60063934,10.95553970 106.60051727,10.95576668","Address":"422, đường Tỉnh lộ 15, Huyện Củ Chi","Lat":10.955767,"Lng":106.600517},{"StationId":1177,"StationOrder":27,"StationDirection":1,"RouteId":20,"StationName":"UBND Tân Thạnh Đông","pathPoints":"106.60051727,10.95576668 106.60037994,10.95592976 106.60005188,10.95654964 106.59986877,10.95689964 106.59969330,10.95716953 106.59899902,10.95800972 106.59741974,10.95987988 106.59607697,10.96151733","Address":"542A (544A), đường Tỉnh lộ 15, Huyện Củ Chi","Lat":10.961137,"Lng":106.596431},{"StationId":1178,"StationOrder":28,"StationDirection":1,"RouteId":20,"StationName":"Cây xăng 57","pathPoints":"106.59607697,10.96151733 106.59525299,10.96240044 106.59449005,10.96321011 106.59353638,10.96428299","Address":"604A, đường Tỉnh lộ 15, Huyện Củ Chi","Lat":10.964283,"Lng":106.593536},{"StationId":1179,"StationOrder":29,"StationDirection":1,"RouteId":20,"StationName":"Chợ Hố Bom","pathPoints":"106.59353638,10.96428299 106.59165192,10.96630001","Address":"634B, đường Tỉnh lộ 15 Củ Chi, Huyện Củ Chi","Lat":10.9663,"Lng":106.591652},{"StationId":1180,"StationOrder":30,"StationDirection":1,"RouteId":20,"StationName":"Trường cấp 2 Tân Thạnh Đông","pathPoints":"106.59165192,10.96630001 106.59116364,10.96677017 106.58865356,10.96949959","Address":"718B (706), đường Tỉnh lộ 15, Huyện Củ Chi","Lat":10.9695,"Lng":106.588654},{"StationId":1181,"StationOrder":31,"StationDirection":1,"RouteId":20,"StationName":"Cửa hàng sữa Việt Xuân","pathPoints":"106.58776855,10.97041035 106.58521271,10.97311020","Address":"806, đường Tỉnh lộ 15 Củ Chi, Huyện Củ Chi","Lat":10.973817,"Lng":106.584602},{"StationId":1182,"StationOrder":32,"StationDirection":1,"RouteId":20,"StationName":"Cây xăng Quang Vinh","pathPoints":"106.58460236,10.97381687 106.58354187,10.97488976 106.58201599,10.97656727","Address":"858, đường Tỉnh lộ 15 Củ Chi, Huyện Củ Chi","Lat":10.976567,"Lng":106.582016},{"StationId":1183,"StationOrder":33,"StationDirection":1,"RouteId":20,"StationName":"Công ty Hongwon","pathPoints":"106.58201599,10.97656727 106.58104706,10.97756004 106.57872009,10.98006725","Address":"930, đường Tỉnh lộ 15 Củ Chi, Huyện Củ Chi","Lat":10.980067,"Lng":106.57872},{"StationId":1184,"StationOrder":34,"StationDirection":1,"RouteId":20,"StationName":"Ngã tư Tân Quy","pathPoints":"106.57872009,10.98006725 106.57782745,10.98097992 106.57744598,10.98151207 106.57717896,10.98223686","Address":"970, đường Tỉnh lộ 15 Củ Chi, Huyện Củ Chi","Lat":10.982237,"Lng":106.577179},{"StationId":1185,"StationOrder":35,"StationDirection":1,"RouteId":20,"StationName":"Bến xe buýt Tân Quy","pathPoints":"106.57717896,10.98223686 106.57689667,10.98274040 106.57651520,10.98368168 106.57813263,10.98359299 106.57817841,10.98425102","Address":"BẾN XE BUÝT TÂN QUY, đường Tỉnh lộ 8, Củ Chi, Huyện Củ Chi","Lat":10.984251,"Lng":106.578176}]