[{"StationId":725,"StationOrder":0,"StationDirection":0,"RouteId":10,"StationName":"Bến xe Miền Tây","pathPoints":"","Address":"Bến xe Miền Tây, đường Kinh Dương Vương, Quận Bình Tân","Lat":10.740705,"Lng":106.618317},{"StationId":729,"StationOrder":1,"StationDirection":0,"RouteId":10,"StationName":"CoopMart","pathPoints":"106.61831665,10.74070454 106.61814880,10.74088955 106.62113190,10.74335957 106.62268066,10.74466991 106.62328339,10.74516010 106.62371063,10.74534988 106.62373352,10.74534988 106.62375641,10.74534035 106.62384796,10.74536037 106.62391663,10.74542046 106.62393951,10.74545956 106.62413025,10.74531460 106.63877106,10.74895954 106.64089966,10.74948978 106.64212799,10.74973965 106.64282990,10.74977016 106.64282990,10.74971008","Address":"259 (Đối diện 186), đường Hậu Giang, Quận 6","Lat":10.74971,"Lng":106.64283},{"StationId":1,"StationOrder":2,"StationDirection":0,"RouteId":10,"StationName":"Chu Văn An","pathPoints":"106.64282990,10.74977016 106.64391327,10.74975014 106.64488983,10.74967003 106.64626312,10.74960995 106.64746857,10.74956036 106.64768982,10.74958992 106.64871979,10.74962997 106.64965820,10.74973011 106.65100098,10.74999046 106.65254211,10.75026989","Address":"27, đường Tháp Mười, Quận 6","Lat":10.750232,"Lng":106.652554},{"StationId":5,"StationOrder":3,"StationDirection":0,"RouteId":10,"StationName":"Rạp Đại Quang","pathPoints":"106.65255737,10.75023174 106.65254211,10.75026989 106.65338898,10.75043011 106.65453339,10.75069046 106.65473175,10.75078964 106.65490723,10.75080013 106.65592957,10.75074005 106.65647888,10.75080013 106.65741730,10.75070953 106.65840912,10.75067997 106.65899658,10.75065994 106.65908051,10.75065994 106.65914917,10.75061989 106.65920258,10.75061989 106.65926361,10.75065041 106.65930939,10.75070953 106.65930939,10.75078964 106.65926361,10.75086975 106.65921021,10.75088978 106.65925598,10.75105953 106.65914917,10.75183868 106.65893555,10.75256634","Address":"68, đường Châu Văn Liêm, Quận 5","Lat":10.752566,"Lng":106.658937},{"StationId":439,"StationOrder":4,"StationDirection":0,"RouteId":10,"StationName":"Đại học Y Dược","pathPoints":"106.65893555,10.75256634 106.65847778,10.75442123 106.66317749,10.75535011 106.66319275,10.75535965","Address":"217, đường Hồng Bàng, Quận 5","Lat":10.75536,"Lng":106.663191},{"StationId":442,"StationOrder":5,"StationDirection":0,"RouteId":10,"StationName":"Đại học Kinh tế","pathPoints":"106.66319275,10.75535965 106.66317749,10.75535011 106.66575623,10.75586033 106.66629028,10.75597000 106.66805267,10.75636101 106.66967010,10.75663471 106.66900635,10.75972366 106.66905212,10.75983047 106.66903687,10.75990009 106.66898346,10.75998020 106.66893005,10.76000023 106.66886902,10.76000023 106.66854095,10.76138020 106.66856384,10.76138592","Address":"234-236, đường Nguyễn Tri Phương, Quận 10","Lat":10.761386,"Lng":106.668564},{"StationId":1397,"StationOrder":6,"StationDirection":0,"RouteId":10,"StationName":"Bệnh viện Nhi Đồng 1","pathPoints":"106.66856384,10.76138592 106.66724396,10.76774406 106.66776276,10.76795483 106.67037964,10.76776505","Address":"359, đường Lý Thái Tổ, Quận 10","Lat":10.767765,"Lng":106.67038},{"StationId":1909,"StationOrder":7,"StationDirection":0,"RouteId":10,"StationName":"Ngã 7 Lý Thái Tổ","pathPoints":"106.67037964,10.76776505 106.67413330,10.76759624 106.67433167,10.76741791 106.67453003,10.76739597 106.67465973,10.76745987 106.67475891,10.76764965 106.67469025,10.76789188 106.67522430,10.76870346","Address":"647, đường Điện Biên Phủ, Quận 3","Lat":10.768703,"Lng":106.675224},{"StationId":731,"StationOrder":8,"StationDirection":0,"RouteId":10,"StationName":"Cách Mạng tháng 8","pathPoints":"106.67522430,10.76870346 106.67668915,10.77045345 106.67821503,10.77192879 106.68414307,10.77700901","Address":"303, đường Điện Biên Phủ, Quận 3","Lat":10.777009,"Lng":106.684145},{"StationId":730,"StationOrder":9,"StationDirection":0,"RouteId":10,"StationName":"Cầu Điện Biên Phủ","pathPoints":"106.68399048,10.77696037 106.68488312,10.77781010 106.68717194,10.78003025 106.68961334,10.78229046 106.69084930,10.78347969 106.69246674,10.78514957 106.69332123,10.78600979 106.69470978,10.78750038 106.69593811,10.78874969 106.69753265,10.79039001 106.69812775,10.79096985 106.69902802,10.79195976 106.69936371,10.79218006 106.69947052,10.79218960 106.69959259,10.79222965 106.69967651,10.79228020 106.69972992,10.79238033 106.69975281,10.79249001 106.69992065,10.79263973 106.70092773,10.79370022 106.70124054,10.79401016","Address":"84, đường Điện Biên Phủ, Quận Bình Thạnh","Lat":10.795115,"Lng":106.702518},{"StationId":477,"StationOrder":10,"StationDirection":0,"RouteId":10,"StationName":"Cầu Đen","pathPoints":"106.70222473,10.79481506 106.70555115,10.79838181 106.70780182,10.80021572 106.71005249,10.80112267 106.71316528,10.80120659 106.71612549,10.80027962 106.72011566,10.79798222 106.72153473,10.79772854 106.73419952,10.79997826","Address":"794, đường Xa Lộ Hà Nội, Quận 2","Lat":10.799978,"Lng":106.7342},{"StationId":483,"StationOrder":11,"StationDirection":0,"RouteId":10,"StationName":"Khu QLGTDT số 2","pathPoints":"106.73417664,10.80008984 106.73867035,10.80093956 106.74376678,10.80189037 106.74430084,10.80200958 106.74456787,10.80204010 106.74524689,10.80206966 106.74575806,10.80202961 106.74610901,10.80202007 106.74642181,10.80206966 106.74662781,10.80214024 106.74725342,10.80241966 106.74761963,10.80255032 106.74810791,10.80268002 106.74839020,10.80274010 106.74857330,10.80282021 106.74938202,10.80301952 106.75038147,10.80337048 106.75103760,10.80366993 106.75142670,10.80387974 106.75183868,10.80416012 106.75256348,10.80461979 106.75305176,10.80502987 106.75366974,10.80558968 106.75412750,10.80605984 106.75431061,10.80626011 106.75464630,10.80667973 106.75495911,10.80708981 106.75520325,10.80741024 106.75559235,10.80803967 106.75594330,10.80877018 106.75621796,10.80947018 106.75633240,10.80982971 106.75662994,10.81101990 106.75717163,10.81392956 106.75772858,10.81686020 106.75784302,10.81725025 106.75843048,10.82034969 106.75881195,10.82194996 106.75891876,10.82240963 106.75904083,10.82277966 106.75920105,10.82316971 106.75942230,10.82365990 106.75946045,10.82380962 106.75966644,10.82425022 106.76029205,10.82528973 106.76112366,10.82678032 106.76235962,10.82892036 106.76477814,10.83325005","Address":"Khu QLGTĐT số 2, đường Xa Lộ Hà Nội, Quận 9","Lat":10.833249,"Lng":106.764778},{"StationId":7159,"StationOrder":12,"StationDirection":0,"RouteId":10,"StationName":"Trạm Hutech - Khu Công nghệ cao","pathPoints":"106.76477814,10.83324909 106.77277374,10.84738350 106.77410889,10.84913349 106.77590942,10.85079765 106.78538513,10.85639763","Address":"Trước Trung tâm Đào tạo NL CLC Hutech, đường Song hành phải Xa Lộ Hà Nội, Quận 9","Lat":10.856398,"Lng":106.785382},{"StationId":538,"StationOrder":13,"StationDirection":0,"RouteId":10,"StationName":"Đại học Quốc gia","pathPoints":"106.78538513,10.85639763 106.78538513,10.85639763 106.78538513,10.85639763 106.79666901,10.86309433 106.80260468,10.86668205 106.80442810,10.86790943 106.80590820,10.86938477 106.80966949,10.87442589 106.80928802,10.87473679 106.80831909,10.87345123 106.80731201,10.87425232 106.80576324,10.87497902 106.80525970,10.87507439 106.80507660,10.87453651 106.80490112,10.87424183 106.80445862,10.87382030 106.80324554,10.87358856 106.80202484,10.87380505","Address":"Bến xe buýt Khu A Đô thị Quốc gia, đường Đường nội bộ Đại học Quốc gia, Quận Thủ Đức","Lat":10.873805046081543,"Lng":106.8020248413086},{"StationId":538,"StationOrder":0,"StationDirection":1,"RouteId":10,"StationName":"Đại học Quốc gia","pathPoints":"","Address":"Bến xe buýt Khu A Đô thị Quốc gia, đường Đường nội bộ Đại học Quốc gia, Quận Thủ Đức","Lat":10.873805046081543,"Lng":106.8020248413086},{"StationId":574,"StationOrder":1,"StationDirection":1,"RouteId":10,"StationName":"Khu DL Suối Tiên","pathPoints":"106.80202484,10.87380505 106.80200195,10.87350941 106.80282593,10.87341499 106.80368805,10.87348843 106.80440521,10.87359905 106.80478668,10.87379456 106.80522156,10.87436295 106.80522156,10.87466812 106.80529785,10.87498474 106.80567932,10.87490559 106.80670166,10.87445831 106.80740356,10.87406254 106.80815887,10.87330437 106.80590820,10.87022781 106.80427551,10.86854172 106.80436707,10.86811543 106.80368042,10.86760426 106.80290222,10.86703491 106.80123138,10.86603451 106.80111694,10.86604977 106.80111694,10.86604977 106.80111694,10.86604977 106.80111694,10.86604977","Address":"9/29, đường Quốc lộ 1, Quận Thủ Đức","Lat":10.86605,"Lng":106.801116},{"StationId":1113,"StationOrder":2,"StationDirection":1,"RouteId":10,"StationName":"Ngã tư Thủ Đức","pathPoints":"106.80111694,10.86604977 106.80111694,10.86604977 106.77706909,10.85189342 106.77466583,10.85037613 106.77298737,10.84827995 106.77298737,10.84827995","Address":"Đối diện Coopmart, đường Xa Lộ Hà Nội, Quận Thủ Đức","Lat":10.84828,"Lng":106.77299},{"StationId":410,"StationOrder":3,"StationDirection":1,"RouteId":10,"StationName":"Ngã 4 Bình Thái","pathPoints":"106.77298737,10.84827995 106.76524353,10.83494473","Address":"Đối diện 592C, đường Xa Lộ Hà Nội, Quận Thủ Đức","Lat":10.834945,"Lng":106.765244},{"StationId":415,"StationOrder":4,"StationDirection":1,"RouteId":10,"StationName":"Cát Lái","pathPoints":"106.76524353,10.83494473 106.76524353,10.83494473 106.75835419,10.82243061 106.75732422,10.81610775 106.75616455,10.80965900 106.75543976,10.80801487 106.75444794,10.80641270 106.75290680,10.80493736 106.75170135,10.80409431 106.75032806,10.80346203 106.74794769,10.80292511 106.74794769,10.80292511","Address":"Đối diện Esstella, đường Xa Lộ Hà Nội, Quận 2","Lat":10.802925,"Lng":106.747948},{"StationId":420,"StationOrder":5,"StationDirection":1,"RouteId":10,"StationName":"Khu Du lịch Văn Thánh","pathPoints":"106.74794769,10.80292511 106.72204590,10.79806614 106.72024536,10.79844570 106.71744537,10.80015278","Address":"152/72c(559), đường Điện Biên Phủ, Quận Bình Thạnh","Lat":10.800274,"Lng":106.717227},{"StationId":726,"StationOrder":6,"StationDirection":1,"RouteId":10,"StationName":"Đền Trần Hưng Đạo","pathPoints":"106.71719360,10.80008030 106.71645355,10.80043030 106.71571350,10.80074024 106.71513367,10.80097008 106.71440125,10.80121994 106.71382904,10.80140018 106.71334839,10.80150986 106.71253967,10.80156040 106.71147156,10.80156994 106.71144104,10.80158043 106.71137238,10.80160999 106.71128082,10.80160046 106.71121979,10.80156994 106.71060944,10.80148029 106.71018982,10.80144978 106.70966339,10.80134964 106.70886230,10.80107021 106.70812988,10.80078030 106.70735931,10.80035019 106.70686340,10.80004978 106.70645142,10.79975033 106.70567322,10.79907990 106.70514679,10.79858017 106.70408630,10.79743004 106.70204163,10.79528046 106.70156860,10.79475975 106.70137024,10.79452991 106.70089722,10.79389954 106.69998932,10.79294968 106.69970703,10.79273033 106.69943237,10.79259968 106.69933319,10.79257011 106.69924927,10.79251003 106.69918823,10.79242039 106.69915771,10.79236984 106.69857025,10.79166985 106.69740295,10.79051018 106.69660950,10.79123020 106.69613647,10.79166031 106.69589233,10.79183006 106.69528961,10.79125023","Address":"18, đường Võ Thị Sáu, Quận 1","Lat":10.791369,"Lng":106.695238},{"StationId":727,"StationOrder":7,"StationDirection":1,"RouteId":10,"StationName":"Trần Quốc Thảo","pathPoints":"106.69523621,10.79136944 106.68624115,10.78229427","Address":"232, đường Võ Thị Sáu, Quận 3","Lat":10.782294,"Lng":106.686242},{"StationId":568,"StationOrder":8,"StationDirection":1,"RouteId":10,"StationName":"Siêu thị Maximark","pathPoints":"106.68624115,10.78229427 106.68211365,10.77807331 106.68196869,10.77805233 106.68178558,10.77817822 106.68160248,10.77817822 106.68141174,10.77805233 106.68130493,10.77787304 106.68104553,10.77760983 106.68077087,10.77716160","Address":"54, đường Đường 3/2, Quận 10","Lat":10.777162,"Lng":106.680771},{"StationId":95,"StationOrder":9,"StationDirection":1,"RouteId":10,"StationName":"Học viện Hành chính Quốc gia","pathPoints":"106.68077087,10.77716160 106.67954254,10.77523804 106.67694855,10.77345657","Address":"10, đường Đường 3/2, Quận 10","Lat":10.773457,"Lng":106.676951},{"StationId":571,"StationOrder":10,"StationDirection":1,"RouteId":10,"StationName":"Đại học kinh tế","pathPoints":"106.67678833,10.77324009 106.67369843,10.77131748 106.67156219,10.77005291 106.66821289,10.76822948 106.66710663,10.76773357 106.66861725,10.76107979","Address":"279, đường Nguyễn Tri Phương, Quận 10","Lat":10.761049,"Lng":106.668488},{"StationId":434,"StationOrder":11,"StationDirection":1,"RouteId":10,"StationName":"Hùng Vương Plaza","pathPoints":"106.66861725,10.76107979 106.66886902,10.76000023 106.66880798,10.75996971 106.66876221,10.75990009 106.66876984,10.75979042 106.66880798,10.75975037 106.66883087,10.75973034 106.66651154,10.75654984 106.66629791,10.75623989 106.66513824,10.75594044 106.66336060,10.75557041 106.66108704,10.75514030","Address":"132, đường Hồng Bàng, Quận 5","Lat":10.755196,"Lng":106.661072},{"StationId":728,"StationOrder":12,"StationDirection":1,"RouteId":10,"StationName":"CoopMart ","pathPoints":"106.66107178,10.75519562 106.66107178,10.75519562 106.66108704,10.75514030 106.65843964,10.75465870 106.65836334,10.75437450 106.65888214,10.75204468 106.65893555,10.75161743 106.65904999,10.75083733 106.65744781,10.75088501 106.65645599,10.75101185 106.65545654,10.75103760 106.65443420,10.75109100 106.65299988,10.75107479 106.65183258,10.75102234 106.65093994,10.75097466 106.64952087,10.75112247 106.64941406,10.74976254 106.64747620,10.74963570 106.64358521,10.74981022 106.64358521,10.74981022","Address":"148, đường Hậu Giang, Quận 6","Lat":10.749815,"Lng":106.643198},{"StationId":115,"StationOrder":13,"StationDirection":1,"RouteId":10,"StationName":"Mũi Tàu Phú Lâm","pathPoints":"106.64358521,10.74981022 106.64207458,10.74985790 106.63928986,10.74919319 106.62468719,10.74553585","Address":"1054, đường Hậu Giang, Quận 6","Lat":10.745536,"Lng":106.624686},{"StationId":725,"StationOrder":14,"StationDirection":1,"RouteId":10,"StationName":"Bến xe Miền Tây","pathPoints":"106.62468719,10.74553585 106.62468719,10.74553585 106.62403870,10.74541950 106.62400055,10.74564075 106.62377167,10.74574661 106.62355804,10.74560928 106.62341309,10.74546242 106.61829376,10.74121952 106.61853027,10.74089813 106.61831665,10.74070454 106.61831665,10.74070454","Address":"Bến xe Miền Tây, đường Kinh Dương Vương, Quận Bình Tân","Lat":10.740705,"Lng":106.618317}]