[{"StationId":1294,"StationOrder":0,"StationDirection":0,"RouteId":23,"StationName":"Bến xe Bình Mỹ","pathPoints":"","Address":"Cầu Phú Cường, đường Tỉnh lộ 8, Củ Chi, Huyện Củ Chi","Lat":10.979153,"Lng":106.643257},{"StationId":1313,"StationOrder":1,"StationDirection":0,"RouteId":23,"StationName":"Cầu Phú Cường","pathPoints":"106.64328003,10.97903728 106.64340210,10.97905827 106.64361572,10.97799969 106.64373779,10.97705746 106.64369965,10.97704983","Address":"1976, đường Tỉnh lộ 8, Củ Chi, Huyện Củ Chi","Lat":10.977236,"Lng":106.643708},{"StationId":1312,"StationOrder":2,"StationDirection":0,"RouteId":23,"StationName":"Ngã 3 Bến đò","pathPoints":"106.64369965,10.97704983 106.64379120,10.97600365 106.64373016,10.97478199 106.64335632,10.97449780 106.64233398,10.97411728","Address":"Đối diện 2006, đường Tỉnh lộ 8, Củ Chi, Huyện Củ Chi","Lat":10.974171,"Lng":106.642458},{"StationId":1315,"StationOrder":3,"StationDirection":0,"RouteId":23,"StationName":"Ngã 3 Bình Mỹ","pathPoints":"106.64233398,10.97411728 106.64066315,10.97348690 106.63815308,10.97334957","Address":"1875 (Đối diện 1930), đường Tỉnh lộ 8, Củ Chi, Huyện Củ Chi","Lat":10.97335,"Lng":106.638153},{"StationId":1314,"StationOrder":4,"StationDirection":0,"RouteId":23,"StationName":"Công ty Gum Gard","pathPoints":"106.63815308,10.97334957 106.63549042,10.97323418 106.63304901,10.97325039","Address":"1835, đường Tỉnh lộ 8, Huyện Củ Chi","Lat":10.973239,"Lng":106.633515},{"StationId":1316,"StationOrder":5,"StationDirection":0,"RouteId":23,"StationName":"Cầu Bà Bếp","pathPoints":"106.63304901,10.97325039 106.63187408,10.97339153 106.62844849,10.97396660","Address":"1785, đường Tỉnh lộ 8, Huyện Củ Chi","Lat":10.973967,"Lng":106.628448},{"StationId":1317,"StationOrder":6,"StationDirection":0,"RouteId":23,"StationName":"Cổng A Khu công nghiệp Đông Nam","pathPoints":"106.62844849,10.97396660 106.62669373,10.97427654 106.62496185,10.97495079 106.62303162,10.97585011","Address":"1725, đường Tỉnh lộ 8, Củ Chi, Huyện Củ Chi","Lat":10.975404,"Lng":106.623983},{"StationId":1318,"StationOrder":7,"StationDirection":0,"RouteId":23,"StationName":"Ngã 3 Lò Chén","pathPoints":"106.62303162,10.97585011 106.62207794,10.97643566 106.62020111,10.97771740","Address":"1687, đường Tỉnh lộ 8, Củ Chi, Huyện Củ Chi","Lat":10.977717,"Lng":106.620201},{"StationId":1319,"StationOrder":8,"StationDirection":0,"RouteId":23,"StationName":"Ngã 3 Bù Na, chợ Hòa Phú","pathPoints":"106.62020111,10.97771740 106.61833191,10.97876740","Address":"1655, đường Tỉnh lộ 8, Củ Chi, Huyện Củ Chi","Lat":10.978767,"Lng":106.618332},{"StationId":1320,"StationOrder":9,"StationDirection":0,"RouteId":23,"StationName":"Khu công nghiệp Cơ Khí Ô tô","pathPoints":"106.60913849,10.98058033 106.60430145,10.98145962","Address":"1479, đường Tỉnh lộ 8, Củ Chi, Huyện Củ Chi","Lat":10.98156,"Lng":106.603968},{"StationId":1323,"StationOrder":10,"StationDirection":0,"RouteId":23,"StationName":"Ngã 3 Trung An","pathPoints":"106.60431671,10.98157024 106.60430145,10.98145962 106.60044098,10.98220730 106.59908295,10.98223019 106.59909058,10.98241329","Address":"1405, đường Tỉnh lộ 8, Huyện Củ Chi","Lat":10.982518,"Lng":106.595283},{"StationId":1321,"StationOrder":11,"StationDirection":0,"RouteId":23,"StationName":"Công ty SAEHWAVINA","pathPoints":"106.59908295,10.98223019 106.59481049,10.98246956 106.59313202,10.98258018","Address":"1339, đường Tỉnh lộ 8, Huyện Củ Chi","Lat":10.982824,"Lng":106.590375},{"StationId":1324,"StationOrder":12,"StationDirection":0,"RouteId":23,"StationName":"Công ty Samho","pathPoints":"106.59313965,10.98274994 106.59313202,10.98258018 106.59150696,10.98272896 106.58985138,10.98279953 106.58986664,10.98295021","Address":"1245, đường Tỉnh lộ 8, Củ Chi, Huyện Củ Chi","Lat":10.983324,"Lng":106.583197},{"StationId":1322,"StationOrder":13,"StationDirection":0,"RouteId":23,"StationName":"Trường PTTH Tân Phú Trung","pathPoints":"106.58985138,10.98279953 106.58725739,10.98301029 106.58502960,10.98314953 106.57692719,10.98367977","Address":"đd 1318, đường Tỉnh lộ 8, Huyện Củ Chi","Lat":10.983608,"Lng":106.578771},{"StationId":1325,"StationOrder":14,"StationDirection":0,"RouteId":23,"StationName":"Ngã tư Tân Quy","pathPoints":"106.57692719,10.98367977 106.57569122,10.98377037","Address":"30, đường Tỉnh lộ 8, Huyện Củ Chi","Lat":10.983814,"Lng":106.575542},{"StationId":1326,"StationOrder":15,"StationDirection":0,"RouteId":23,"StationName":"Nguyễn Kim Cương","pathPoints":"106.57569122,10.98377037 106.57315826,10.98394012","Address":"120, đường Tỉnh lộ 8, Huyện Củ Chi","Lat":10.984146,"Lng":106.570913},{"StationId":1327,"StationOrder":16,"StationDirection":0,"RouteId":23,"StationName":"Công ty Thái Hà","pathPoints":"106.57317352,10.98410892 106.57315826,10.98394012 106.57149506,10.98407173 106.56999207,10.98414040 106.56999207,10.98426723","Address":"178-180, đường Tỉnh lộ 8, Huyện Củ Chi","Lat":10.98443,"Lng":106.56682},{"StationId":1328,"StationOrder":17,"StationDirection":0,"RouteId":23,"StationName":"Trạm y tế Tân Thạnh Tây","pathPoints":"106.56999207,10.98414040 106.56584167,10.98445034","Address":"Trạm y tế Tân Thạnh Tây, đường Tỉnh lộ 8, Huyện Củ Chi","Lat":10.984883,"Lng":106.560924},{"StationId":1329,"StationOrder":18,"StationDirection":0,"RouteId":23,"StationName":"Trường tiểu học Tân Thạnh Tây","pathPoints":"106.56584167,10.98445034 106.56279755,10.98468018","Address":"320, đường Tỉnh lộ 8, Huyện Củ Chi","Lat":10.984514,"Lng":106.553575},{"StationId":1330,"StationOrder":19,"StationDirection":0,"RouteId":23,"StationName":"Đồng Mã Vôi","pathPoints":"106.56282043,10.98485661 106.56279755,10.98468018 106.56021118,10.98488045 106.55978394,10.98492527 106.55935669,10.98491955 106.55886078,10.98488045 106.55884552,10.98502541","Address":"368A, đường Tỉnh lộ 8, Huyện Củ Chi","Lat":10.984061,"Lng":106.549659},{"StationId":1331,"StationOrder":20,"StationDirection":0,"RouteId":23,"StationName":"Ấp 5","pathPoints":"106.55886078,10.98488045 106.55242157,10.98433971 106.55045319,10.98416996 106.55014801,10.98410988","Address":"Kế 428A, đường Tỉnh lộ 8, Huyện Củ Chi","Lat":10.985141,"Lng":106.543972},{"StationId":1332,"StationOrder":21,"StationDirection":0,"RouteId":23,"StationName":"Cây xăng Petrolimet 58","pathPoints":"106.55014801,10.98410988 106.54821777,10.98369026 106.54765320,10.98361015 106.54733276,10.98361969 106.54704285,10.98367977 106.54650116,10.98388004 106.54535675,10.98439026 106.54422760,10.98491001 106.54337311,10.98542023","Address":"470B, đường Tỉnh lộ 8, Huyện Củ Chi","Lat":10.985978,"Lng":106.540405},{"StationId":1334,"StationOrder":22,"StationDirection":0,"RouteId":23,"StationName":"Công viên nước Củ Chi","pathPoints":"106.54337311,10.98542023 106.54268646,10.98577976 106.54232025,10.98591042 106.54178619,10.98602009 106.54158020,10.98604012 106.54118347,10.98602009 106.53806305,10.98569965 106.53736115,10.98561954 106.53323364,10.98515034","Address":"Đối diện cây xăng Tài Lộc 8, đường Tỉnh lộ 8, Huyện Củ Chi","Lat":10.985246,"Lng":106.533828},{"StationId":1333,"StationOrder":23,"StationDirection":0,"RouteId":23,"StationName":"Ấp 6","pathPoints":"106.53323364,10.98515034 106.53043365,10.98480988","Address":"637, đường Tỉnh lộ 8, Huyện Củ Chi","Lat":10.984714,"Lng":106.529006},{"StationId":1338,"StationOrder":24,"StationDirection":0,"RouteId":23,"StationName":"Cây Bài","pathPoints":"106.53043365,10.98480988 106.52931976,10.98466969 106.52768707,10.98451996 106.52696228,10.98443985 106.52651215,10.98445034","Address":"579, đường Tỉnh lộ 8, Huyện Củ Chi","Lat":10.984899,"Lng":106.524891},{"StationId":1335,"StationOrder":25,"StationDirection":0,"RouteId":23,"StationName":"Trường tiểu học Phước Vĩnh An","pathPoints":"106.52651215,10.98445034 106.52615356,10.98451996 106.52410889,10.98501968 106.52301788,10.98530960 106.52291107,10.98532009 106.52258301,10.98530960 106.52226257,10.98523045","Address":"Kế 549, đường Tỉnh lộ 8, Củ Chi, Huyện Củ Chi","Lat":10.985025,"Lng":106.521286},{"StationId":1339,"StationOrder":26,"StationDirection":0,"RouteId":23,"StationName":"Trần Văn Chẩm","pathPoints":"106.52226257,10.98523045 106.51966095,10.98456001","Address":"521, đường Tỉnh lộ 8, Huyện Củ Chi","Lat":10.984288,"Lng":106.518223},{"StationId":1336,"StationOrder":27,"StationDirection":0,"RouteId":23,"StationName":"Cây xăng Hoàng Sơn","pathPoints":"106.51966095,10.98456001 106.51721191,10.98392963 106.51660919,10.98375034","Address":"441 (Đối diện 546), đường Tỉnh lộ 8, Huyện Củ Chi","Lat":10.982808,"Lng":106.512473},{"StationId":1341,"StationOrder":28,"StationDirection":0,"RouteId":23,"StationName":"Tỉnh lộ 2","pathPoints":"106.51656342,10.98390865 106.51660919,10.98375034 106.51361084,10.98301983 106.51073456,10.98231316 106.50348663,10.97823334","Address":"399, đường Tỉnh lộ 8, Huyện Củ Chi","Lat":10.98126,"Lng":106.508793},{"StationId":1343,"StationOrder":29,"StationDirection":0,"RouteId":23,"StationName":"Ủy Ban nhân dân thị Trấn Củ Chi","pathPoints":"106.50348663,10.97823334 106.50028992,10.97645187","Address":"185, đường Tỉnh lộ 8, Huyện Củ Chi","Lat":10.976188,"Lng":106.499947},{"StationId":1342,"StationOrder":30,"StationDirection":0,"RouteId":23,"StationName":"Ủy Ban nhân dân huyện Củ Chi","pathPoints":"106.50028992,10.97645187 106.49436951,10.97301579","Address":"Đối diện bưu điện Củ Chi, đường Tỉnh lộ 8, Huyện Củ Chi","Lat":10.973016,"Lng":106.49437},{"StationId":1340,"StationOrder":31,"StationDirection":0,"RouteId":23,"StationName":"Trường trung cấp Nghề Củ Chi","pathPoints":"106.49436951,10.97301579 106.49118042,10.97121716","Address":"Đối diện 116 , đường Tỉnh lộ 8, Huyện Củ Chi","Lat":10.971159,"Lng":106.491176},{"StationId":1345,"StationOrder":32,"StationDirection":0,"RouteId":23,"StationName":"Trung tâm văn hóa Củ Chi","pathPoints":"106.49118042,10.97121716 106.48780060,10.96926689","Address":"Trung tâm văn hóa Củ Chi, đường Tỉnh lộ 8, Huyện Củ Chi","Lat":10.969195,"Lng":106.487818},{"StationId":732,"StationOrder":33,"StationDirection":0,"RouteId":23,"StationName":"Bến xe Củ Chi","pathPoints":"106.48780060,10.96926689 106.48781586,10.96917915 106.48647308,10.96865749 106.48620605,10.96864700 106.48601532,10.96868420 106.48587036,10.96858883 106.48506165,10.96904182 106.48248291,10.97075844 106.48181152,10.97130680 106.48210144,10.97161674","Address":"Bến xe Củ Chi, đường Quốc lộ 22, Huyện Củ Chi","Lat":10.971617,"Lng":106.482099},{"StationId":732,"StationOrder":0,"StationDirection":1,"RouteId":23,"StationName":"Bến xe Củ Chi","pathPoints":"","Address":"Bến xe Củ Chi, đường Quốc lộ 22, Huyện Củ Chi","Lat":10.971617,"Lng":106.482099},{"StationId":7617,"StationOrder":1,"StationDirection":1,"RouteId":23,"StationName":"chợ Củ Chi","pathPoints":"106.48210144,10.97161674 106.48188782,10.97178078 106.48249054,10.97271252 106.48316956,10.97370815 106.48303986,10.97376060 106.48152161,10.97139072 106.48188782,10.97103214 106.48246765,10.97056961","Address":"chợ Củ Chi, đường Quốc lộ 22, Huyện Củ Chi","Lat":10.970495,"Lng":106.482453},{"StationId":1263,"StationOrder":2,"StationDirection":1,"RouteId":23,"StationName":"Trung tâm văn hóa Củ Chi","pathPoints":"106.48245239,10.97049522 106.48463440,10.96908379 106.48583984,10.96838856 106.48611450,10.96827316 106.48635101,10.96838856 106.48645782,10.96859932 106.48741913,10.96889973","Address":"12, đường Tỉnh lộ 8, Huyện Củ Chi","Lat":10.9689,"Lng":106.487421},{"StationId":1265,"StationOrder":3,"StationDirection":1,"RouteId":23,"StationName":"Trường trung cấp nghề Củ Chi","pathPoints":"106.48741913,10.96889973 106.48791504,10.96913624 106.48904419,10.96982670 106.49061584,10.97068977","Address":"110, đường Tỉnh lộ 8, Huyện Củ Chi","Lat":10.97069,"Lng":106.490613},{"StationId":1259,"StationOrder":4,"StationDirection":1,"RouteId":23,"StationName":"Ủy Ban nhân dân huyện Củ Chi","pathPoints":"106.49061584,10.97068977 106.49261475,10.97185898 106.49455261,10.97292805","Address":"Bưu điện Củ Chi, đường Tỉnh lộ 8, Huyện Củ Chi","Lat":10.972928,"Lng":106.49455},{"StationId":1262,"StationOrder":5,"StationDirection":1,"RouteId":23,"StationName":"Ủy Ban nhân dân thị Trấn Củ Chi","pathPoints":"106.49455261,10.97292805 106.49915314,10.97559261","Address":"274, đường Tỉnh lộ 8, Huyện Củ Chi","Lat":10.975593,"Lng":106.499153},{"StationId":1264,"StationOrder":6,"StationDirection":1,"RouteId":23,"StationName":"Tỉnh lộ 2","pathPoints":"106.49900055,10.97553253 106.50875092,10.98106670","Address":"506, đường Tỉnh lộ 8, Huyện Củ Chi","Lat":10.981067,"Lng":106.508751},{"StationId":1270,"StationOrder":7,"StationDirection":1,"RouteId":23,"StationName":"Cây xăng Hoàng Sơn","pathPoints":"106.50875092,10.98106670 106.51062775,10.98214436 106.51113129,10.98234463 106.51274872,10.98274040","Address":"552, đường Tỉnh lộ 8, Huyện Củ Chi","Lat":10.98274,"Lng":106.512752},{"StationId":1272,"StationOrder":8,"StationDirection":1,"RouteId":23,"StationName":"Trần Văn Chẩm","pathPoints":"106.51274872,10.98274040 106.51687622,10.98377705","Address":"606B, đường Tỉnh lộ 8, Huyện Củ Chi","Lat":10.983777,"Lng":106.516877},{"StationId":1266,"StationOrder":9,"StationDirection":1,"RouteId":23,"StationName":"Trường tiểu học Phước Vĩnh An","pathPoints":"106.51687622,10.98377705 106.51688385,10.98385048 106.51686096,10.98381901 106.51862335,10.98431396 106.52011871,10.98462009 106.52011871,10.98462009","Address":"Đối diện 543A (660), đường Tỉnh lộ 8, Huyện Củ Chi","Lat":10.98462,"Lng":106.520122},{"StationId":1274,"StationOrder":10,"StationDirection":1,"RouteId":23,"StationName":"Cây Bài","pathPoints":"106.52011871,10.98462009 106.52283478,10.98532486 106.52514648,10.98469257","Address":"738, đường Tỉnh lộ 8, Huyện Củ Chi","Lat":10.984693,"Lng":106.525143},{"StationId":1267,"StationOrder":11,"StationDirection":1,"RouteId":23,"StationName":"Ấp 6","pathPoints":"106.52514648,10.98472500 106.52602386,10.98451424 106.52687836,10.98440933 106.52973175,10.98471451","Address":"Kế 768, đường Tỉnh lộ 8, Củ Chi, Huyện Củ Chi","Lat":10.984651,"Lng":106.529735},{"StationId":1276,"StationOrder":12,"StationDirection":1,"RouteId":23,"StationName":"Công viên Nước Củ Chi","pathPoints":"106.52990723,10.98474026 106.53366852,10.98519993","Address":"Cột điện KCN/TQ 104, đường Tỉnh lộ 8, Huyện Củ Chi","Lat":10.985157,"Lng":106.53415},{"StationId":1269,"StationOrder":13,"StationDirection":1,"RouteId":23,"StationName":"Cây xăng petrolimet 58","pathPoints":"106.53414917,10.98515701 106.53992462,10.98582458","Address":"Đối diện 472, đường Tỉnh lộ 8, Huyện Củ Chi","Lat":10.985825,"Lng":106.539928},{"StationId":1271,"StationOrder":14,"StationDirection":1,"RouteId":23,"StationName":"Ấp 5 (Thành Đạt)","pathPoints":"106.53992462,10.98582458 106.54157257,10.98603058 106.54273987,10.98574638 106.54516602,10.98437691","Address":"415, đường Tỉnh lộ 8, Huyện Củ Chi","Lat":10.984377,"Lng":106.545163},{"StationId":1278,"StationOrder":15,"StationDirection":1,"RouteId":23,"StationName":"Đồng Mã Vôi","pathPoints":"106.54516602,10.98437691 106.54631042,10.98389244 106.54751587,10.98356628 106.54942322,10.98390293 106.55037689,10.98409271 106.55133820,10.98420238","Address":"đd 348 (369), đường Tỉnh lộ 8, Huyện Củ Chi","Lat":10.984202,"Lng":106.551338},{"StationId":1273,"StationOrder":16,"StationDirection":1,"RouteId":23,"StationName":"Trường tiểu học Tân Thạnh Tây","pathPoints":"106.55133820,10.98420238 106.55274963,10.98436165 106.55400848,10.98446178 106.55416870,10.98438835","Address":"327, đường Tỉnh lộ 8, Huyện Củ Chi","Lat":10.984388,"Lng":106.554165},{"StationId":1280,"StationOrder":17,"StationDirection":1,"RouteId":23,"StationName":"UBND xã Tân Thạnh Tây","pathPoints":"106.55416870,10.98438835 106.55609894,10.98459816 106.55802917,10.98475647 106.55996704,10.98487186 106.56193542,10.98468304","Address":"UBND xã Tân Thạnh Tây, đường Tỉnh lộ 8, Huyện Củ Chi","Lat":10.984772,"Lng":106.560618},{"StationId":1275,"StationOrder":18,"StationDirection":1,"RouteId":23,"StationName":"Công ty Thái Hà","pathPoints":"106.56193542,10.98468304 106.56204224,10.98469353 106.56395721,10.98458767 106.56598663,10.98439312","Address":"193, đường Tỉnh lộ 8, Củ Chi, Huyện Củ Chi","Lat":10.984314,"Lng":106.565977},{"StationId":1277,"StationOrder":19,"StationDirection":1,"RouteId":23,"StationName":"Nguyễn Kim Cương","pathPoints":"106.56597900,10.98431396 106.56616974,10.98440933 106.56877899,10.98420906 106.57147980,10.98402977 106.57157135,10.98394489","Address":"113 - 115, đường Tỉnh lộ 8, Huyện Củ Chi","Lat":10.983945,"Lng":106.571572},{"StationId":1279,"StationOrder":20,"StationDirection":1,"RouteId":23,"StationName":"Ngã tư Tân Quy","pathPoints":"106.57157135,10.98394489 106.57161713,10.98400307 106.57318115,10.98392391 106.57478333,10.98379803 106.57483673,10.98373508","Address":"27, đường Tỉnh lộ 8, Huyện Củ Chi","Lat":10.983735,"Lng":106.574834},{"StationId":1283,"StationOrder":21,"StationDirection":1,"RouteId":23,"StationName":"Trường PTTH Trung Phú","pathPoints":"106.57483673,10.98373508 106.57501221,10.98379803 106.57741547,10.98362923 106.57984924,10.98347187 106.58003998,10.98334980","Address":"1318, đường Tỉnh lộ 8, Huyện Củ Chi","Lat":10.98335,"Lng":106.580037},{"StationId":1281,"StationOrder":22,"StationDirection":1,"RouteId":23,"StationName":"Công ty Samho","pathPoints":"106.58003998,10.98334980 106.58010864,10.98343945 106.58119965,10.98338223 106.58230591,10.98330307 106.58238220,10.98324490","Address":"1370, đường Tỉnh lộ 8, Củ Chi, Huyện Củ Chi","Lat":10.983245,"Lng":106.582382},{"StationId":1284,"StationOrder":23,"StationDirection":1,"RouteId":23,"StationName":"Công ty SAEHWAVINA","pathPoints":"106.58238220,10.98324490 106.58253479,10.98328209 106.58591461,10.98305035 106.58933258,10.98281860 106.58943939,10.98273373","Address":"1476, đường Tỉnh lộ 8, Huyện Củ Chi","Lat":10.982734,"Lng":106.589441},{"StationId":1282,"StationOrder":24,"StationDirection":1,"RouteId":23,"StationName":"Ngã 3 Trung An","pathPoints":"106.58943939,10.98273373 106.59407806,10.98244953","Address":"1504, đường Tỉnh lộ 8, Củ Chi, Huyện Củ Chi","Lat":10.98245,"Lng":106.594076},{"StationId":1285,"StationOrder":25,"StationDirection":1,"RouteId":23,"StationName":"Cây xăng Hoàng Phi","pathPoints":"106.59407806,10.98244953 106.59870148,10.98217583","Address":"1556, đường Tỉnh lộ 8, Củ Chi, Huyện Củ Chi","Lat":10.982176,"Lng":106.5987},{"StationId":1286,"StationOrder":26,"StationDirection":1,"RouteId":23,"StationName":"Khu công nghiệp cơ khí Ô tô","pathPoints":"106.59870148,10.98217583 106.60042572,10.98213387 106.60331726,10.98152828","Address":"1602, đường Tỉnh lộ 8, Huyện Củ Chi","Lat":10.981528,"Lng":106.603314},{"StationId":1287,"StationOrder":27,"StationDirection":1,"RouteId":23,"StationName":"Trường Hòa Phú","pathPoints":"106.60331726,10.98152828 106.60369873,10.98153400 106.60573578,10.98121738 106.60765839,10.98088074 106.60825348,10.98069096","Address":"Đối diện 1533, đường Tỉnh lộ 8, Củ Chi, Huyện Củ Chi","Lat":10.980691,"Lng":106.608254},{"StationId":1288,"StationOrder":28,"StationDirection":1,"RouteId":23,"StationName":"Chùa Phước Hòa","pathPoints":"106.60825348,10.98069096 106.60842133,10.98071194 106.61010742,10.98043823 106.61183167,10.98010159 106.61203003,10.98001671","Address":"Đối diện 1567, đường Tỉnh lộ 8, Củ Chi, Huyện Củ Chi","Lat":10.980017,"Lng":106.612031},{"StationId":1289,"StationOrder":29,"StationDirection":1,"RouteId":23,"StationName":"Ngã 3 Bù Na, chợ Hòa Phú","pathPoints":"106.61203003,10.98001671 106.61225128,10.98003769 106.61377716,10.97975349 106.61550903,10.97940636 106.61569977,10.97931576","Address":"1722, đường Tỉnh lộ 8, Huyện Củ Chi","Lat":10.979316,"Lng":106.6157},{"StationId":1291,"StationOrder":30,"StationDirection":1,"RouteId":23,"StationName":"Ngã 3 Lò Chén","pathPoints":"106.61569977,10.97931576 106.61587524,10.97933197 106.61663055,10.97922707 106.61851501,10.97864723 106.61991882,10.97785759 106.62094116,10.97707844","Address":"1820, đường Tỉnh lộ 8, Huyện Củ Chi","Lat":10.977078,"Lng":106.620941},{"StationId":1295,"StationOrder":31,"StationDirection":1,"RouteId":23,"StationName":"Công A Khu công nghiệp Đông Nam","pathPoints":"106.62090302,10.97710037 106.62217712,10.97620392 106.62318420,10.97566700","Address":"1884, đường Tỉnh lộ 8, Củ Chi, Huyện Củ Chi","Lat":10.975441,"Lng":106.623623},{"StationId":1290,"StationOrder":32,"StationDirection":1,"RouteId":23,"StationName":"Cầu Bà Bếp","pathPoints":"106.62362671,10.97544098 106.62557983,10.97457123 106.62660217,10.97420311 106.62789154,10.97395515","Address":"1882A, đường Tỉnh lộ 8, Huyện Củ Chi","Lat":10.973955,"Lng":106.627888},{"StationId":1293,"StationOrder":33,"StationDirection":1,"RouteId":23,"StationName":"Công ty Gum Gard","pathPoints":"106.62788391,10.97397137 106.63086700,10.97348690 106.63232422,10.97322369 106.63385010,10.97309685","Address":"1926C, đường Tỉnh lộ 8, Củ Chi, Huyện Củ Chi","Lat":10.973097,"Lng":106.633853},{"StationId":1292,"StationOrder":34,"StationDirection":1,"RouteId":23,"StationName":"Ngã 3 Bình Mỹ","pathPoints":"106.63386536,10.97312355 106.63639832,10.97315979 106.63896942,10.97326565","Address":"1960, đường Tỉnh lộ 8, Huyện Củ Chi","Lat":10.973266,"Lng":106.638971},{"StationId":1310,"StationOrder":35,"StationDirection":1,"RouteId":23,"StationName":"Cầu Phú Cường","pathPoints":"106.63896942,10.97326565 106.64190674,10.97382355 106.64347076,10.97449780 106.64388275,10.97479248 106.64378357,10.97753143","Address":"2114, đường Tỉnh lộ 8, Củ Chi, Huyện Củ Chi","Lat":10.977531,"Lng":106.643783},{"StationId":1294,"StationOrder":36,"StationDirection":1,"RouteId":23,"StationName":"Bến xe Bình Mỹ","pathPoints":"106.64378357,10.97753143 106.64360046,10.97834778 106.64346313,10.97918510 106.64325714,10.97915268","Address":"Cầu Phú Cường, đường Tỉnh lộ 8, Củ Chi, Huyện Củ Chi","Lat":10.979153,"Lng":106.643257}]