[{"StationId":4112,"StationOrder":0,"StationDirection":0,"RouteId":54,"StationName":"Bến Xe Buýt ÐH Quốc Gia","pathPoints":"","Address":"Bến xe buýt Khu B - ĐH Quốc Gia, đường Đường nội bộ Đại học Quốc gia, Quận Thủ Đức","Lat":10.884156227111816,"Lng":106.77871704101562},{"StationId":572,"StationOrder":1,"StationDirection":0,"RouteId":54,"StationName":"Đại học An Ninh Nhân Dân","pathPoints":"106.77871704,10.88415623 106.77839661,10.88381958 106.78056335,10.88171959 106.78067780,10.88156986 106.78112030,10.88070011 106.78235626,10.88173962 106.78262329,10.88197994 106.78328705,10.88132000 106.78383636,10.88088036 106.78441620,10.88057041 106.78546906,10.88014984 106.78618622,10.87996006 106.78658295,10.87987041 106.78692627,10.87983036 106.78778839,10.87977982 106.78838348,10.87981987 106.78981018,10.87996960 106.79183960,10.88002968 106.79325867,10.88010025 106.79380798,10.88022995 106.79473114,10.88047981 106.79518127,10.88061047 106.79604340,10.88086033 106.79662323,10.88103962 106.79698944,10.88121986 106.79818726,10.88191986 106.79969788,10.88278961 106.80030060,10.88302040 106.80065918,10.88315010 106.80098724,10.88236046 106.80172729,10.88051987 106.80209351,10.87961006 106.80281067,10.87749004 106.80300140,10.87689972 106.80316162,10.87654018 106.80313873,10.87640953 106.80323029,10.87639999 106.80364227,10.87631989 106.80442047,10.87604046 106.80467987,10.87590981 106.80506134,10.87557030 106.80513000,10.87547016 106.80523682,10.87526035 106.80520630,10.87500954 106.80558014,10.87495995 106.80657959,10.87452030 106.80677032,10.87444019 106.80734253,10.87413025 106.80787659,10.87378979 106.80821991,10.87337780 106.80735779,10.87217712 106.80673218,10.87131786 106.80697632,10.87112808 106.80697632,10.87112808 106.80697632,10.87112808","Address":"Nhà máy Tiến Thành, đường Quốc lộ 1, Quận Thủ Đức","Lat":10.871128,"Lng":106.806979},{"StationId":576,"StationOrder":2,"StationDirection":0,"RouteId":54,"StationName":"Trường giáo dục Quốc phòng","pathPoints":"106.80697632,10.87112808 106.80673218,10.87131310 106.80551147,10.86980057 106.80443573,10.86876869 106.80410767,10.86846256 106.80436707,10.86821556","Address":"Trường giáo dục Quốc phòng, đường Quốc lộ 1, Quận Thủ Đức","Lat":10.868216,"Lng":106.804367},{"StationId":574,"StationOrder":3,"StationDirection":0,"RouteId":54,"StationName":"Khu DL Suối Tiên","pathPoints":"106.80436707,10.86821556 106.80436707,10.86821556 106.80436707,10.86821556 106.80413818,10.86845779 106.80281830,10.86703491 106.80111694,10.86604977 106.80111694,10.86604977 106.80111694,10.86604977","Address":"9/29, đường Quốc lộ 1, Quận Thủ Đức","Lat":10.86605,"Lng":106.801116},{"StationId":4560,"StationOrder":4,"StationDirection":0,"RouteId":54,"StationName":"Suối Tiên","pathPoints":"106.80111694,10.86604977 106.80111694,10.86604977 106.80078125,10.86582375 106.80038452,10.86561298 106.80038452,10.86561298","Address":"18/1, đường Quốc lộ 1, Quận Thủ Đức","Lat":10.865613,"Lng":106.800381},{"StationId":2145,"StationOrder":5,"StationDirection":0,"RouteId":54,"StationName":"Thảo Nguyên","pathPoints":"106.80038452,10.86561298 106.79837799,10.86449528 106.79764557,10.86442184 106.79630280,10.86454296 106.79489136,10.86478043 106.79413605,10.86514854 106.79393768,10.86533546","Address":"35B, đường Quốc lộ 1, Quận Thủ Đức","Lat":10.865335,"Lng":106.793938},{"StationId":500,"StationOrder":6,"StationDirection":0,"RouteId":54,"StationName":"Đại học Nông Lâm","pathPoints":"106.79393768,10.86533546 106.79309845,10.86587048 106.79233551,10.86637115 106.79109955,10.86696053","Address":"85 (Đối diện 1026-1028), đường Quốc lộ 1, Quận Thủ Đức","Lat":10.866961,"Lng":106.791101},{"StationId":1101,"StationOrder":7,"StationDirection":0,"RouteId":54,"StationName":"ĐH Nông Lâm","pathPoints":"106.79109955,10.86696053 106.79009247,10.86718273 106.78726196,10.86740398","Address":"Kế 21, đường Quốc lộ 1, Quận Thủ Đức","Lat":10.867404,"Lng":106.787265},{"StationId":1102,"StationOrder":8,"StationDirection":0,"RouteId":54,"StationName":"Công ty điện tử Samsung","pathPoints":"106.78726196,10.86740398 106.78545380,10.86739349 106.78442383,10.86742496 106.78344727,10.86752987 106.78237915,10.86775112 106.78220367,10.86786747","Address":"34/38 (Kế 59/6), đường Quốc lộ 1, Quận Thủ Đức","Lat":10.867867,"Lng":106.782201},{"StationId":1103,"StationOrder":9,"StationDirection":0,"RouteId":54,"StationName":"Đại học Kinh tế -Luật","pathPoints":"106.78220367,10.86786747 106.77790833,10.86927414","Address":"Đại học Kinh tế -Luật, đường Quốc lộ 1, Quận Thủ Đức","Lat":10.869274,"Lng":106.777909},{"StationId":2142,"StationOrder":10,"StationDirection":0,"RouteId":54,"StationName":"Trung tâm kho vận Linh Xuân","pathPoints":"106.77790833,10.86927414 106.77790833,10.86927414 106.77790833,10.86927414 106.77781677,10.86916828 106.77491760,10.87009048 106.77493286,10.87025356 106.77493286,10.87025356 106.77493286,10.87025356","Address":"Trung tâm kho vận Linh Xuân, đường Quốc lộ 1, Quận Thủ Đức","Lat":10.870254,"Lng":106.774932},{"StationId":2147,"StationOrder":11,"StationDirection":0,"RouteId":54,"StationName":"Nghĩa trang Thành phố","pathPoints":"106.77493286,10.87025356 106.77493286,10.87025356 106.77390289,10.87051201 106.77288055,10.87091160 106.77288055,10.87091160","Address":"Cột điện NG/1, đường Quốc lộ 1, Quận Thủ Đức","Lat":10.870912,"Lng":106.772878},{"StationId":2143,"StationOrder":12,"StationDirection":0,"RouteId":54,"StationName":"Công ty Nissan","pathPoints":"106.77288055,10.87091160 106.77288055,10.87091160 106.77182007,10.87117577 106.77082062,10.87157059 106.77082062,10.87157059","Address":"Đối diện công ty Nissan, đường Quốc lộ 1, Quận Thủ Đức","Lat":10.871571,"Lng":106.770823},{"StationId":339,"StationOrder":13,"StationDirection":0,"RouteId":54,"StationName":"Cầu vượt Linh Xuân","pathPoints":"106.77078247,10.87147045 106.76754761,10.87252998 106.76730347,10.87269974 106.76686859,10.87285042 106.76580811,10.87322998 106.76458740,10.87362003 106.76332092,10.87403965 106.76293182,10.87407970 106.76233673,10.87427998 106.76203918,10.87438011","Address":"559, đường Quốc lộ 1, Quận Thủ Đức","Lat":10.874474,"Lng":106.762095},{"StationId":341,"StationOrder":14,"StationDirection":0,"RouteId":54,"StationName":"Giày Thái Bình-Bình Đường","pathPoints":"106.76209259,10.87447357 106.76120758,10.87467957 106.75969696,10.87516880 106.75868988,10.87545395","Address":"467B, đường Quốc lộ 1, Quận Thủ Đức","Lat":10.875454,"Lng":106.758689},{"StationId":343,"StationOrder":15,"StationDirection":0,"RouteId":54,"StationName":"Giày Thái Bình","pathPoints":"106.75868988,10.87545395 106.75797272,10.87550640 106.75730133,10.87573814","Address":"Đối diện 22/8, đường Quốc lộ 1, Quận Thủ Đức","Lat":10.875738,"Lng":106.757305},{"StationId":342,"StationOrder":16,"StationDirection":0,"RouteId":54,"StationName":"Bến xe Lam Hồng","pathPoints":"106.75730133,10.87573814 106.75648499,10.87580109 106.75563049,10.87604904","Address":"12A/28, đường Quốc lộ 1, Quận Thủ Đức","Lat":10.876049,"Lng":106.755631},{"StationId":344,"StationOrder":17,"StationDirection":0,"RouteId":54,"StationName":"Cầu vượt Sóng Thần","pathPoints":"106.75553131,10.87594032 106.75489807,10.87605953 106.75421906,10.87615967 106.75382996,10.87617016 106.75346375,10.87615013 106.75312805,10.87609959 106.75231934,10.87590027 106.75132751,10.87557030 106.74655151,10.87399960","Address":"275, đường Quốc lộ 1, Quận Thủ Đức","Lat":10.874115,"Lng":106.746528},{"StationId":346,"StationOrder":18,"StationDirection":0,"RouteId":54,"StationName":"Chợ Tam Hải","pathPoints":"106.74652863,10.87411499 106.74542236,10.87366199 106.74429321,10.87337303","Address":"251B, đường Quốc lộ 1, Quận Thủ Đức","Lat":10.873373,"Lng":106.744291},{"StationId":345,"StationOrder":19,"StationDirection":0,"RouteId":54,"StationName":"Hồ Bơi","pathPoints":"106.74429321,10.87337303 106.74176788,10.87244987 106.74092102,10.87224007 106.73991394,10.87217712","Address":"179, đường Quốc lộ 1, Quận Thủ Đức","Lat":10.872177,"Lng":106.739913},{"StationId":348,"StationOrder":20,"StationDirection":0,"RouteId":54,"StationName":"Chợ Tam Bình","pathPoints":"106.73991394,10.87217712 106.73837280,10.87187004 106.73751068,10.87174988 106.73639679,10.87148952 106.73533630,10.87110996 106.73447418,10.87082767","Address":"Đối diện Bưu điện Tam Bình, đường Quốc lộ 1, Quận Thủ Đức","Lat":10.870828,"Lng":106.734474},{"StationId":347,"StationOrder":21,"StationDirection":0,"RouteId":54,"StationName":"Chợ đầu mối nông sản Thủ Đức","pathPoints":"106.73447418,10.87082767 106.73307800,10.87003994 106.73204041,10.86952972 106.72915649,10.86812019","Address":"Chợ đầu mối nông sản Thủ Đức, đường Quốc lộ 1, Quận Thủ Đức","Lat":10.86812,"Lng":106.729158},{"StationId":2348,"StationOrder":22,"StationDirection":0,"RouteId":54,"StationName":"Cầu Bình Phước","pathPoints":"106.72915649,10.86812019 106.72653198,10.86666965 106.72357941,10.86522007 106.71989441,10.86345100","Address":"39A, đường Quốc lộ 1, Quận Thủ Đức","Lat":10.863451,"Lng":106.719894},{"StationId":2345,"StationOrder":23,"StationDirection":0,"RouteId":54,"StationName":"Aone","pathPoints":"106.71989441,10.86345100 106.71694183,10.86185074 106.71385193,10.86039734","Address":"Đối diện Aone, đường Quốc lộ 1A, Quận 12","Lat":10.85997,"Lng":106.713096},{"StationId":2349,"StationOrder":24,"StationDirection":0,"RouteId":54,"StationName":"Công ty EUROPA","pathPoints":"106.71309662,10.85997009 106.71346283,10.86003971 106.71234131,10.85947037 106.71154022,10.85908985 106.71115875,10.85896969 106.71031189,10.85883713 106.70943451,10.85883713 106.70771790,10.85905361 106.70772552,10.85914803","Address":"Công ty EUROPA, đường Quốc lộ 1A, Quận 12","Lat":10.859148,"Lng":106.707727},{"StationId":2347,"StationOrder":25,"StationDirection":0,"RouteId":54,"StationName":"Tu viện Khánh An","pathPoints":"106.70772552,10.85914803 106.70770264,10.85905361 106.70493317,10.85940647 106.70494843,10.85949612","Address":"Tôn Phương Nam (1048/3B), đường Quốc lộ 1A, Quận 12","Lat":10.859496,"Lng":106.704948},{"StationId":2350,"StationOrder":26,"StationDirection":0,"RouteId":54,"StationName":"Công ty Mai Linh","pathPoints":"106.70494843,10.85949612 106.70491791,10.85941219 106.70107269,10.85989666 106.70108795,10.86000729","Address":"1691/3N, đường Quốc lộ 1A, Quận 12","Lat":10.860007,"Lng":106.701086},{"StationId":2351,"StationOrder":27,"StationDirection":0,"RouteId":54,"StationName":"Đình An Phú Đông","pathPoints":"106.70108795,10.86000729 106.70105743,10.85989094 106.69824982,10.86026573 106.69543457,10.86056519 106.69544983,10.86065006","Address":"Đối diện Đình An Phú Đông, đường Quốc lộ 1A, Quận 12","Lat":10.86065,"Lng":106.695453},{"StationId":2353,"StationOrder":28,"StationDirection":0,"RouteId":54,"StationName":"Đài Liệt sĩ An Phú Đông","pathPoints":"106.69544983,10.86065006 106.69539642,10.86057091 106.69119263,10.86086082 106.69115448,10.86094475","Address":"Đài Liệt sĩ An Phú Đông, đường Quốc lộ 1A, Quận 12","Lat":10.860876,"Lng":106.69224},{"StationId":2352,"StationOrder":29,"StationDirection":0,"RouteId":54,"StationName":"Công ty Hồng Mã","pathPoints":"106.69115448,10.86094475 106.69116974,10.86086559 106.68939972,10.86095524 106.68941498,10.86104012","Address":"Công ty Hồng Mã, đường Quốc lộ 1A, Quận 12","Lat":10.86104,"Lng":106.689413},{"StationId":2355,"StationOrder":30,"StationDirection":0,"RouteId":54,"StationName":"Phường An Phú Đông","pathPoints":"106.68941498,10.86104012 106.68942261,10.86098194 106.68517303,10.86124516 106.68517303,10.86132431","Address":"616 - 618, đường Quốc lộ 1A, Quận 12","Lat":10.861324,"Lng":106.685175},{"StationId":2357,"StationOrder":31,"StationDirection":0,"RouteId":54,"StationName":"Cầu Ga Nhỏ","pathPoints":"106.68517303,10.86132431 106.68515015,10.86124039 106.68230438,10.86141872 106.68231964,10.86150265 106.68231964,10.86150265","Address":"161, đường Quốc lộ 1A, Quận 12","Lat":10.861503,"Lng":106.682321},{"StationId":2354,"StationOrder":32,"StationDirection":0,"RouteId":54,"StationName":"Bến xe Ngã tư Ga","pathPoints":"106.68231964,10.86150265 106.68231964,10.86150265 106.68231201,10.86140347 106.68020630,10.86156654 106.67933655,10.86164570 106.67935181,10.86172485","Address":"Bến xe Ngã tư ga, đường Quốc lộ 1A, Quận 12","Lat":10.861725,"Lng":106.679354},{"StationId":976,"StationOrder":33,"StationDirection":0,"RouteId":54,"StationName":"Khu QLGTĐT số 3","pathPoints":"106.67935181,10.86172485 106.67936707,10.86163998 106.67700195,10.86181450 106.67456055,10.86190891 106.67456055,10.86196709","Address":"96/2, đường Quốc lộ 1A, Quận 12","Lat":10.861967,"Lng":106.674564},{"StationId":964,"StationOrder":34,"StationDirection":0,"RouteId":54,"StationName":"Tô Ngọc Vân","pathPoints":"106.67456055,10.86196709 106.67454529,10.86188221 106.67194366,10.86186123 106.67193604,10.86190414 106.67193604,10.86190414","Address":"972, đường Quốc lộ 1A, Quận 12","Lat":10.861904,"Lng":106.671935},{"StationId":965,"StationOrder":35,"StationDirection":0,"RouteId":54,"StationName":"Trường Mầm non Ngôi Nhà Trẻ Thơ","pathPoints":"106.67193604,10.86190414 106.67193604,10.86190414 106.67194366,10.86179829 106.66744232,10.86174583 106.66745758,10.86187744","Address":"990, đường Quốc lộ 1A, Quận 12","Lat":10.861877,"Lng":106.667461},{"StationId":977,"StationOrder":36,"StationDirection":0,"RouteId":54,"StationName":"Cơ khí Minh Huy","pathPoints":"106.66745758,10.86187744 106.66747284,10.86177731 106.66430664,10.86176682 106.66139221,10.86169338 106.66139221,10.86181927","Address":"1218/11, đường Quốc lộ 1A, Quận 12","Lat":10.861819,"Lng":106.661389},{"StationId":966,"StationOrder":37,"StationDirection":0,"RouteId":54,"StationName":"Đá hoa cương Chí Thành","pathPoints":"106.66139221,10.86181927 106.66140747,10.86170864 106.65929413,10.86177731 106.65716553,10.86190891 106.65718079,10.86198807","Address":"1360, đường Quốc lộ 1A, Quận 12","Lat":10.861988,"Lng":106.657183},{"StationId":969,"StationOrder":38,"StationDirection":0,"RouteId":54,"StationName":"Quận ủy Quận 12","pathPoints":"106.65718079,10.86198807 106.65718842,10.86187744 106.65445709,10.86201477 106.65341949,10.86204624 106.65342712,10.86211395","Address":"1456 (Quận Ủy quận 12), đường Quốc lộ 1A, Quận 12","Lat":10.862114,"Lng":106.653428},{"StationId":972,"StationOrder":39,"StationDirection":0,"RouteId":54,"StationName":"Tân Thới Hiệp","pathPoints":"106.65342712,10.86211395 106.65342712,10.86204624 106.65267944,10.86205959 106.65244293,10.86209965 106.65189362,10.86211967 106.65117645,10.86215973 106.65075684,10.86227322 106.65075684,10.86227322","Address":"1680, đường Quốc lộ 1A, Quận 12","Lat":10.862273,"Lng":106.650757},{"StationId":2775,"StationOrder":40,"StationDirection":0,"RouteId":54,"StationName":"Cao su Vina","pathPoints":"106.65075684,10.86227322 106.65075684,10.86217976 106.65035248,10.86217976 106.64987183,10.86213017 106.64955902,10.86207008 106.64903259,10.86190033 106.64859009,10.86170006 106.64853668,10.86176682","Address":"67/3A, đường Quốc lộ 1A, Quận 12","Lat":10.861767,"Lng":106.648536},{"StationId":2776,"StationOrder":41,"StationDirection":0,"RouteId":54,"StationName":"Cây xăng Trung Tín","pathPoints":"106.64853668,10.86176682 106.64582825,10.86017609 106.64568329,10.86030197","Address":"1828, đường Quốc lộ 1A, Quận 12","Lat":10.860302,"Lng":106.645682},{"StationId":2777,"StationOrder":42,"StationDirection":0,"RouteId":54,"StationName":"Trạm điện Hóc Môn","pathPoints":"106.64568329,10.86030197 106.64483643,10.85964394 106.64382935,10.85908031 106.64213562,10.85814190 106.64091492,10.85766792","Address":"1956, đường Quốc lộ 1A, Quận 12","Lat":10.857668,"Lng":106.640918},{"StationId":2778,"StationOrder":43,"StationDirection":0,"RouteId":54,"StationName":"Ngã tư Đình","pathPoints":"106.64091492,10.85766792 106.64091492,10.85766792 106.64100647,10.85758400 106.63828278,10.85611343 106.63816833,10.85625553 106.63816833,10.85625553","Address":"44D, đường Quốc lộ 1A, Quận 12","Lat":10.856256,"Lng":106.638172},{"StationId":2779,"StationOrder":44,"StationDirection":0,"RouteId":54,"StationName":"Nhà lầu","pathPoints":"106.63816833,10.85625553 106.63796997,10.85586643 106.63690186,10.85528660 106.63616180,10.85505486","Address":"228/3, đường Quốc lộ 1A, Quận 12","Lat":10.855055,"Lng":106.636165},{"StationId":2781,"StationOrder":45,"StationDirection":0,"RouteId":54,"StationName":"Trường Nguyễn Du","pathPoints":"106.63616180,10.85505486 106.63547516,10.85454369 106.63333893,10.85340023 106.63246918,10.85304832","Address":"Đối diện Trường Nguyễn Du, đường Quốc lộ 1A, Quận 12","Lat":10.853048,"Lng":106.632469},{"StationId":2780,"StationOrder":46,"StationDirection":0,"RouteId":54,"StationName":"Công viên Phần mềm Quang Trung","pathPoints":"106.63246918,10.85304832 106.63179016,10.85256290 106.63093567,10.85224247","Address":"Công viên phần mềm Quang Trung, đường Quốc lộ 1A, Quận 12","Lat":10.852242,"Lng":106.630935},{"StationId":2254,"StationOrder":47,"StationDirection":0,"RouteId":54,"StationName":"Chung cư Thái An","pathPoints":"106.63093567,10.85224247 106.63031769,10.85183048 106.62950134,10.85138035 106.62734985,10.85037041 106.62551880,10.84953308 106.62435150,10.84906960","Address":"Chung cư Thái An, đường Quốc lộ 1A, Quận 12","Lat":10.84907,"Lng":106.624348},{"StationId":2250,"StationOrder":48,"StationDirection":0,"RouteId":54,"StationName":"Trạm đăng kiểm","pathPoints":"106.62435150,10.84906960 106.62364197,10.84863758 106.62241364,10.84805870 106.62105560,10.84749985","Address":"Trạm đăng kiểm, đường Quốc lộ 1A, Quận 12","Lat":10.8475,"Lng":106.621059},{"StationId":2251,"StationOrder":49,"StationDirection":0,"RouteId":54,"StationName":"Bãi xe Tây Nam","pathPoints":"106.62105560,10.84749985 106.62072754,10.84724140 106.61995697,10.84687328 106.61934662,10.84643078 106.61875916,10.84593487","Address":"Đối diện Bãi xe Tây Nam, đường Quốc lộ 1A, Quận 12","Lat":10.845935,"Lng":106.618758},{"StationId":2252,"StationOrder":50,"StationDirection":0,"RouteId":54,"StationName":"Cầu vượt An Sương","pathPoints":"106.61875916,10.84593487 106.61757660,10.84479046 106.61730957,10.84451771 106.61677551,10.84405422 106.61608124,10.84362316","Address":"Xưởng Z735, đường Quốc lộ 1A, Quận 12","Lat":10.843623,"Lng":106.616081},{"StationId":4669,"StationOrder":51,"StationDirection":0,"RouteId":54,"StationName":"Quốc lộ 22","pathPoints":"106.61608124,10.84362316 106.61573029,10.84332180 106.61540222,10.84323788 106.61515808,10.84336948 106.61425781,10.84436989","Address":"Quốc lộ 22, đường Quốc lộ 22, Quận 12","Lat":10.84437,"Lng":106.614257},{"StationId":166,"StationOrder":52,"StationDirection":0,"RouteId":54,"StationName":"Bến xe An Sương","pathPoints":"106.61425781,10.84436989 106.61425781,10.84436989 106.61425781,10.84436989 106.61431122,10.84439182 106.61248779,10.84728909 106.61236572,10.84717846 106.61417389,10.84426498 106.61337280,10.84373760","Address":"Bến xe An Sương, đường Quốc lộ 22, Quận 12","Lat":10.843737602233887,"Lng":106.61337280273438},{"StationId":166,"StationOrder":0,"StationDirection":1,"RouteId":54,"StationName":"Bến xe An Sương","pathPoints":"","Address":"Bến xe An Sương, đường Quốc lộ 22, Quận 12","Lat":10.843737602233887,"Lng":106.61337280273438},{"StationId":2342,"StationOrder":1,"StationDirection":1,"RouteId":54,"StationName":"Cầu vượt An Sương","pathPoints":"106.61319733,10.84385967 106.61312103,10.84407997 106.61322784,10.84414005 106.61338806,10.84424973 106.61386108,10.84449005 106.61405182,10.84459972 106.61412048,10.84449005 106.61486053,10.84325981 106.61508179,10.84286976 106.61504364,10.84278965 106.61502075,10.84265041 106.61504364,10.84255981 106.61511993,10.84243011 106.61530304,10.84235001 106.61544800,10.84235001 106.61559296,10.84243965 106.61566162,10.84257984 106.61566162,10.84274006 106.61625671,10.84329033 106.61739349,10.84432983 106.61760712,10.84459972","Address":"17A-4/8A (2575), đường Quốc lộ 1A, Quận 12","Lat":10.844618,"Lng":106.617803},{"StationId":2341,"StationOrder":2,"StationDirection":1,"RouteId":54,"StationName":"Trạm đăng kiểm","pathPoints":"106.61766052,10.84456825 106.61959076,10.84617233 106.62046814,10.84683609 106.62150574,10.84741783 106.62150574,10.84741783","Address":"Đối diện trạm đăng kiểm, đường Quốc lộ 1A, Quận 12","Lat":10.847418,"Lng":106.621506},{"StationId":2346,"StationOrder":3,"StationDirection":1,"RouteId":54,"StationName":"Chung cư Thái An","pathPoints":"106.62148285,10.84747982 106.62309265,10.84821987","Address":"B336, đường Quốc lộ 1A, Quận 12","Lat":10.848901,"Lng":106.6249},{"StationId":2344,"StationOrder":4,"StationDirection":1,"RouteId":54,"StationName":"Đài phát thanh Quán Tre","pathPoints":"106.62490082,10.84890079 106.62490082,10.84890079 106.62484741,10.84897518 106.62751007,10.85018158 106.62757111,10.85007095 106.62757111,10.85007095","Address":"Đài phát thanh quán tre, đường Quốc lộ 1A, Quận 12","Lat":10.850071,"Lng":106.627572},{"StationId":2677,"StationOrder":5,"StationDirection":1,"RouteId":54,"StationName":"Trường Nguyễn Du","pathPoints":"106.62757111,10.85007095 106.62757111,10.85007095 106.62748718,10.85016537 106.63234711,10.85258293 106.63234711,10.85258293","Address":"Trường Nguyễn Du, đường Quốc lộ 1A, Quận 12","Lat":10.852583,"Lng":106.632347},{"StationId":2675,"StationOrder":6,"StationDirection":1,"RouteId":54,"StationName":"Bảo vệ Nam Hải","pathPoints":"106.63234711,10.85258293 106.63231659,10.85262966 106.63468170,10.85380554","Address":"103/4B, đường Quốc lộ 1A, Quận 12","Lat":10.853806,"Lng":106.634679},{"StationId":2676,"StationOrder":7,"StationDirection":1,"RouteId":54,"StationName":"Ngã tư Đình","pathPoints":"106.63468170,10.85380554 106.63980103,10.85671997 106.63983154,10.85666656","Address":"1781, đường Quốc lộ 1A, Quận 12","Lat":10.856667,"Lng":106.639832},{"StationId":2678,"StationOrder":8,"StationDirection":1,"RouteId":54,"StationName":"Cây xăng Năng lượng","pathPoints":"106.63983154,10.85666656 106.63980103,10.85671997 106.64185333,10.85785007 106.64417267,10.85910034 106.64423370,10.85895348","Address":"Kế cây xăng Năng lượng, đường Quốc lộ 1A, Quận 12","Lat":10.858953,"Lng":106.644233},{"StationId":2680,"StationOrder":9,"StationDirection":1,"RouteId":54,"StationName":"Cao su Vina","pathPoints":"106.64423370,10.85895348 106.64423370,10.85895348 106.64427948,10.85909557 106.64528656,10.85972786 106.64777374,10.86102962 106.64778137,10.86096954 106.64778137,10.86096954","Address":"1721, đường Quốc lộ 1A, Quận 12","Lat":10.86097,"Lng":106.647781},{"StationId":932,"StationOrder":10,"StationDirection":1,"RouteId":54,"StationName":"Ngã tư Tân Thới Hiệp","pathPoints":"106.64777374,10.86102962 106.64784241,10.86104965 106.64851379,10.86139965 106.64910889,10.86168957 106.64945984,10.86180019 106.64978027,10.86188984 106.65019226,10.86194992 106.65064240,10.86196041 106.65119934,10.86194038","Address":"79/1, đường Quốc lộ 1A, Quận 12","Lat":10.861881,"Lng":106.651199},{"StationId":935,"StationOrder":11,"StationDirection":1,"RouteId":54,"StationName":"UBND Quận 12","pathPoints":"106.65119934,10.86188126 106.65119934,10.86194038 106.65180206,10.86199284 106.65242004,10.86196136 106.65280151,10.86197758 106.65324402,10.86194611 106.65406036,10.86186028 106.65405273,10.86180782","Address":"1251, đường Quốc lộ 1A, Quận 12","Lat":10.861808,"Lng":106.654053},{"StationId":933,"StationOrder":12,"StationDirection":1,"RouteId":54,"StationName":"Bãi xe Tri Ân","pathPoints":"106.65406036,10.86186028 106.65550995,10.86178970 106.65712738,10.86172009","Address":"1797, đường Quốc lộ 1A, Quận 12","Lat":10.861651,"Lng":106.657127},{"StationId":936,"StationOrder":13,"StationDirection":1,"RouteId":54,"StationName":"Cầu Bến Cát","pathPoints":"106.65712738,10.86165142 106.65712738,10.86165142 106.65712738,10.86165142 106.65712738,10.86172009 106.66223907,10.86149311 106.66224670,10.86133480 106.66224670,10.86133480 106.66224670,10.86133480","Address":"953 (973), đường Quốc lộ 1A, Quận 12","Lat":10.861335,"Lng":106.662247},{"StationId":942,"StationOrder":14,"StationDirection":1,"RouteId":54,"StationName":"Gò Sao","pathPoints":"106.66224670,10.86133480 106.66224670,10.86133480 106.66230774,10.86152458 106.66640472,10.86158752 106.66645813,10.86150265 106.66645813,10.86150265","Address":"109, đường Quốc lộ 1A, Quận 12","Lat":10.861503,"Lng":106.666458},{"StationId":937,"StationOrder":15,"StationDirection":1,"RouteId":54,"StationName":"Cây xăng Thạnh Xuân","pathPoints":"106.66645813,10.86150265 106.66644287,10.86163998 106.66763306,10.86161900 106.67015076,10.86163998 106.67188263,10.86166954 106.67188263,10.86157703","Address":"Cây xăng Thạnh Xuân, đường Quốc lộ 1A, Quận 12","Lat":10.861577,"Lng":106.671882},{"StationId":938,"StationOrder":16,"StationDirection":1,"RouteId":54,"StationName":"Cầu Cả Bốn","pathPoints":"106.67188263,10.86166954 106.67445374,10.86170006","Address":"109, đường Quốc lộ 1A, Quận 12","Lat":10.861619,"Lng":106.674446},{"StationId":944,"StationOrder":17,"StationDirection":1,"RouteId":54,"StationName":"Bến xe Ngã tư Ga","pathPoints":"106.67445374,10.86170006 106.67534637,10.86168957 106.67703247,10.86161041 106.67807770,10.86155033","Address":"Đối diện Bx Ngã tư Ga, đường Quốc lộ 1A, Quận 12","Lat":10.861472,"Lng":106.678078},{"StationId":2356,"StationOrder":18,"StationDirection":1,"RouteId":54,"StationName":"Cầu Ga nhỏ","pathPoints":"106.67807770,10.86147213 106.67807770,10.86147213 106.67807770,10.86153984 106.67881012,10.86156178 106.68047333,10.86143494 106.68120575,10.86138248 106.68195343,10.86127663 106.68200684,10.86117077","Address":"30, đường Quốc lộ 1A, Quận 12","Lat":10.861171,"Lng":106.68201},{"StationId":2359,"StationOrder":19,"StationDirection":1,"RouteId":54,"StationName":"An Phú Đông","pathPoints":"106.68200684,10.86117077 106.68199921,10.86127663 106.68564606,10.86106110 106.68571472,10.86092854","Address":"365 - 501, đường Quốc lộ 1A, Quận 12","Lat":10.860897,"Lng":106.686655},{"StationId":2358,"StationOrder":20,"StationDirection":1,"RouteId":54,"StationName":"Công ty Vĩnh Hưng","pathPoints":"106.68571472,10.86092854 106.68573761,10.86105061 106.68917847,10.86081028 106.68917847,10.86075020 106.68917847,10.86075020","Address":"Kế công ty Vĩnh Hưng (TMI), đường Quốc lộ 1A, Quận 12","Lat":10.86075,"Lng":106.689178},{"StationId":2360,"StationOrder":21,"StationDirection":1,"RouteId":54,"StationName":"Đài liệt sĩ An Phú Đông","pathPoints":"106.68917847,10.86075020 106.68917847,10.86075020 106.68917847,10.86081028 106.69232941,10.86060238 106.69232941,10.86038589","Address":"C32/16, đường Quốc lộ 1A, Quận 12","Lat":10.860386,"Lng":106.692331},{"StationId":2361,"StationOrder":22,"StationDirection":1,"RouteId":54,"StationName":"ĐH Nguyễn Tất Thành","pathPoints":"106.69232941,10.86038589 106.69233704,10.86059189 106.69449615,10.86046028 106.69451141,10.86036491","Address":"331, đường Quốc lộ 1A, Quận 12","Lat":10.860365,"Lng":106.694514},{"StationId":2364,"StationOrder":23,"StationDirection":1,"RouteId":54,"StationName":"Công ty đá Ngọc Ngân","pathPoints":"106.69451141,10.86036491 106.69467926,10.86048126 106.69665527,10.86029148 106.70061493,10.85978603 106.70069885,10.85967541","Address":"1126/3A , đường Quốc lộ 1A, Quận 12","Lat":10.859675,"Lng":106.700699},{"StationId":2362,"StationOrder":24,"StationDirection":1,"RouteId":54,"StationName":"Cây xăng Petrolimex 12","pathPoints":"106.70069885,10.85967541 106.70075989,10.85977554 106.70330048,10.85949039 106.70599365,10.85911179 106.70604706,10.85901737","Address":"1650/3B, đường Quốc lộ 1A, Quận 12","Lat":10.859017,"Lng":106.706048},{"StationId":2363,"StationOrder":25,"StationDirection":1,"RouteId":54,"StationName":"Bãi đậu xe kho hàng","pathPoints":"106.70604706,10.85901737 106.70606232,10.85909081 106.70890045,10.85873222 106.70891571,10.85861588","Address":"1500/3C, đường Quốc lộ 1A, Quận 12","Lat":10.858616,"Lng":106.708912},{"StationId":2368,"StationOrder":26,"StationDirection":1,"RouteId":54,"StationName":"Aone","pathPoints":"106.70891571,10.85861588 106.70908356,10.85873032 106.70955658,10.85861969 106.70992279,10.85857964 106.71041870,10.85857010 106.71083069,10.85861969 106.71150208,10.85875988 106.71224213,10.85906982 106.71302032,10.85947037 106.71350098,10.85965919","Address":"Aone, đường Quốc lộ 1A, Quận 12","Lat":10.859659,"Lng":106.713504},{"StationId":2365,"StationOrder":27,"StationDirection":1,"RouteId":54,"StationName":"Ngã 4 Bình Phước","pathPoints":"106.71450806,10.86017609 106.71459961,10.86030006 106.71668243,10.86146164 106.71798706,10.86211491 106.71958923,10.86291981 106.72042847,10.86336040 106.72045135,10.86331463","Address":"30 (33/8), đường Quốc lộ 1, Quận Thủ Đức","Lat":10.863315,"Lng":106.720451},{"StationId":315,"StationOrder":28,"StationDirection":1,"RouteId":54,"StationName":"Ngã ba mũi tàu đường Gò Dưa ","pathPoints":"106.72042847,10.86336040 106.72113037,10.86373997 106.72338104,10.86483002 106.72367859,10.86493969 106.72384644,10.86493015 106.72399139,10.86491966 106.72412872,10.86499977 106.72418213,10.86509991 106.72418976,10.86515045 106.72427368,10.86524010 106.72438049,10.86532974 106.72463989,10.86544991 106.72666168,10.86645985 106.72680664,10.86657047 106.72708893,10.86682034 106.72718048,10.86686993 106.72737885,10.86697006","Address":"120, đường Quốc lộ 1, Quận Thủ Đức","Lat":10.86689,"Lng":106.727425},{"StationId":320,"StationOrder":29,"StationDirection":1,"RouteId":54,"StationName":"Chợ Đầu Mối","pathPoints":"106.72742462,10.86688995 106.72742462,10.86688995 106.72737885,10.86697006 106.72898865,10.86783600 106.73007202,10.86837292 106.73020172,10.86830997 106.73020172,10.86830997","Address":"160, đường Quốc lộ 1, Quận Thủ Đức","Lat":10.86831,"Lng":106.730198},{"StationId":317,"StationOrder":30,"StationDirection":1,"RouteId":54,"StationName":"Chợ Tam Bình","pathPoints":"106.73020172,10.86830997 106.73054504,10.86859989 106.73095703,10.86884022 106.73193359,10.86931038 106.73319244,10.86993027 106.73468781,10.87067986 106.73535919,10.87098026 106.73538208,10.87086010","Address":"Chợ Tam Bình, đường Quốc lộ 1, Quận Thủ Đức","Lat":10.87086,"Lng":106.73538},{"StationId":322,"StationOrder":31,"StationDirection":1,"RouteId":54,"StationName":"Hồ Bơi","pathPoints":"106.73535919,10.87098026 106.73597717,10.87121964 106.73674774,10.87143993 106.73748779,10.87160969 106.73834991,10.87172985 106.73964691,10.87189960","Address":"376, đường Quốc lộ 1, Quận Thủ Đức","Lat":10.871766,"Lng":106.739666},{"StationId":319,"StationOrder":32,"StationDirection":1,"RouteId":54,"StationName":"Chợ Tam Hải","pathPoints":"106.73966980,10.87176609 106.73966980,10.87176609 106.73968506,10.87185001 106.74080658,10.87203407 106.74259186,10.87253475 106.74403381,10.87304974 106.74407959,10.87293530 106.74407959,10.87293530","Address":"450, đường Quốc lộ 1, Quận Thủ Đức","Lat":10.872935,"Lng":106.744081},{"StationId":321,"StationOrder":33,"StationDirection":1,"RouteId":54,"StationName":"Cầu vượt Sóng Thần","pathPoints":"106.74407959,10.87293530 106.74467468,10.87319851 106.74561310,10.87350941 106.74673462,10.87382603 106.74713135,10.87390518","Address":"Đối diện 275-Mitsubishi , đường Quốc lộ 1, Quận Thủ Đức","Lat":10.873905,"Lng":106.747128},{"StationId":323,"StationOrder":34,"StationDirection":1,"RouteId":54,"StationName":"Bến xe Lam Hồng","pathPoints":"106.74707794,10.87403011 106.74913025,10.87469006 106.75228119,10.87574005 106.75308990,10.87596035 106.75370026,10.87602043 106.75434113,10.87600994 106.75489807,10.87592983 106.75566101,10.87580013","Address":"6/8, đường Quốc lộ 1, Quận Thủ Đức","Lat":10.875706,"Lng":106.75562},{"StationId":325,"StationOrder":35,"StationDirection":1,"RouteId":54,"StationName":"Giày da Thái Bình","pathPoints":"106.75562286,10.87570572 106.75562286,10.87570572 106.75567627,10.87574863 106.75748444,10.87538528 106.75746918,10.87535286 106.75746918,10.87535286","Address":"Đối diện 10/19 (20/8), đường Quốc lộ 1, Quận Thủ Đức","Lat":10.875353,"Lng":106.757466},{"StationId":324,"StationOrder":36,"StationDirection":1,"RouteId":54,"StationName":"Cầu vượt Linh Xuân","pathPoints":"106.75746918,10.87535286 106.75897980,10.87509537 106.76098633,10.87452602 106.76247406,10.87397289","Address":"Kho 856, đường Quốc lộ 1, Quận Thủ Đức","Lat":10.873973,"Lng":106.762476},{"StationId":2083,"StationOrder":37,"StationDirection":1,"RouteId":54,"StationName":"Vietcombank","pathPoints":"106.76247406,10.87397289 106.76248169,10.87404919 106.76261902,10.87403679 106.76309204,10.87384033 106.76686859,10.87255001 106.76715088,10.87254524 106.76966095,10.87170982 106.76964569,10.87165546 106.76964569,10.87159729","Address":"Ngân hàng Vietcombank, đường Quốc lộ 1, Quận Thủ Đức","Lat":10.871597,"Lng":106.769643},{"StationId":2084,"StationOrder":38,"StationDirection":1,"RouteId":54,"StationName":"Nghĩa trang TP","pathPoints":"106.76964569,10.87159729 106.76964569,10.87159729 106.77136230,10.87109661 106.77304077,10.87050724 106.77304077,10.87050724","Address":"Cổng nghĩa trang thành phố, đường Quốc lộ 1, Quận Thủ Đức","Lat":10.870507,"Lng":106.773039},{"StationId":1040,"StationOrder":39,"StationDirection":1,"RouteId":54,"StationName":"ĐH Kinh tế Luật","pathPoints":"106.77304077,10.87050724 106.77307129,10.87059975 106.77671051,10.86938477 106.77672577,10.86930561","Address":"Đối diện 665-CoopXtra, đường Quốc lộ 1, Quận Thủ Đức","Lat":10.869306,"Lng":106.776724},{"StationId":1041,"StationOrder":40,"StationDirection":1,"RouteId":54,"StationName":"Công ty điện tử Samsung","pathPoints":"106.77672577,10.86930561 106.77672577,10.86930561 106.77677917,10.86936855 106.77867889,10.86874962 106.77865601,10.86869144 106.77865601,10.86869144","Address":"Công ty điện tử Samsung, đường Quốc lộ 1, Quận Thủ Đức","Lat":10.868691,"Lng":106.778656},{"StationId":1042,"StationOrder":41,"StationDirection":1,"RouteId":54,"StationName":"ĐH Nông Lâm","pathPoints":"106.77865601,10.86869144 106.77938843,10.86856270 106.78088379,10.86806297 106.78207397,10.86769390 106.78311920,10.86743546 106.78416443,10.86732483 106.78519440,10.86727905 106.78636932,10.86724091 106.78727722,10.86712170","Address":"Cột điện SI 2, đường Quốc lộ 1, Quận Thủ Đức","Lat":10.867122,"Lng":106.787277},{"StationId":396,"StationOrder":42,"StationDirection":1,"RouteId":54,"StationName":"ĐH Nông Lâm","pathPoints":"106.78727722,10.86717987 106.78822327,10.86713028 106.78961182,10.86707020 106.79029846,10.86695957","Address":"1026/2 (1030), đường Quốc lộ 1, Quận Thủ Đức","Lat":10.866912,"Lng":106.790283},{"StationId":536,"StationOrder":43,"StationDirection":1,"RouteId":54,"StationName":"Cầu Vượt Trạm 2","pathPoints":"106.79028320,10.86691189 106.79219818,10.86613941 106.79380035,10.86489582 106.79590607,10.86160851 106.79586792,10.86110306 106.79556274,10.86076546 106.79508972,10.86070251 106.79463959,10.86120796 106.79457855,10.86154556 106.79479218,10.86190414 106.79541016,10.86238861 106.79753876,10.86359501","Address":"Tiệm vàng Kim Lợi, đường Quốc lộ 1, Quận 9","Lat":10.863595,"Lng":106.797538},{"StationId":537,"StationOrder":44,"StationDirection":1,"RouteId":54,"StationName":"Suối Tiên","pathPoints":"106.79753876,10.86359501 106.80237579,10.86649799","Address":"Suối Tiên, đường Quốc lộ 1, Quận 9","Lat":10.866498,"Lng":106.802377},{"StationId":1919,"StationOrder":45,"StationDirection":1,"RouteId":54,"StationName":"Nghĩa trang liệt sĩ TP.HCM","pathPoints":"106.80237579,10.86649799 106.80248260,10.86666965 106.80357361,10.86740971 106.80422211,10.86791039 106.80460358,10.86822987 106.80522156,10.86880016 106.80615997,10.86979008 106.80673218,10.87049007 106.80814362,10.87240028 106.80915833,10.87374115 106.80928802,10.87369442","Address":"Nghĩa trang liệt sĩ Thành phố HCM, đường Quốc lộ 1, Quận 9","Lat":10.873694,"Lng":106.809286},{"StationId":4112,"StationOrder":46,"StationDirection":1,"RouteId":54,"StationName":"Bến Xe Buýt ÐH Quốc Gia","pathPoints":"106.80928802,10.87369442 106.80928802,10.87369442 106.80918121,10.87379932 106.80966187,10.87445831 106.80926514,10.87476349 106.80875397,10.87412643 106.80824280,10.87338352 106.80765533,10.87403107 106.80683899,10.87450504 106.80554199,10.87505341 106.80506134,10.87584305 106.80426788,10.87633896 106.80332184,10.87660217 106.80255127,10.87877274 106.80169678,10.88106918 106.80075836,10.88338757 106.79962158,10.88295555 106.79698944,10.88136387 106.79561615,10.88087940 106.79423523,10.88046837 106.79326630,10.88022614 106.79038239,10.88015270 106.78756714,10.87995243 106.78639984,10.88006878 106.78545380,10.88032150 106.78433228,10.88076401 106.78346252,10.88137436 106.78270721,10.88212299 106.78109741,10.88074303 106.78100586,10.88073254 106.78080750,10.88102722 106.78067780,10.88161755 106.78012848,10.88192749 106.77980042,10.88237572 106.77912903,10.88319206 106.77866364,10.88346577 106.77833557,10.88375092 106.77871704,10.88415623","Address":"Bến xe buýt Khu B - ĐH Quốc Gia, đường Đường nội bộ Đại học Quốc gia, Quận Thủ Đức","Lat":10.884156227111816,"Lng":106.77871704101562}]