[{"StationId":7208,"StationOrder":0,"StationDirection":0,"RouteId":81,"StationName":"Bến xe Biên Hòa","pathPoints":"","Address":"4 Nguyễn Ái Quốc, đường Quốc lộ 1K, Ngoại thành","Lat":10.954127,"Lng":106.808953},{"StationId":1186,"StationOrder":1,"StationDirection":0,"RouteId":81,"StationName":"Công ty TNHH Thuận Thành Tâm","pathPoints":"106.80895233,10.95412731 106.80959320,10.95509624 106.81166077,10.95593834 106.82732391,10.95593834 106.83092499,10.95821381 106.83306885,10.96040440 106.83615875,10.96246910 106.83929443,10.96314335 106.85392761,10.96668243 106.85480499,10.96240616 106.85562897,10.96044159 106.85649109,10.95864582 106.85706329,10.95819283 106.86749268,10.95444298 106.86808777,10.95410633 106.87128448,10.95102978 106.86890411,10.94734383 106.86817932,10.94498348 106.86787415,10.93036270 106.86774445,10.92732906 106.86710358,10.92530632 106.86590576,10.92315769 106.86161041,10.91907024 106.85015106,10.90764999 106.84800720,10.90545940 106.84599304,10.90423679 106.82762146,10.89753628 106.82500458,10.89559841 106.82280731,10.89268494","Address":"Công ty TNHH Thuận Thành Tâm, đường Quốc lộ 1, Quận 9","Lat":10.892685,"Lng":106.822804},{"StationId":1188,"StationOrder":2,"StationDirection":0,"RouteId":81,"StationName":"Công ty Dosan","pathPoints":"106.82280731,10.89268494 106.82004547,10.88896084","Address":"Công ty Dosan, đường Quốc lộ 1, Quận 9","Lat":10.888961,"Lng":106.820047},{"StationId":1187,"StationOrder":3,"StationDirection":0,"RouteId":81,"StationName":"Công ty Cp Đức Khải","pathPoints":"106.81928253,10.88772011 106.81300354,10.87917042","Address":"Công ty Cp Đức Khải, đường Quốc lộ 1, Quận 9","Lat":10.879241,"Lng":106.812918},{"StationId":572,"StationOrder":4,"StationDirection":0,"RouteId":81,"StationName":"Đại học An Ninh Nhân Dân","pathPoints":"106.81291962,10.87924099 106.81300354,10.87917042 106.81025696,10.87545967 106.80934906,10.87423992 106.80892181,10.87368011 106.80873871,10.87341022 106.80798340,10.87234020 106.80744171,10.87158012 106.80697632,10.87112808","Address":"Nhà máy Tiến Thành, đường Quốc lộ 1, Quận Thủ Đức","Lat":10.871128,"Lng":106.806979},{"StationId":574,"StationOrder":5,"StationDirection":0,"RouteId":81,"StationName":"Khu DL Suối Tiên","pathPoints":"106.80697632,10.87112808 106.80506897,10.86885738 106.80363464,10.86755085 106.80111694,10.86604977","Address":"9/29, đường Quốc lộ 1, Quận Thủ Đức","Lat":10.86605,"Lng":106.801116},{"StationId":4559,"StationOrder":6,"StationDirection":0,"RouteId":81,"StationName":"Câu vượt Trạm 2","pathPoints":"106.80111694,10.86604977 106.79731750,10.86390018","Address":"Câu vượt Trạm 2, đường Quốc lộ 1, Quận Thủ Đức","Lat":10.8639,"Lng":106.797318},{"StationId":500,"StationOrder":7,"StationDirection":0,"RouteId":81,"StationName":"Đại học Nông Lâm","pathPoints":"106.79731750,10.86390018 106.79592133,10.86296749 106.79460144,10.86216736 106.79413605,10.86219883 106.79371643,10.86242008 106.79353333,10.86294651 106.79373932,10.86333656 106.79418182,10.86362076 106.79460144,10.86349487 106.79521179,10.86283112 106.79635620,10.86096573 106.79804993,10.85921669 106.79828644,10.85943794 106.79662323,10.86109257 106.79486847,10.86394787 106.79335022,10.86561298 106.79232025,10.86638165 106.79109955,10.86696053","Address":"85 (Đối diện 1026-1028), đường Quốc lộ 1, Quận Thủ Đức","Lat":10.866961,"Lng":106.791101},{"StationId":1101,"StationOrder":8,"StationDirection":0,"RouteId":81,"StationName":"ĐH Nông Lâm","pathPoints":"106.79109955,10.86696053 106.79009247,10.86718273 106.78726196,10.86740398","Address":"Kế 21, đường Quốc lộ 1, Quận Thủ Đức","Lat":10.867404,"Lng":106.787265},{"StationId":1102,"StationOrder":9,"StationDirection":0,"RouteId":81,"StationName":"Công ty điện tử Samsung","pathPoints":"106.78726196,10.86740398 106.78545380,10.86739349 106.78442383,10.86742496 106.78344727,10.86752987 106.78237915,10.86775112 106.78220367,10.86786747","Address":"34/38 (Kế 59/6), đường Quốc lộ 1, Quận Thủ Đức","Lat":10.867867,"Lng":106.782201},{"StationId":1103,"StationOrder":10,"StationDirection":0,"RouteId":81,"StationName":"Đại học Kinh tế -Luật","pathPoints":"106.78220367,10.86786747 106.77790833,10.86927414","Address":"Đại học Kinh tế -Luật, đường Quốc lộ 1, Quận Thủ Đức","Lat":10.869274,"Lng":106.777909},{"StationId":2142,"StationOrder":11,"StationDirection":0,"RouteId":81,"StationName":"Trung tâm kho vận Linh Xuân","pathPoints":"106.77790833,10.86927414 106.77790833,10.86927414 106.77642822,10.86972141 106.77493286,10.87025356 106.77493286,10.87025356","Address":"Trung tâm kho vận Linh Xuân, đường Quốc lộ 1, Quận Thủ Đức","Lat":10.870254,"Lng":106.774932},{"StationId":2143,"StationOrder":12,"StationDirection":0,"RouteId":81,"StationName":"Công ty Nissan","pathPoints":"106.77493286,10.87025356 106.77082062,10.87157059","Address":"Đối diện công ty Nissan, đường Quốc lộ 1, Quận Thủ Đức","Lat":10.871571,"Lng":106.770823},{"StationId":339,"StationOrder":13,"StationDirection":0,"RouteId":81,"StationName":"Cầu vượt Linh Xuân","pathPoints":"106.77078247,10.87147045 106.76754761,10.87252998 106.76730347,10.87269974 106.76686859,10.87285042 106.76580811,10.87322998 106.76458740,10.87362003 106.76332092,10.87403965 106.76293182,10.87407970 106.76233673,10.87427998 106.76203918,10.87438011","Address":"559, đường Quốc lộ 1, Quận Thủ Đức","Lat":10.874474,"Lng":106.762095},{"StationId":341,"StationOrder":14,"StationDirection":0,"RouteId":81,"StationName":"Giày Thái Bình-Bình Đường","pathPoints":"106.76209259,10.87447357 106.76120758,10.87467957 106.75969696,10.87516880 106.75868988,10.87545395","Address":"467B, đường Quốc lộ 1, Quận Thủ Đức","Lat":10.875454,"Lng":106.758689},{"StationId":342,"StationOrder":15,"StationDirection":0,"RouteId":81,"StationName":"Bến xe Lam Hồng","pathPoints":"106.75868988,10.87545395 106.75563049,10.87604904","Address":"12A/28, đường Quốc lộ 1, Quận Thủ Đức","Lat":10.876049,"Lng":106.755631},{"StationId":344,"StationOrder":16,"StationDirection":0,"RouteId":81,"StationName":"Cầu vượt Sóng Thần","pathPoints":"106.75553131,10.87594032 106.75489807,10.87605953 106.75421906,10.87615967 106.75382996,10.87617016 106.75346375,10.87615013 106.75312805,10.87609959 106.75231934,10.87590027 106.75132751,10.87557030 106.74655151,10.87399960","Address":"275, đường Quốc lộ 1, Quận Thủ Đức","Lat":10.874115,"Lng":106.746528},{"StationId":346,"StationOrder":17,"StationDirection":0,"RouteId":81,"StationName":"Chợ Tam Hải","pathPoints":"106.74652863,10.87411499 106.74652863,10.87411499 106.74541473,10.87371540 106.74429321,10.87337303 106.74429321,10.87337303","Address":"251B, đường Quốc lộ 1, Quận Thủ Đức","Lat":10.873373,"Lng":106.744291},{"StationId":345,"StationOrder":18,"StationDirection":0,"RouteId":81,"StationName":"Hồ Bơi","pathPoints":"106.74429321,10.87337303 106.74176788,10.87244987 106.74092102,10.87224007 106.73991394,10.87217712","Address":"179, đường Quốc lộ 1, Quận Thủ Đức","Lat":10.872177,"Lng":106.739913},{"StationId":348,"StationOrder":19,"StationDirection":0,"RouteId":81,"StationName":"Chợ Tam Bình","pathPoints":"106.73991394,10.87217712 106.73837280,10.87187004 106.73751068,10.87174988 106.73639679,10.87148952 106.73533630,10.87110996 106.73447418,10.87082767","Address":"Đối diện Bưu điện Tam Bình, đường Quốc lộ 1, Quận Thủ Đức","Lat":10.870828,"Lng":106.734474},{"StationId":347,"StationOrder":20,"StationDirection":0,"RouteId":81,"StationName":"Chợ đầu mối nông sản Thủ Đức","pathPoints":"106.73447418,10.87082767 106.73307800,10.87003994 106.73204041,10.86952972 106.72915649,10.86812019","Address":"Chợ đầu mối nông sản Thủ Đức, đường Quốc lộ 1, Quận Thủ Đức","Lat":10.86812,"Lng":106.729158},{"StationId":2348,"StationOrder":21,"StationDirection":0,"RouteId":81,"StationName":"Cầu Bình Phước","pathPoints":"106.72915649,10.86812019 106.72653198,10.86666965 106.72357941,10.86522007 106.71989441,10.86345100","Address":"39A, đường Quốc lộ 1, Quận Thủ Đức","Lat":10.863451,"Lng":106.719894},{"StationId":2345,"StationOrder":22,"StationDirection":0,"RouteId":81,"StationName":"Aone","pathPoints":"106.71989441,10.86345100 106.71694183,10.86185074 106.71385193,10.86039734","Address":"Đối diện Aone, đường Quốc lộ 1A, Quận 12","Lat":10.85997,"Lng":106.713096},{"StationId":2349,"StationOrder":23,"StationDirection":0,"RouteId":81,"StationName":"Công ty EUROPA","pathPoints":"106.71309662,10.85997009 106.71346283,10.86003971 106.71234131,10.85947037 106.71154022,10.85908985 106.71115875,10.85896969 106.70951843,10.85882664 106.70772552,10.85914803","Address":"Công ty EUROPA, đường Quốc lộ 1A, Quận 12","Lat":10.859148,"Lng":106.707727},{"StationId":2350,"StationOrder":24,"StationDirection":0,"RouteId":81,"StationName":"Công ty Mai Linh","pathPoints":"106.70772552,10.85914803 106.70108795,10.86000729","Address":"1691/3N, đường Quốc lộ 1A, Quận 12","Lat":10.860007,"Lng":106.701086},{"StationId":2351,"StationOrder":25,"StationDirection":0,"RouteId":81,"StationName":"Đình An Phú Đông","pathPoints":"106.70108795,10.86000729 106.69998932,10.86007023 106.69886780,10.86018658 106.69767761,10.86032867 106.69697571,10.86044979 106.69544983,10.86065006","Address":"Đối diện Đình An Phú Đông, đường Quốc lộ 1A, Quận 12","Lat":10.86065,"Lng":106.695453},{"StationId":2352,"StationOrder":26,"StationDirection":0,"RouteId":81,"StationName":"Công ty Hồng Mã","pathPoints":"106.69544983,10.86065006 106.68941498,10.86104012","Address":"Công ty Hồng Mã, đường Quốc lộ 1A, Quận 12","Lat":10.86104,"Lng":106.689413},{"StationId":2355,"StationOrder":27,"StationDirection":0,"RouteId":81,"StationName":"Phường An Phú Đông","pathPoints":"106.68941498,10.86104012 106.68585205,10.86127186 106.68517303,10.86132431","Address":"616 - 618, đường Quốc lộ 1A, Quận 12","Lat":10.861324,"Lng":106.685175},{"StationId":2354,"StationOrder":28,"StationDirection":0,"RouteId":81,"StationName":"Bến xe Ngã tư Ga","pathPoints":"106.68517303,10.86132431 106.67935181,10.86172485","Address":"Bến xe Ngã tư ga, đường Quốc lộ 1A, Quận 12","Lat":10.861725,"Lng":106.679354},{"StationId":976,"StationOrder":29,"StationDirection":0,"RouteId":81,"StationName":"Khu QLGTĐT số 3","pathPoints":"106.67852020,10.86178780 106.67665863,10.86180401 106.67514038,10.86192989","Address":"96/2, đường Quốc lộ 1A, Quận 12","Lat":10.861967,"Lng":106.674564},{"StationId":965,"StationOrder":30,"StationDirection":0,"RouteId":81,"StationName":"Trường Mầm non Ngôi Nhà Trẻ Thơ","pathPoints":"106.67456055,10.86196709 106.66745758,10.86187744","Address":"990, đường Quốc lộ 1A, Quận 12","Lat":10.861877,"Lng":106.667461},{"StationId":977,"StationOrder":31,"StationDirection":0,"RouteId":81,"StationName":"Cơ khí Minh Huy","pathPoints":"106.66745758,10.86187744 106.66139221,10.86181927","Address":"1218/11, đường Quốc lộ 1A, Quận 12","Lat":10.861819,"Lng":106.661389},{"StationId":966,"StationOrder":32,"StationDirection":0,"RouteId":81,"StationName":"Đá hoa cương Chí Thành","pathPoints":"106.66139221,10.86181927 106.65718079,10.86198807","Address":"1360, đường Quốc lộ 1A, Quận 12","Lat":10.861988,"Lng":106.657183},{"StationId":969,"StationOrder":33,"StationDirection":0,"RouteId":81,"StationName":"Quận ủy Quận 12","pathPoints":"106.65612030,10.86201954 106.65445709,10.86198044 106.65365601,10.86211967","Address":"1456 (Quận Ủy quận 12), đường Quốc lộ 1A, Quận 12","Lat":10.862114,"Lng":106.653428},{"StationId":2775,"StationOrder":34,"StationDirection":0,"RouteId":81,"StationName":"Cao su Vina","pathPoints":"106.65342712,10.86211395 106.65091705,10.86225128 106.64981079,10.86218834 106.64853668,10.86176682","Address":"67/3A, đường Quốc lộ 1A, Quận 12","Lat":10.861767,"Lng":106.648536},{"StationId":2776,"StationOrder":35,"StationDirection":0,"RouteId":81,"StationName":"Cây xăng Trung Tín","pathPoints":"106.64853668,10.86176682 106.64682770,10.86082935 106.64568329,10.86030197","Address":"1828, đường Quốc lộ 1A, Quận 12","Lat":10.860302,"Lng":106.645682},{"StationId":2777,"StationOrder":36,"StationDirection":0,"RouteId":81,"StationName":"Trạm điện Hóc Môn","pathPoints":"106.64568329,10.86030197 106.64483643,10.85964394 106.64382935,10.85908031 106.64213562,10.85814190 106.64091492,10.85766792","Address":"1956, đường Quốc lộ 1A, Quận 12","Lat":10.857668,"Lng":106.640918},{"StationId":2778,"StationOrder":37,"StationDirection":0,"RouteId":81,"StationName":"Ngã tư Đình","pathPoints":"106.64091492,10.85766792 106.64042664,10.85723114 106.63936615,10.85661983 106.63816833,10.85625553","Address":"44D, đường Quốc lộ 1A, Quận 12","Lat":10.856256,"Lng":106.638172},{"StationId":2779,"StationOrder":38,"StationDirection":0,"RouteId":81,"StationName":"Nhà lầu","pathPoints":"106.63816833,10.85625553 106.63796997,10.85586643 106.63690186,10.85528660 106.63616180,10.85505486","Address":"228/3, đường Quốc lộ 1A, Quận 12","Lat":10.855055,"Lng":106.636165},{"StationId":2781,"StationOrder":39,"StationDirection":0,"RouteId":81,"StationName":"Trường Nguyễn Du","pathPoints":"106.63616180,10.85505486 106.63547516,10.85454369 106.63333893,10.85340023 106.63246918,10.85304832","Address":"Đối diện Trường Nguyễn Du, đường Quốc lộ 1A, Quận 12","Lat":10.853048,"Lng":106.632469},{"StationId":2254,"StationOrder":40,"StationDirection":0,"RouteId":81,"StationName":"Chung cư Thái An","pathPoints":"106.63246918,10.85304832 106.62435150,10.84906960","Address":"Chung cư Thái An, đường Quốc lộ 1A, Quận 12","Lat":10.84907,"Lng":106.624348},{"StationId":2250,"StationOrder":41,"StationDirection":0,"RouteId":81,"StationName":"Trạm đăng kiểm","pathPoints":"106.62435150,10.84906960 106.62364197,10.84863758 106.62241364,10.84805870 106.62105560,10.84749985","Address":"Trạm đăng kiểm, đường Quốc lộ 1A, Quận 12","Lat":10.8475,"Lng":106.621059},{"StationId":2252,"StationOrder":42,"StationDirection":0,"RouteId":81,"StationName":"Cầu vượt An Sương","pathPoints":"106.62105560,10.84749985 106.61985779,10.84687805 106.61608124,10.84362316","Address":"Xưởng Z735, đường Quốc lộ 1A, Quận 12","Lat":10.843623,"Lng":106.616081},{"StationId":1926,"StationOrder":43,"StationDirection":0,"RouteId":81,"StationName":"Trạm măng","pathPoints":"106.61608124,10.84362316 106.61253357,10.84039783","Address":"41/1B, đường Quốc lộ 1A, Huyện Hóc Môn","Lat":10.840398,"Lng":106.612535},{"StationId":1921,"StationOrder":44,"StationDirection":0,"RouteId":81,"StationName":"Hồng Mộc","pathPoints":"106.61257172,10.84033489 106.61258698,10.84031010 106.60903931,10.83714008 106.60871887,10.83689404","Address":"59/2A, đường Quốc lộ 1A, Huyện Hóc Môn","Lat":10.836167,"Lng":106.60797},{"StationId":1928,"StationOrder":45,"StationDirection":0,"RouteId":81,"StationName":"Ngã tư Bà Điểm","pathPoints":"106.60871887,10.83689404 106.60842133,10.83652020 106.60807037,10.83613014 106.60778046,10.83572006 106.60697937,10.83444023 106.60580444,10.83267403","Address":"57/7B, đường Quốc lộ 1A, Huyện Hóc Môn","Lat":10.832674,"Lng":106.605804},{"StationId":1922,"StationOrder":46,"StationDirection":0,"RouteId":81,"StationName":"Kiềm Nghĩa","pathPoints":"106.60580444,10.83267403 106.60469818,10.83061028 106.60431671,10.82991028 106.60379791,10.82912254","Address":"59/2, đường Quốc lộ 1A, Huyện Hóc Môn","Lat":10.829117,"Lng":106.603888},{"StationId":1930,"StationOrder":47,"StationDirection":0,"RouteId":81,"StationName":"Quang Châu","pathPoints":"106.60379791,10.82912254 106.60379791,10.82912254 106.60340118,10.82701015 106.60260773,10.82330036 106.60260010,10.82330132 106.60260010,10.82330227 106.60259247,10.82330227 106.60259247,10.82330322 106.60259247,10.82330322 106.60259247,10.82330036 106.60259247,10.82330132 106.60259247,10.82330227 106.60259247,10.82330227 106.60259247,10.82330322 106.60259247,10.82330322 106.60259247,10.82330322 106.60259247,10.82330322 106.60259247,10.82330322 106.60259247,10.82330322 106.60259247,10.82330322 106.60259247,10.82330322 106.60259247,10.82330322 106.60259247,10.82330322 106.60259247,10.82330322 106.60259247,10.82330322 106.60259247,10.82330322 106.60259247,10.82330322 106.60259247,10.82330322 106.60259247,10.82330322 106.60259247,10.82330322 106.60259247,10.82330322 106.60259247,10.82330322 106.60259247,10.82330322 106.60259247,10.82330322 106.60259247,10.82330322 106.60259247,10.82330322 106.60259247,10.82330036 106.60259247,10.82330036 106.60259247,10.82330132 106.60259247,10.82330227 106.60259247,10.82330227 106.60259247,10.82330322 106.60259247,10.82330322 106.60259247,10.82330322 106.60259247,10.82330322 106.60258484,10.82330418 106.60258484,10.82330608 106.60258484,10.82330608 106.60258484,10.82330608 106.60258484,10.82330608 106.60258484,10.82330608 106.60255432,10.82331085","Address":"5/30K (SỐ 6), đường Quốc lộ 1A, Quận Bình Tân","Lat":10.823311,"Lng":106.602554},{"StationId":1932,"StationOrder":48,"StationDirection":0,"RouteId":81,"StationName":"Gò Mây","pathPoints":"106.60255432,10.82331085 106.60137939,10.81802082","Address":"230, đường Quốc lộ 1A, Quận Bình Tân","Lat":10.818021,"Lng":106.601379},{"StationId":1927,"StationOrder":49,"StationDirection":0,"RouteId":81,"StationName":"Phú Cường","pathPoints":"106.60137939,10.81802082 106.59970093,10.80978012 106.59851074,10.80424023 106.59850311,10.80424213 106.59850311,10.80424213 106.59850311,10.80424309 106.59849548,10.80424309 106.59849548,10.80424309 106.59849548,10.80424309 106.59849548,10.80424213 106.59849548,10.80424309 106.59848785,10.80424595 106.59846497,10.80422783 106.59843445,10.80420971 106.59843445,10.80421162 106.59844208,10.80421257 106.59844208,10.80421352 106.59844208,10.80421638 106.59844208,10.80422306 106.59844971,10.80423641 106.59846497,10.80425167 106.59841156,10.80426311","Address":"386, đường Quốc lộ 1A, Quận Bình Tân","Lat":10.804263,"Lng":106.598412},{"StationId":1934,"StationOrder":50,"StationDirection":0,"RouteId":81,"StationName":"Hương Quê","pathPoints":"106.59841156,10.80426311 106.59742737,10.79978371","Address":"320, đường Quốc lộ 1A, Quận Bình Tân","Lat":10.799784,"Lng":106.597427},{"StationId":1929,"StationOrder":51,"StationDirection":0,"RouteId":81,"StationName":"Phát Đạt","pathPoints":"106.59742737,10.79978371 106.59743500,10.79914665 106.59703064,10.79714966 106.59692383,10.79659557 106.59669495,10.79593754 106.59651947,10.79506779 106.59631348,10.79421902 106.59623718,10.79359722 106.59600830,10.79244900 106.59577942,10.79174232","Address":"502, đường Quốc lộ 1A, Quận Bình Tân","Lat":10.791742,"Lng":106.595779},{"StationId":1937,"StationOrder":52,"StationDirection":0,"RouteId":81,"StationName":"Khu phố 5","pathPoints":"106.59577942,10.79174232 106.59538269,10.78947639 106.59510803,10.78816986 106.59492493,10.78781128","Address":"576, đường Quốc lộ 1A, Quận Bình Tân","Lat":10.787811,"Lng":106.594925},{"StationId":1931,"StationOrder":53,"StationDirection":0,"RouteId":81,"StationName":"Tân Kỳ Tân Quý (Hoàng Gia Phát)","pathPoints":"106.59492493,10.78781128 106.59427643,10.78472328","Address":"642, đường Quốc lộ 1A, Quận Bình Tân","Lat":10.784723,"Lng":106.594276},{"StationId":1939,"StationOrder":54,"StationDirection":0,"RouteId":81,"StationName":"Thiên Phúc Học","pathPoints":"106.59427643,10.78472328 106.59369659,10.78195190","Address":"770, đường Quốc lộ 1A, Quận Bình Tân","Lat":10.781952,"Lng":106.593697},{"StationId":1941,"StationOrder":55,"StationDirection":0,"RouteId":81,"StationName":"Ao Đôi","pathPoints":"106.59369659,10.78195190 106.59326172,10.77960110","Address":"790 (Đối diện Ao Đôi), đường Quốc lộ 1A, Quận Bình Tân","Lat":10.779601,"Lng":106.593262},{"StationId":1933,"StationOrder":56,"StationDirection":0,"RouteId":81,"StationName":"Hương lộ 2","pathPoints":"106.59326172,10.77960110 106.59237671,10.77547550","Address":"854, đường Quốc lộ 1A, Quận Bình Tân","Lat":10.775476,"Lng":106.592377},{"StationId":1935,"StationOrder":57,"StationDirection":0,"RouteId":81,"StationName":"Qua ngã tư Hương lộ 2","pathPoints":"106.59237671,10.77547550 106.59166718,10.77233982","Address":"892, đường Quốc lộ 1A, Quận Bình Tân","Lat":10.77234,"Lng":106.591667},{"StationId":1789,"StationOrder":58,"StationDirection":0,"RouteId":81,"StationName":"Nghĩa trang Bình TÂn","pathPoints":"106.59166718,10.77233982 106.59152985,10.77160740 106.59126282,10.77024174 106.59093475,10.76854515","Address":"950, đường Quốc lộ 1A, Quận Bình Tân","Lat":10.768545,"Lng":106.590935},{"StationId":1788,"StationOrder":59,"StationDirection":0,"RouteId":81,"StationName":"Bà Hom","pathPoints":"106.59093475,10.76854515 106.59059906,10.76671982 106.59052277,10.76624012 106.59043884,10.76539993 106.59044647,10.76469994 106.59050751,10.76410007 106.59056854,10.76379013 106.59068298,10.76240063","Address":"978A, đường Quốc lộ 1A, Quận Bình Tân","Lat":10.762401,"Lng":106.590683},{"StationId":1791,"StationOrder":60,"StationDirection":0,"RouteId":81,"StationName":"Nhà sách Tân Tạo","pathPoints":"106.59068298,10.76240063 106.59136963,10.75918007 106.59134674,10.75897026 106.59145355,10.75819016 106.59147644,10.75802040 106.59149170,10.75802612","Address":"1024, đường Quốc lộ 1A, Quận Bình Tân","Lat":10.758026,"Lng":106.591492},{"StationId":1790,"StationOrder":61,"StationDirection":0,"RouteId":81,"StationName":"Khu Công nghiệp Tân Tạo","pathPoints":"106.59149170,10.75802612 106.59147644,10.75802040 106.59175873,10.75644970 106.59213257,10.75438023 106.59218597,10.75390530 106.59217072,10.75279999 106.59212494,10.75279331","Address":"666, đường Quốc lộ 1A, Quận Bình Tân","Lat":10.752793,"Lng":106.592392},{"StationId":1792,"StationOrder":62,"StationDirection":0,"RouteId":81,"StationName":"Công ty Pouyuen","pathPoints":"106.59212494,10.75279331 106.59212494,10.75279331 106.59217072,10.75279999 106.59246826,10.75253487 106.59294891,10.75080585 106.59329224,10.75028992 106.59352112,10.74989033 106.59375763,10.74950027 106.59417725,10.74882030 106.59510803,10.74729633 106.59536743,10.74689865 106.59536743,10.74689865","Address":"Đối diện Pouyen, đường Quốc lộ 1A, Quận Bình Tân","Lat":10.746899,"Lng":106.595367},{"StationId":1794,"StationOrder":63,"StationDirection":0,"RouteId":81,"StationName":"Trạm Điện Quốc lộ 1A","pathPoints":"106.59536743,10.74689865 106.59972382,10.74000072","Address":"A5/3Q, đường Quốc lộ 1A, Quận Bình Tân","Lat":10.740001,"Lng":106.599724},{"StationId":1795,"StationOrder":64,"StationDirection":0,"RouteId":81,"StationName":"Công an Quận Bình Tân","pathPoints":"106.59972382,10.74000072 106.60070801,10.73845959 106.60172272,10.73686028 106.60208893,10.73622036 106.60208130,10.73621273 106.60208130,10.73620415","Address":"1054 (Quán ăn Xa lộ), đường Quốc lộ 1A, Quận Bình Tân","Lat":10.736204,"Lng":106.602081},{"StationId":708,"StationOrder":65,"StationDirection":0,"RouteId":81,"StationName":"Cầu An Lạc","pathPoints":"106.60208130,10.73620415 106.60237122,10.73562717 106.60271454,10.73428822 106.60268402,10.73343468 106.60182953,10.72922325 106.60096741,10.72357845 106.60155487,10.72334671 106.60234070,10.72431660","Address":"849-851, đường Kinh Dương Vương, Quận Bình Tân","Lat":10.724317,"Lng":106.602337},{"StationId":712,"StationOrder":66,"StationDirection":0,"RouteId":81,"StationName":"Hoa Hồng","pathPoints":"106.60234070,10.72431660 106.60282898,10.72496986 106.60362244,10.72565556 106.60519409,10.72658253","Address":"771, đường Kinh Dương Vương, Quận Bình Tân","Lat":10.726583,"Lng":106.605191},{"StationId":709,"StationOrder":67,"StationDirection":0,"RouteId":81,"StationName":"Hàng Dương","pathPoints":"106.60519409,10.72658253 106.60760498,10.72832012","Address":"703, đường Kinh Dương Vương, Quận Bình Tân","Lat":10.72832,"Lng":106.607605},{"StationId":714,"StationOrder":68,"StationDirection":0,"RouteId":81,"StationName":"Ủy ban","pathPoints":"106.60760498,10.72832012 106.61025238,10.72997665","Address":"631-637, đường Kinh Dương Vương, Quận Bình Tân","Lat":10.729977,"Lng":106.610255},{"StationId":710,"StationOrder":69,"StationDirection":0,"RouteId":81,"StationName":"Lâm Thành","pathPoints":"106.61025238,10.72997665 106.61050415,10.73048878 106.61253357,10.73375130 106.61298370,10.73427773","Address":"289(561), đường Kinh Dương Vương, Quận Bình Tân","Lat":10.734278,"Lng":106.61298},{"StationId":716,"StationOrder":70,"StationDirection":0,"RouteId":81,"StationName":"Tên Lửa","pathPoints":"106.61298370,10.73427773 106.61490631,10.73754120","Address":"251(511), đường Kinh Dương Vương, Quận Bình Tân","Lat":10.737541,"Lng":106.614906},{"StationId":713,"StationOrder":71,"StationDirection":0,"RouteId":81,"StationName":"Bệnh viện Triều An","pathPoints":"106.61490631,10.73754120 106.61566162,10.73862076 106.61686707,10.73966503","Address":"Bệnh viện Triều An, đường Kinh Dương Vương, Quận Bình Tân","Lat":10.739665,"Lng":106.61687},{"StationId":725,"StationOrder":72,"StationDirection":0,"RouteId":81,"StationName":"Bến xe Miền Tây","pathPoints":"106.61679840,10.73976040 106.61814880,10.74088955","Address":"Bến xe Miền Tây, đường Kinh Dương Vương, Quận Bình Tân","Lat":10.740705,"Lng":106.618317},{"StationId":725,"StationOrder":0,"StationDirection":1,"RouteId":81,"StationName":"Bến xe Miền Tây","pathPoints":"","Address":"Bến xe Miền Tây, đường Kinh Dương Vương, Quận Bình Tân","Lat":10.740705,"Lng":106.618317},{"StationId":630,"StationOrder":1,"StationDirection":1,"RouteId":81,"StationName":"Bệnh viện Triều An","pathPoints":"106.61831665,10.74070454 106.61933899,10.74155140 106.61916351,10.74172974 106.61904907,10.74186039 106.61823273,10.74118996 106.61666107,10.73987961 106.61643219,10.73968029 106.61639404,10.73967457","Address":"480 (EXIMBANK), đường Kinh Dương Vương, Quận Bình Tân","Lat":10.739675,"Lng":106.616392},{"StationId":631,"StationOrder":2,"StationDirection":1,"RouteId":81,"StationName":"Hàng Dương","pathPoints":"106.61639404,10.73967457 106.61544800,10.73885250 106.61504364,10.73830509 106.61314392,10.73513794","Address":"548, đường Kinh Dương Vương, Quận Bình Tân","Lat":10.735138,"Lng":106.613144},{"StationId":632,"StationOrder":3,"StationDirection":1,"RouteId":81,"StationName":"SinCo","pathPoints":"106.61314392,10.73513794 106.61103058,10.73167419","Address":"Đối diện nhà trọ Thanh Trường, đường Kinh Dương Vương, Quận Bình Tân","Lat":10.731674,"Lng":106.611028},{"StationId":633,"StationOrder":4,"StationDirection":1,"RouteId":81,"StationName":"Hoa hồng","pathPoints":"106.61103058,10.73167419 106.61064148,10.73102093 106.61013794,10.73030376 106.60967255,10.72996712 106.60827637,10.72901440","Address":"620, đường Kinh Dương Vương, Quận Bình Tân","Lat":10.729014,"Lng":106.608276},{"StationId":634,"StationOrder":5,"StationDirection":1,"RouteId":81,"StationName":"An Lạc","pathPoints":"106.60827637,10.72901440 106.60706329,10.72817993 106.60575104,10.72733021","Address":"676, đường Kinh Dương Vương, Quận Bình Tân","Lat":10.72733,"Lng":106.605751},{"StationId":635,"StationOrder":6,"StationDirection":1,"RouteId":81,"StationName":"Thời trang","pathPoints":"106.60575104,10.72733021 106.60440826,10.72639847 106.60302734,10.72546577","Address":"724, đường Kinh Dương Vương, Quận Bình Tân","Lat":10.725466,"Lng":106.603027},{"StationId":1856,"StationOrder":7,"StationDirection":1,"RouteId":81,"StationName":"Trạm Điện Quốc lộ 1A","pathPoints":"106.60302734,10.72546577 106.60253906,10.72501755 106.60188293,10.72422218 106.60170746,10.72407913 106.60147095,10.72408485 106.60132599,10.72434807 106.60215759,10.72917652 106.60308838,10.73402500 106.60269928,10.73575401 106.60136414,10.73765659","Address":"1229C, đường Quốc lộ 1A, Quận Bình Tân","Lat":10.737657,"Lng":106.601364},{"StationId":1854,"StationOrder":8,"StationDirection":1,"RouteId":81,"StationName":"Công ty Hai Thành","pathPoints":"106.60136414,10.73765659 106.59844208,10.74230671","Address":"E4/48, đường Quốc lộ 1A, Quận Bình Tân","Lat":10.742307,"Lng":106.598442},{"StationId":1857,"StationOrder":9,"StationDirection":1,"RouteId":81,"StationName":"Công ty Pouyuen","pathPoints":"106.59844208,10.74230671 106.59507751,10.74763393","Address":"Công ty Pouyuen, đường Quốc lộ 1A, Quận Bình Tân","Lat":10.747634,"Lng":106.595078},{"StationId":1858,"StationOrder":10,"StationDirection":1,"RouteId":81,"StationName":"KCN Tân Tạo","pathPoints":"106.59507751,10.74763393 106.59507751,10.74763393 106.59507751,10.74763393 106.59500885,10.74771023 106.59461975,10.74842358 106.59377289,10.74978352 106.59329224,10.75055313 106.59297180,10.75148106 106.59268951,10.75296688","Address":"56, đường Quốc lộ 1A, Quận Bình Tân","Lat":10.752967,"Lng":106.592692},{"StationId":1861,"StationOrder":11,"StationDirection":1,"RouteId":81,"StationName":"Trạm xăng số 5","pathPoints":"106.59268951,10.75296688 106.59185791,10.75788403","Address":"1137 (D11/89A), đường Quốc lộ 1A, Quận Bình Tân","Lat":10.757884,"Lng":106.591858},{"StationId":1863,"StationOrder":12,"StationDirection":1,"RouteId":81,"StationName":"Chung cư Tân Mai","pathPoints":"106.59185791,10.75788403 106.59092712,10.76307487","Address":"Đối diện 952, đường Quốc lộ 1A, Quận Bình Tân","Lat":10.763075,"Lng":106.590927},{"StationId":1865,"StationOrder":13,"StationDirection":1,"RouteId":81,"StationName":"Hương lộ 2","pathPoints":"106.59092712,10.76307487 106.59063721,10.76408958 106.59056854,10.76484013 106.59056854,10.76541042 106.59062958,10.76622963 106.59071350,10.76669025 106.59089661,10.76753044 106.59114838,10.76847649","Address":"1083A, đường Quốc lộ 1A, Quận Bình Tân","Lat":10.768476,"Lng":106.591148},{"StationId":1893,"StationOrder":14,"StationDirection":1,"RouteId":81,"StationName":"Hương lộ 2","pathPoints":"106.59114838,10.76847649 106.59196472,10.77205467","Address":"1069, đường Quốc lộ 1A, Quận Bình Tân","Lat":10.772055,"Lng":106.591965},{"StationId":1886,"StationOrder":15,"StationDirection":1,"RouteId":81,"StationName":"Ao Đôi","pathPoints":"106.59196472,10.77205467 106.59195709,10.77243996 106.59200287,10.77277184 106.59234619,10.77420998 106.59256744,10.77521133 106.59266663,10.77548027","Address":"1015 (Ao Đôi), đường Quốc lộ 1A, Quận Bình Tân","Lat":10.77548,"Lng":106.592667},{"StationId":1887,"StationOrder":16,"StationDirection":1,"RouteId":81,"StationName":"Khu phố 1","pathPoints":"106.59266663,10.77548027 106.59350586,10.77956963","Address":"853, đường Quốc lộ 1A, Quận Bình Tân","Lat":10.77957,"Lng":106.593506},{"StationId":1895,"StationOrder":17,"StationDirection":1,"RouteId":81,"StationName":"Sơn Expo","pathPoints":"106.59350586,10.77956963 106.59403992,10.78199387","Address":"Sơn Expo, đường Quốc lộ 1A, Quận Bình Tân","Lat":10.781994,"Lng":106.59404},{"StationId":1888,"StationOrder":18,"StationDirection":1,"RouteId":81,"StationName":"Tân Kỳ Tân Quý","pathPoints":"106.59394836,10.78201008 106.59436798,10.78398991 106.59443665,10.78433037 106.59452820,10.78446007 106.59458923,10.78454971","Address":"813, đường Quốc lộ 1A, Quận Bình Tân","Lat":10.784544,"Lng":106.594604},{"StationId":1898,"StationOrder":19,"StationDirection":1,"RouteId":81,"StationName":"Tân Kỳ Tân Quý","pathPoints":"106.59458923,10.78454971 106.59452820,10.78446007 106.59443665,10.78433037 106.59449768,10.78460979 106.59464264,10.78530025 106.59497833,10.78687954 106.59506989,10.78732014","Address":"741, đường Quốc lộ 1A, Quận Bình Tân","Lat":10.787306,"Lng":106.595161},{"StationId":1892,"StationOrder":20,"StationDirection":1,"RouteId":81,"StationName":"Phát Đạt","pathPoints":"106.59506989,10.78732014 106.59538269,10.78878021 106.59565735,10.78993988 106.59597015,10.79146004","Address":"601, đường Quốc lộ 1A, Quận Bình Tân","Lat":10.791437,"Lng":106.596062},{"StationId":1900,"StationOrder":21,"StationDirection":1,"RouteId":81,"StationName":"Trạm cân số 1","pathPoints":"106.59597015,10.79146004 106.59626007,10.79292965 106.59652710,10.79417038 106.59706879,10.79675007 106.59764099,10.79950047","Address":"497, đường Quốc lộ 1A, Quận Bình Tân","Lat":10.799468,"Lng":106.597801},{"StationId":1894,"StationOrder":22,"StationDirection":1,"RouteId":81,"StationName":"Khu phố 3 (T H P)","pathPoints":"106.59764099,10.79950047 106.59822845,10.80235004 106.59848785,10.80356026","Address":"461, đường Quốc lộ 1A, Quận Bình Tân","Lat":10.803514,"Lng":106.598724},{"StationId":1902,"StationOrder":23,"StationDirection":1,"RouteId":81,"StationName":"Cửa hàng Thảo Vân (Thành Vịnh)","pathPoints":"106.59848785,10.80356026 106.59948730,10.80817986","Address":"383, đường Quốc lộ 1A, Quận Bình Tân","Lat":10.80813,"Lng":106.599731},{"StationId":1896,"StationOrder":24,"StationDirection":1,"RouteId":81,"StationName":"Gò Mây","pathPoints":"106.59948730,10.80817986 106.60064697,10.81350994","Address":"253, đường Quốc lộ 1A, Quận Bình Tân","Lat":10.813484,"Lng":106.600754},{"StationId":1904,"StationOrder":25,"StationDirection":1,"RouteId":81,"StationName":"Hội quán (Sài Gòn JSC) ","pathPoints":"106.60064697,10.81350994 106.60112762,10.81569958 106.60124969,10.81624031 106.60153198,10.81762028","Address":"171 (Tạp phẩm Sài Gòn), đường Quốc lộ 1A, Quận Bình Tân","Lat":10.817604,"Lng":106.601593},{"StationId":1897,"StationOrder":26,"StationDirection":1,"RouteId":81,"StationName":"Nồi Hơi","pathPoints":"106.60153198,10.81762028 106.60221863,10.82089043","Address":"117, đường Quốc lộ 1A, Quận Bình Tân","Lat":10.820871,"Lng":106.602333},{"StationId":1899,"StationOrder":27,"StationDirection":1,"RouteId":81,"StationName":"Lộc Ích","pathPoints":"106.60233307,10.82087135 106.60385132,10.82777882","Address":"168, đường Quốc lộ 1A, Quận 12","Lat":10.827779,"Lng":106.603855},{"StationId":1908,"StationOrder":28,"StationDirection":1,"RouteId":81,"StationName":"Ngã tư Bà Điểm","pathPoints":"106.60379791,10.82789230 106.60404205,10.82874298 106.60424805,10.82921696 106.60445404,10.82973385 106.60483551,10.83040333 106.60634613,10.83298206","Address":"2945 (19/7F), đường Quốc lộ 1A, Quận 12","Lat":10.833269,"Lng":106.606559},{"StationId":1910,"StationOrder":29,"StationDirection":1,"RouteId":81,"StationName":"Trạm Rác","pathPoints":"106.60655975,10.83326912 106.60841370,10.83625698 106.61019897,10.83788967","Address":"88/1, đường Quốc lộ 1A, Quận 12","Lat":10.83789,"Lng":106.610202},{"StationId":1903,"StationOrder":30,"StationDirection":1,"RouteId":81,"StationName":"Trạm măng","pathPoints":"106.61019897,10.83788967 106.61177063,10.83940983 106.61230469,10.83975506","Address":"2797, đường Quốc lộ 1A, Quận 12","Lat":10.839755,"Lng":106.612304},{"StationId":4489,"StationOrder":31,"StationDirection":1,"RouteId":81,"StationName":"Trường Chinh","pathPoints":"106.61230469,10.83975506 106.61542511,10.84254742","Address":"Trường Chinh, đường Trường Chinh, Quận 12","Lat":10.842547,"Lng":106.615427},{"StationId":2342,"StationOrder":32,"StationDirection":1,"RouteId":81,"StationName":"Cầu vượt An Sương","pathPoints":"106.61542511,10.84254742 106.61766052,10.84456825","Address":"17A-4/8A (2575), đường Quốc lộ 1A, Quận 12","Lat":10.844618,"Lng":106.617803},{"StationId":2341,"StationOrder":33,"StationDirection":1,"RouteId":81,"StationName":"Trạm đăng kiểm","pathPoints":"106.61766052,10.84456825 106.61959076,10.84617233 106.62046814,10.84683609 106.62150574,10.84741783 106.62150574,10.84741783","Address":"Đối diện trạm đăng kiểm, đường Quốc lộ 1A, Quận 12","Lat":10.847418,"Lng":106.621506},{"StationId":2344,"StationOrder":34,"StationDirection":1,"RouteId":81,"StationName":"Đài phát thanh Quán Tre","pathPoints":"106.62150574,10.84741783 106.62506866,10.84908199","Address":"Đài phát thanh quán tre, đường Quốc lộ 1A, Quận 12","Lat":10.850071,"Lng":106.627572},{"StationId":2677,"StationOrder":35,"StationDirection":1,"RouteId":81,"StationName":"Trường Nguyễn Du","pathPoints":"106.62503815,10.84912968 106.62892151,10.85093975 106.63069153,10.85177040 106.63229370,10.85262012","Address":"Trường Nguyễn Du, đường Quốc lộ 1A, Quận 12","Lat":10.852583,"Lng":106.632347},{"StationId":2676,"StationOrder":36,"StationDirection":1,"RouteId":81,"StationName":"Ngã tư Đình","pathPoints":"106.63234711,10.85258293 106.63983154,10.85666656","Address":"1781, đường Quốc lộ 1A, Quận 12","Lat":10.856667,"Lng":106.639832},{"StationId":3811,"StationOrder":37,"StationDirection":1,"RouteId":81,"StationName":"công ty Tiến Đạt","pathPoints":"106.63983154,10.85666656 106.64228058,10.85801125","Address":"154/1, đường Quốc lộ 1A, Huyện Hóc Môn","Lat":10.858011,"Lng":106.642284},{"StationId":2678,"StationOrder":38,"StationDirection":1,"RouteId":81,"StationName":"Cây xăng Năng lượng","pathPoints":"106.64228058,10.85801125 106.64423370,10.85895348","Address":"Kế cây xăng Năng lượng, đường Quốc lộ 1A, Quận 12","Lat":10.858953,"Lng":106.644233},{"StationId":2680,"StationOrder":39,"StationDirection":1,"RouteId":81,"StationName":"Cao su Vina","pathPoints":"106.64423370,10.85895348 106.64466095,10.85935402 106.64495850,10.85951996 106.64512634,10.85964012 106.64698792,10.86065006 106.64733124,10.86082363 106.64777374,10.86102962 106.64778137,10.86096954","Address":"1721, đường Quốc lộ 1A, Quận 12","Lat":10.86097,"Lng":106.647781},{"StationId":932,"StationOrder":40,"StationDirection":1,"RouteId":81,"StationName":"Ngã tư Tân Thới Hiệp","pathPoints":"106.64777374,10.86102962 106.64784241,10.86104965 106.64851379,10.86139965 106.64910889,10.86168957 106.64945984,10.86180019 106.64978027,10.86188984 106.65019226,10.86194992 106.65064240,10.86196041 106.65119934,10.86194038","Address":"79/1, đường Quốc lộ 1A, Quận 12","Lat":10.861881,"Lng":106.651199},{"StationId":935,"StationOrder":41,"StationDirection":1,"RouteId":81,"StationName":"UBND Quận 12","pathPoints":"106.65119934,10.86188126 106.65119934,10.86194038 106.65180206,10.86199284 106.65242004,10.86196136 106.65280151,10.86197758 106.65324402,10.86194611 106.65406036,10.86186028 106.65405273,10.86180782","Address":"1251, đường Quốc lộ 1A, Quận 12","Lat":10.861808,"Lng":106.654053},{"StationId":933,"StationOrder":42,"StationDirection":1,"RouteId":81,"StationName":"Bãi xe Tri Ân","pathPoints":"106.65406036,10.86186028 106.65550995,10.86178970 106.65712738,10.86172009","Address":"1797, đường Quốc lộ 1A, Quận 12","Lat":10.861651,"Lng":106.657127},{"StationId":936,"StationOrder":43,"StationDirection":1,"RouteId":81,"StationName":"Cầu Bến Cát","pathPoints":"106.65712738,10.86165142 106.65712738,10.86172009 106.66036224,10.86155987 106.66119385,10.86152458 106.66224670,10.86133480","Address":"953 (973), đường Quốc lộ 1A, Quận 12","Lat":10.861335,"Lng":106.662247},{"StationId":942,"StationOrder":44,"StationDirection":1,"RouteId":81,"StationName":"Gò Sao","pathPoints":"106.66224670,10.86133480 106.66645813,10.86150265","Address":"109, đường Quốc lộ 1A, Quận 12","Lat":10.861503,"Lng":106.666458},{"StationId":937,"StationOrder":45,"StationDirection":1,"RouteId":81,"StationName":"Cây xăng Thạnh Xuân","pathPoints":"106.66644287,10.86163998 106.66767883,10.86161995 106.67015076,10.86163998 106.67188263,10.86166954","Address":"Cây xăng Thạnh Xuân, đường Quốc lộ 1A, Quận 12","Lat":10.861577,"Lng":106.671882},{"StationId":944,"StationOrder":46,"StationDirection":1,"RouteId":81,"StationName":"Bến xe Ngã tư Ga","pathPoints":"106.67188263,10.86157703 106.67495728,10.86157703 106.67807770,10.86147213","Address":"Đối diện Bx Ngã tư Ga, đường Quốc lộ 1A, Quận 12","Lat":10.861472,"Lng":106.678078},{"StationId":2356,"StationOrder":47,"StationDirection":1,"RouteId":81,"StationName":"Cầu Ga nhỏ","pathPoints":"106.67807770,10.86147213 106.67807770,10.86153984 106.67881012,10.86156178 106.68047333,10.86143494 106.68120575,10.86138248 106.68173981,10.86128998 106.68173981,10.86122894","Address":"30, đường Quốc lộ 1A, Quận 12","Lat":10.861171,"Lng":106.68201},{"StationId":2359,"StationOrder":48,"StationDirection":1,"RouteId":81,"StationName":"An Phú Đông","pathPoints":"106.68200684,10.86117077 106.68338013,10.86112404 106.68492126,10.86108971 106.68492126,10.86102962 106.68571472,10.86092854","Address":"365 - 501, đường Quốc lộ 1A, Quận 12","Lat":10.860897,"Lng":106.686655},{"StationId":2360,"StationOrder":49,"StationDirection":1,"RouteId":81,"StationName":"Đài liệt sĩ An Phú Đông","pathPoints":"106.68571472,10.86092854 106.69224548,10.86053371 106.69232941,10.86038589","Address":"C32/16, đường Quốc lộ 1A, Quận 12","Lat":10.860386,"Lng":106.692331},{"StationId":2364,"StationOrder":50,"StationDirection":1,"RouteId":81,"StationName":"Công ty đá Ngọc Ngân","pathPoints":"106.69232941,10.86038589 106.69522858,10.86038685 106.70069885,10.85967541","Address":"1126/3A , đường Quốc lộ 1A, Quận 12","Lat":10.859675,"Lng":106.700699},{"StationId":2362,"StationOrder":51,"StationDirection":1,"RouteId":81,"StationName":"Cây xăng Petrolimex 12","pathPoints":"106.70131683,10.85964775 106.70131683,10.85970020 106.70387268,10.85941696 106.70612335,10.85908985 106.70611572,10.85903454","Address":"1650/3B, đường Quốc lộ 1A, Quận 12","Lat":10.859017,"Lng":106.706048},{"StationId":2368,"StationOrder":52,"StationDirection":1,"RouteId":81,"StationName":"Aone","pathPoints":"106.70604706,10.85901737 106.71084595,10.85853195 106.71350098,10.85965919","Address":"Aone, đường Quốc lộ 1A, Quận 12","Lat":10.859659,"Lng":106.713504},{"StationId":2365,"StationOrder":53,"StationDirection":1,"RouteId":81,"StationName":"Ngã 4 Bình Phước","pathPoints":"106.71450806,10.86017609 106.71459961,10.86030006 106.71668243,10.86146164 106.71798706,10.86211491 106.71958923,10.86291981 106.72042847,10.86336040 106.72045135,10.86331463","Address":"30 (33/8), đường Quốc lộ 1, Quận Thủ Đức","Lat":10.863315,"Lng":106.720451},{"StationId":315,"StationOrder":54,"StationDirection":1,"RouteId":81,"StationName":"Ngã ba mũi tàu đường Gò Dưa ","pathPoints":"106.72042847,10.86336040 106.72113037,10.86373997 106.72338104,10.86483002 106.72367859,10.86493969 106.72384644,10.86493015 106.72399139,10.86491966 106.72412872,10.86499977 106.72418213,10.86509991 106.72418976,10.86515045 106.72427368,10.86524010 106.72438049,10.86532974 106.72463989,10.86544991 106.72666168,10.86645985 106.72680664,10.86657047 106.72708893,10.86682034 106.72718048,10.86686993 106.72737885,10.86697006","Address":"120, đường Quốc lộ 1, Quận Thủ Đức","Lat":10.86689,"Lng":106.727425},{"StationId":320,"StationOrder":55,"StationDirection":1,"RouteId":81,"StationName":"Chợ Đầu Mối","pathPoints":"106.72742462,10.86688995 106.72798157,10.86724091 106.72880554,10.86766148 106.72973633,10.86813068 106.73020172,10.86830997","Address":"160, đường Quốc lộ 1, Quận Thủ Đức","Lat":10.86831,"Lng":106.730198},{"StationId":317,"StationOrder":56,"StationDirection":1,"RouteId":81,"StationName":"Chợ Tam Bình","pathPoints":"106.73020172,10.86830997 106.73054504,10.86859989 106.73095703,10.86884022 106.73193359,10.86931038 106.73319244,10.86993027 106.73468781,10.87067986 106.73535919,10.87098026 106.73538208,10.87086010","Address":"Chợ Tam Bình, đường Quốc lộ 1, Quận Thủ Đức","Lat":10.87086,"Lng":106.73538},{"StationId":322,"StationOrder":57,"StationDirection":1,"RouteId":81,"StationName":"Hồ Bơi","pathPoints":"106.73535919,10.87098026 106.73597717,10.87121964 106.73674774,10.87143993 106.73748779,10.87160969 106.73834991,10.87172985 106.73964691,10.87189960","Address":"376, đường Quốc lộ 1, Quận Thủ Đức","Lat":10.871766,"Lng":106.739666},{"StationId":319,"StationOrder":58,"StationDirection":1,"RouteId":81,"StationName":"Chợ Tam Hải","pathPoints":"106.73964691,10.87189960 106.74082184,10.87207985 106.74160767,10.87226963 106.74257660,10.87257004 106.74403381,10.87304974","Address":"450, đường Quốc lộ 1, Quận Thủ Đức","Lat":10.872935,"Lng":106.744081},{"StationId":321,"StationOrder":59,"StationDirection":1,"RouteId":81,"StationName":"Cầu vượt Sóng Thần","pathPoints":"106.74407959,10.87293530 106.74467468,10.87319851 106.74561310,10.87350941 106.74673462,10.87382603 106.74713135,10.87390518","Address":"Đối diện 275-Mitsubishi , đường Quốc lộ 1, Quận Thủ Đức","Lat":10.873905,"Lng":106.747128},{"StationId":323,"StationOrder":60,"StationDirection":1,"RouteId":81,"StationName":"Bến xe Lam Hồng","pathPoints":"106.74707794,10.87403011 106.74913025,10.87469006 106.75228119,10.87574005 106.75308990,10.87596035 106.75370026,10.87602043 106.75434113,10.87600994 106.75489807,10.87592983 106.75566101,10.87580013","Address":"6/8, đường Quốc lộ 1, Quận Thủ Đức","Lat":10.875706,"Lng":106.75562},{"StationId":325,"StationOrder":61,"StationDirection":1,"RouteId":81,"StationName":"Giày da Thái Bình","pathPoints":"106.75562286,10.87570572 106.75746918,10.87535286","Address":"Đối diện 10/19 (20/8), đường Quốc lộ 1, Quận Thủ Đức","Lat":10.875353,"Lng":106.757466},{"StationId":328,"StationOrder":62,"StationDirection":1,"RouteId":81,"StationName":"Linh Xuân","pathPoints":"106.75746918,10.87535286 106.75746918,10.87535286 106.75748444,10.87539387 106.75920105,10.87504292 106.76092529,10.87457085 106.76091003,10.87447357 106.76091003,10.87447357","Address":"54/8, đường Quốc lộ 1, Quận Thủ Đức","Lat":10.874474,"Lng":106.76091},{"StationId":324,"StationOrder":63,"StationDirection":1,"RouteId":81,"StationName":"Cầu vượt Linh Xuân","pathPoints":"106.76091003,10.87447357 106.76091003,10.87447357 106.76113129,10.87446308 106.76167297,10.87428951 106.76247406,10.87397289 106.76247406,10.87397289","Address":"Kho 856, đường Quốc lộ 1, Quận Thủ Đức","Lat":10.873973,"Lng":106.762476},{"StationId":2083,"StationOrder":64,"StationDirection":1,"RouteId":81,"StationName":"Vietcombank","pathPoints":"106.76248169,10.87404919 106.76249695,10.87411022 106.76289368,10.87397957 106.76309204,10.87384033 106.76686859,10.87255001 106.76715088,10.87246037 106.76751709,10.87233448 106.76966095,10.87170982 106.76964569,10.87165546","Address":"Ngân hàng Vietcombank, đường Quốc lộ 1, Quận Thủ Đức","Lat":10.871597,"Lng":106.769643},{"StationId":2084,"StationOrder":65,"StationDirection":1,"RouteId":81,"StationName":"Nghĩa trang TP","pathPoints":"106.76964569,10.87159729 106.76964569,10.87159729 106.77136230,10.87109661 106.77304077,10.87050724 106.77304077,10.87050724","Address":"Cổng nghĩa trang thành phố, đường Quốc lộ 1, Quận Thủ Đức","Lat":10.870507,"Lng":106.773039},{"StationId":1040,"StationOrder":66,"StationDirection":1,"RouteId":81,"StationName":"ĐH Kinh tế Luật","pathPoints":"106.77304077,10.87050724 106.77304077,10.87050724 106.77490234,10.86994267 106.77672577,10.86930561 106.77672577,10.86930561","Address":"Đối diện 665-CoopXtra, đường Quốc lộ 1, Quận Thủ Đức","Lat":10.869306,"Lng":106.776724},{"StationId":1041,"StationOrder":67,"StationDirection":1,"RouteId":81,"StationName":"Công ty điện tử Samsung","pathPoints":"106.77672577,10.86930561 106.77865601,10.86869144","Address":"Công ty điện tử Samsung, đường Quốc lộ 1, Quận Thủ Đức","Lat":10.868691,"Lng":106.778656},{"StationId":1042,"StationOrder":68,"StationDirection":1,"RouteId":81,"StationName":"ĐH Nông Lâm","pathPoints":"106.77865601,10.86869144 106.77938843,10.86856270 106.78088379,10.86806297 106.78207397,10.86769390 106.78311920,10.86743546 106.78416443,10.86732483 106.78519440,10.86727905 106.78636932,10.86724091 106.78727722,10.86712170","Address":"Cột điện SI 2, đường Quốc lộ 1, Quận Thủ Đức","Lat":10.867122,"Lng":106.787277},{"StationId":396,"StationOrder":69,"StationDirection":1,"RouteId":81,"StationName":"ĐH Nông Lâm","pathPoints":"106.78727722,10.86717987 106.78822327,10.86713028 106.78961182,10.86707020 106.79029846,10.86695957","Address":"1026/2 (1030), đường Quốc lộ 1, Quận Thủ Đức","Lat":10.866912,"Lng":106.790283},{"StationId":536,"StationOrder":70,"StationDirection":1,"RouteId":81,"StationName":"Cầu Vượt Trạm 2","pathPoints":"106.79028320,10.86691189 106.79219818,10.86613941 106.79380035,10.86489582 106.79590607,10.86160851 106.79586792,10.86110306 106.79556274,10.86076546 106.79508972,10.86070251 106.79463959,10.86120796 106.79457855,10.86154556 106.79479218,10.86190414 106.79541016,10.86238861 106.79753876,10.86359501","Address":"Tiệm vàng Kim Lợi, đường Quốc lộ 1, Quận 9","Lat":10.863595,"Lng":106.797538},{"StationId":537,"StationOrder":71,"StationDirection":1,"RouteId":81,"StationName":"Suối Tiên","pathPoints":"106.79753876,10.86359501 106.80237579,10.86649799","Address":"Suối Tiên, đường Quốc lộ 1, Quận 9","Lat":10.866498,"Lng":106.802377},{"StationId":1919,"StationOrder":72,"StationDirection":1,"RouteId":81,"StationName":"Nghĩa trang liệt sĩ TP.HCM","pathPoints":"106.80248260,10.86666965 106.80357361,10.86740971 106.80422211,10.86791039 106.80460358,10.86822987 106.80522156,10.86880016 106.80615997,10.86979008 106.80673218,10.87049007 106.80814362,10.87240028 106.80947113,10.87421989","Address":"Nghĩa trang liệt sĩ Thành phố HCM, đường Quốc lộ 1, Quận 9","Lat":10.873694,"Lng":106.809286},{"StationId":1097,"StationOrder":73,"StationDirection":1,"RouteId":81,"StationName":"Công ty Nam Hàn","pathPoints":"106.80947113,10.87421989 106.81278229,10.87874985","Address":"Công ty TNHH Nam Hàn, đường Quốc lộ 1, Quận 9","Lat":10.884067,"Lng":106.816818},{"StationId":1098,"StationOrder":74,"StationDirection":1,"RouteId":81,"StationName":"Khu tưởng niệm các Vua Hùng","pathPoints":"106.81681824,10.88406658 106.81690979,10.88436985 106.81897736,10.88716984 106.81941223,10.88776970 106.81942749,10.88762283","Address":"Kho 190C - 19/11 Hiệp Thắng, đường Quốc lộ 1, Quận 9","Lat":10.887623,"Lng":106.81943},{"StationId":1100,"StationOrder":75,"StationDirection":1,"RouteId":81,"StationName":"Trạm xăng Hiệp Phú","pathPoints":"106.81934357,10.88768005 106.82103729,10.88998032 106.82296753,10.89260960 106.82341003,10.89315033 106.82369232,10.89352989","Address":"Trạm xăng Hiệp Phú, đường Quốc lộ 1, Quận 9","Lat":10.893459,"Lng":106.823743},{"StationId":1099,"StationOrder":76,"StationDirection":1,"RouteId":81,"StationName":"Ngã 3 Tân Vạn","pathPoints":"106.82369232,10.89352989 106.82411194,10.89410973 106.82453918,10.89461994 106.82511139,10.89523029 106.82543182,10.89552975 106.82601166,10.89601040 106.82652283,10.89638042 106.82720184,10.89680958","Address":"Ngã 3 Tân Vạn, đường Quốc lộ 1, Quận 9","Lat":10.897837,"Lng":106.829606},{"StationId":7208,"StationOrder":77,"StationDirection":1,"RouteId":81,"StationName":"Bến xe Biên Hòa","pathPoints":"106.82960510,10.89783669 106.84761810,10.90448952 106.85186768,10.90857697 106.85976410,10.91645718 106.86705780,10.92399979 106.86796570,10.92652798 106.86843109,10.92888832 106.86839294,10.93133163 106.86847687,10.93638802 106.86873627,10.94523716 106.86980438,10.94814396 106.87178040,10.95084095 106.86770630,10.95501137 106.85731506,10.95855141 106.85659027,10.95897198 106.85517120,10.96234322 106.85397339,10.96706200 106.83646393,10.96293259 106.83248901,10.96044731 106.83077240,10.95859337 106.82916260,10.95737171 106.82836914,10.95686531 106.82643890,10.95640182 106.81161499,10.95635986 106.81039429,10.95602322 106.80912781,10.95541191 106.80805206,10.95425320 106.80895233,10.95412731","Address":"4 Nguyễn Ái Quốc, đường Quốc lộ 1K, Ngoại thành","Lat":10.954127,"Lng":106.808953}]