[{"StationId":1417,"StationOrder":0,"StationDirection":0,"RouteId":27,"StationName":"Ba Tơ","pathPoints":"","Address":"ĐẦU BẾN NGÃ 3 BA TƠ, đường Phạm Thế Hiển, Quận 8","Lat":10.702021,"Lng":106.620802},{"StationId":1414,"StationOrder":1,"StationDirection":0,"RouteId":27,"StationName":"Ba Tơ","pathPoints":"106.62080383,10.70202065 106.62076569,10.70196819 106.62149811,10.70140934 106.62209320,10.70252705 106.62167358,10.70364380 106.62173462,10.70381260 106.62216187,10.70477772 106.62181854,10.70495701 106.62210846,10.70574188 106.62254333,10.70557308 106.62336731,10.70735455 106.62357330,10.70814037 106.62370300,10.70816708","Address":"3421, đường Phạm Thế Hiển, Quận 8","Lat":10.708167,"Lng":106.623704},{"StationId":1419,"StationOrder":2,"StationDirection":0,"RouteId":27,"StationName":"Giáo xứ Bình Sơn","pathPoints":"106.62370300,10.70816708 106.62429047,10.71016979 106.62489319,10.71044922","Address":"3391, đường Phạm Thế Hiển, Quận 8","Lat":10.710449,"Lng":106.624895},{"StationId":1415,"StationOrder":3,"StationDirection":0,"RouteId":27,"StationName":"Trường Nguyễn Trung Ngạn","pathPoints":"106.62489319,10.71044922 106.62691498,10.71157742 106.62757111,10.71181393","Address":"3259, đường Phạm Thế Hiển, Quận 8","Lat":10.712552,"Lng":106.628698},{"StationId":1421,"StationOrder":4,"StationDirection":0,"RouteId":27,"StationName":"Thánh Đường Bình Thuận","pathPoints":"106.62757111,10.71181393 106.62849426,10.71254158 106.62953949,10.71347046 106.62998199,10.71387005 106.62998199,10.71386147","Address":"3127, đường Phạm Thế Hiển, Quận 8","Lat":10.714118,"Lng":106.630452},{"StationId":1423,"StationOrder":5,"StationDirection":0,"RouteId":27,"StationName":"Bến Đò Rạch Cát","pathPoints":"106.62998199,10.71387005 106.63015747,10.71403027 106.63037872,10.71428967 106.63133240,10.71535969 106.63146973,10.71553040","Address":"3023, đường Phạm Thế Hiển, Quận 8","Lat":10.715983,"Lng":106.63204},{"StationId":1424,"StationOrder":6,"StationDirection":0,"RouteId":27,"StationName":"Bến đò Hội Đồng","pathPoints":"106.63146973,10.71553040 106.63194275,10.71613026 106.63213348,10.71640968 106.63230896,10.71669960 106.63249969,10.71710968 106.63320923,10.71850014 106.63339233,10.71887970","Address":"2867, đường Phạm Thế Hiển, Quận 8","Lat":10.719805,"Lng":106.634116},{"StationId":1418,"StationOrder":7,"StationDirection":0,"RouteId":27,"StationName":"Chợ Phú Lợi","pathPoints":"106.63339233,10.71887970 106.63433075,10.72091007 106.63491821,10.72206974","Address":"2765-2767, đường Phạm Thế Hiển, Quận 8","Lat":10.722915,"Lng":106.635522},{"StationId":1420,"StationOrder":8,"StationDirection":0,"RouteId":27,"StationName":"Trường Bình An","pathPoints":"106.63491821,10.72206974 106.63523102,10.72266960 106.63578796,10.72383976 106.63607025,10.72441006 106.63610077,10.72447014","Address":"2673, đường Phạm Thế Hiển, Quận 8","Lat":10.724464,"Lng":106.636283},{"StationId":1422,"StationOrder":9,"StationDirection":0,"RouteId":27,"StationName":"Tòa thánh Cao đài Huỳnh Quang Sắt","pathPoints":"106.63610077,10.72447014 106.63629150,10.72494984 106.63668060,10.72577000 106.63697815,10.72642040 106.63748932,10.72739983 106.63774109,10.72784042 106.63796234,10.72823048 106.63815308,10.72852039 106.63845062,10.72891998","Address":"2551-2553, đường Phạm Thế Hiển, Quận 8","Lat":10.728712,"Lng":106.638483},{"StationId":1426,"StationOrder":10,"StationDirection":0,"RouteId":27,"StationName":"Nhà thờ Bình An","pathPoints":"106.63848114,10.72871208 106.63845062,10.72891998 106.63870239,10.72926044 106.63887787,10.72951984 106.63919067,10.72990036 106.63971710,10.73050022 106.64099884,10.73169994 106.64131927,10.73175335","Address":"2305, đường Phạm Thế Hiển, Quận 8","Lat":10.731753,"Lng":106.641321},{"StationId":4700,"StationOrder":11,"StationDirection":0,"RouteId":27,"StationName":"Chợ Mười Giờ","pathPoints":"106.64131927,10.73175335 106.64160919,10.73208523 106.64266205,10.73278141 106.64394379,10.73352242","Address":"2225, đường Phạm Thế Hiển, Quận 8","Lat":10.733451,"Lng":106.643965},{"StationId":1425,"StationOrder":12,"StationDirection":0,"RouteId":27,"StationName":"Chợ Mười Giờ","pathPoints":"106.64394379,10.73352242 106.64701080,10.73532009","Address":"1935-1937, đường Phạm Thế Hiển, Quận 8","Lat":10.735348,"Lng":106.647098},{"StationId":1428,"StationOrder":13,"StationDirection":0,"RouteId":27,"StationName":"Nhà thờ Bình Thái","pathPoints":"106.64701080,10.73532009 106.64700317,10.73538971 106.64986420,10.73703957 106.64990997,10.73702908","Address":"1785, đường Phạm Thế Hiển, Quận 8","Lat":10.737029,"Lng":106.649909},{"StationId":1430,"StationOrder":14,"StationDirection":0,"RouteId":27,"StationName":"Chợ Lò Than","pathPoints":"106.64990997,10.73702908 106.65180969,10.73824120 106.65361786,10.73923779","Address":"1537, đường Phạm Thế Hiển, Quận 8","Lat":10.739238,"Lng":106.653616},{"StationId":1427,"StationOrder":15,"StationDirection":0,"RouteId":27,"StationName":"Cầu Hiệp Ân","pathPoints":"106.65403748,10.73966980 106.65454865,10.73997021 106.65473175,10.74005032 106.65482330,10.74038982 106.65490723,10.74059963 106.65498352,10.74065971 106.65554810,10.74092960 106.65621948,10.74120998 106.65634918,10.74123001 106.65667725,10.74114037 106.65695953,10.74104977 106.65718079,10.74106026 106.65750885,10.74112988 106.65930939,10.74149990","Address":"1219, đường Phạm Thế Hiển, Quận 8","Lat":10.741409,"Lng":106.659254},{"StationId":1429,"StationOrder":16,"StationDirection":0,"RouteId":27,"StationName":"Công an Quận 8","pathPoints":"106.65925598,10.74140930 106.66733551,10.74286938","Address":"987-989, đường Phạm Thế Hiển, Quận 8","Lat":10.742869,"Lng":106.667333},{"StationId":1434,"StationOrder":17,"StationDirection":0,"RouteId":27,"StationName":"Chợ Phạm Thế Hiển","pathPoints":"106.66829681,10.74308968 106.66898346,10.74320984 106.66992188,10.74339008 106.67070007,10.74351978 106.67196655,10.74376011","Address":"907, đường Phạm Thế Hiển, Quận 8","Lat":10.743744,"Lng":106.672391},{"StationId":1431,"StationOrder":18,"StationDirection":0,"RouteId":27,"StationName":"Cao Lỗ","pathPoints":"106.67239380,10.74374390 106.67240906,10.74379158 106.67382050,10.74418163 106.67492676,10.74463463 106.67497253,10.74459839","Address":"Đối diện 714, đường Phạm Thế Hiển, Quận 8","Lat":10.744598,"Lng":106.674972},{"StationId":1433,"StationOrder":19,"StationDirection":0,"RouteId":27,"StationName":"Ngân hàng Sacombank","pathPoints":"106.67497253,10.74459839 106.67559052,10.74495983 106.67646027,10.74540043 106.67705536,10.74558258","Address":"657-659, đường Phạm Thế Hiển, Quận 8","Lat":10.745583,"Lng":106.677053},{"StationId":1435,"StationOrder":20,"StationDirection":0,"RouteId":27,"StationName":"Cầu Mật","pathPoints":"106.67705536,10.74558258 106.67722321,10.74578953 106.67899323,10.74667931","Address":"509-511, đường Phạm Thế Hiển, Quận 8","Lat":10.746679,"Lng":106.67899},{"StationId":1438,"StationOrder":21,"StationDirection":0,"RouteId":27,"StationName":"Công viên Phường 2","pathPoints":"106.67899323,10.74667931 106.67955780,10.74707985 106.68154144,10.74816036 106.68263245,10.74878025 106.68353271,10.74910355","Address":"231-233, đường Phạm Thế Hiển, Quận 8","Lat":10.749104,"Lng":106.683533},{"StationId":1436,"StationOrder":22,"StationDirection":0,"RouteId":27,"StationName":"Cầu Nguyễn Văn Cừ","pathPoints":"106.68353271,10.74910355 106.68382263,10.74938965 106.68433380,10.74965000 106.68550110,10.75014210 106.68634033,10.75045300 106.68659973,10.75046921","Address":"109-111, đường Phạm Thế Hiển, Quận 8","Lat":10.750469,"Lng":106.686602},{"StationId":1437,"StationOrder":23,"StationDirection":0,"RouteId":27,"StationName":"Cầu Rạch Ông","pathPoints":"106.68659973,10.75046921 106.68679810,10.75061035 106.68733215,10.75076962 106.68771362,10.75080967 106.68816376,10.75067043 106.68824768,10.75063038 106.68833923,10.75061989 106.68865204,10.75063705 106.69090271,10.75109005 106.69196320,10.75118542 106.69225311,10.75129128 106.69261932,10.75129128","Address":"1013, đường Trần Xuân Soạn, Quận 7","Lat":10.751291,"Lng":106.692621},{"StationId":1439,"StationOrder":24,"StationDirection":0,"RouteId":27,"StationName":"Bệnh viện Tân Hưng","pathPoints":"106.69261932,10.75129128 106.69396210,10.75162029 106.69443512,10.75166512 106.69483948,10.75164413","Address":"909 (sang 911), đường Trần Xuân Soạn, Quận 7","Lat":10.751644,"Lng":106.694836},{"StationId":1441,"StationOrder":25,"StationDirection":0,"RouteId":27,"StationName":"chùa Kiều Đàm","pathPoints":"106.69515228,10.75172043 106.69743347,10.75174046","Address":"807, đường Trần Xuân Soạn, Quận 7","Lat":10.751655,"Lng":106.698344},{"StationId":1440,"StationOrder":26,"StationDirection":0,"RouteId":27,"StationName":"Ủy ban Phường Tân Hưng","pathPoints":"106.69834137,10.75165462 106.69906616,10.75171280 106.70072174,10.75177002 106.70171356,10.75169086","Address":"725-727, đường Trần Xuân Soạn, Quận 7","Lat":10.751691,"Lng":106.701713},{"StationId":1447,"StationOrder":27,"StationDirection":0,"RouteId":27,"StationName":"Ngã 3 Tân Quy","pathPoints":"106.70171356,10.75169086 106.70213318,10.75176048 106.70315552,10.75177574 106.70388794,10.75179672 106.70455170,10.75172615","Address":"603-601, đường Trần Xuân Soạn, Quận 7","Lat":10.751726,"Lng":106.704552},{"StationId":1442,"StationOrder":28,"StationDirection":0,"RouteId":27,"StationName":"Ngã 3 Tân Quy","pathPoints":"106.70455170,10.75172615 106.70492554,10.75178623 106.70502472,10.75173378 106.70503998,10.75152302 106.70501709,10.75133324","Address":"38, đường Lê Văn Lương, Quận 7","Lat":10.751333,"Lng":106.705018},{"StationId":1448,"StationOrder":29,"StationDirection":0,"RouteId":27,"StationName":"Phan Huy Thực","pathPoints":"106.70501709,10.75133324 106.70514679,10.75102234 106.70513916,10.75073242 106.70506287,10.75016308 106.70500946,10.74988937 106.70492554,10.74961472 106.70487976,10.74928856 106.70482635,10.74896145","Address":"148, đường Lê Văn Lương, Quận 7","Lat":10.748961,"Lng":106.704825},{"StationId":1443,"StationOrder":30,"StationDirection":0,"RouteId":27,"StationName":"Quận Đoàn 7","pathPoints":"106.70482635,10.74896145 106.70479584,10.74864292 106.70442200,10.74606800","Address":"192, đường Lê Văn Lương, Quận 7","Lat":10.746068,"Lng":106.704422},{"StationId":1346,"StationOrder":31,"StationDirection":0,"RouteId":27,"StationName":"Đường số 15","pathPoints":"106.70434570,10.74554539 106.70421600,10.74457645","Address":"222, đường Lê Văn Lương, Quận 7","Lat":10.744576,"Lng":106.704216},{"StationId":1247,"StationOrder":32,"StationDirection":0,"RouteId":27,"StationName":"Siêu thị Lotte","pathPoints":"106.70427704,10.74456978 106.70401001,10.74250984 106.70355225,10.73993015 106.70098114,10.74038982 106.70108032,10.74098969","Address":"Siêu thị Lotte, đường Nguyễn Hữu Thọ, Quận 7","Lat":10.741214,"Lng":106.701193},{"StationId":1249,"StationOrder":33,"StationDirection":0,"RouteId":27,"StationName":"Ngã 3 Tân Quy","pathPoints":"106.70119476,10.74121380 106.70134735,10.74237347 106.70156860,10.74353790 106.70168304,10.74394417","Address":"458B, đường Nguyễn Hữu Thọ, Quận 7","Lat":10.744229,"Lng":106.701708},{"StationId":1251,"StationOrder":34,"StationDirection":0,"RouteId":27,"StationName":"Cầu Kinh Tẻ","pathPoints":"106.70168304,10.74394417 106.70194244,10.74558830 106.70226288,10.74683189","Address":"Đối diện 44/9, đường Nguyễn Hữu Thọ, Quận 7","Lat":10.746832,"Lng":106.702266},{"StationId":4424,"StationOrder":35,"StationDirection":0,"RouteId":27,"StationName":"Hồ Bơi Quận 4","pathPoints":"106.70226288,10.74683189 106.70224762,10.74761200 106.70246124,10.74910355 106.70242310,10.75022602 106.70233917,10.75137520 106.70201111,10.75498009 106.70181274,10.75534916 106.70083618,10.75660896 106.70070648,10.75686741","Address":"120-122, đường Khánh Hội, Quận 4","Lat":10.756867,"Lng":106.700705},{"StationId":1250,"StationOrder":36,"StationDirection":0,"RouteId":27,"StationName":"Chung cư Tân Vĩnh","pathPoints":"106.70070648,10.75686741 106.69989777,10.75788403 106.69931793,10.75872707","Address":"202-204, đường Khánh Hội, Quận 4","Lat":10.758727,"Lng":106.699315},{"StationId":1253,"StationOrder":37,"StationDirection":0,"RouteId":27,"StationName":"Hoàng Diệu","pathPoints":"106.69931793,10.75872707 106.69861603,10.75960159 106.69931793,10.76008224","Address":"303-305, đường Hoàng Diệu, Quận 4","Lat":10.760082,"Lng":106.699321},{"StationId":1379,"StationOrder":38,"StationDirection":0,"RouteId":27,"StationName":"Cầu Ông Lãnh","pathPoints":"106.69931793,10.76008224 106.70055389,10.76102543 106.69967651,10.76223660 106.69873810,10.76320171 106.69787598,10.76402855 106.69744110,10.76470852 106.69686127,10.76574135 106.69660950,10.76625347","Address":"82 - 84, đường Nguyễn Thái Học, Quận 1","Lat":10.766253,"Lng":106.696612},{"StationId":3080,"StationOrder":39,"StationDirection":0,"RouteId":27,"StationName":"Trần Hưng Đạo","pathPoints":"106.69660950,10.76625347 106.69647980,10.76621628 106.69528198,10.76831341 106.69533539,10.76843357","Address":"Đối diện số 179, đường Nguyễn Thái Học, Quận 1","Lat":10.768434,"Lng":106.695335},{"StationId":7274,"StationOrder":40,"StationDirection":0,"RouteId":27,"StationName":"Nguyễn Thị Nghĩa","pathPoints":"106.69529724,10.76843452 106.69420624,10.77020550 106.69350433,10.76992035","Address":"94-96, đường Lê Lai, Quận 1","Lat":10.769952,"Lng":106.693495},{"StationId":7275,"StationOrder":41,"StationDirection":0,"RouteId":27,"StationName":"Tôn Thất Tùng","pathPoints":"106.69349670,10.76995182 106.69351196,10.76987362 106.69049835,10.76869774 106.69046783,10.76876068","Address":"202-204, đường Lê Lai, Quận 1","Lat":10.768761,"Lng":106.690469},{"StationId":35,"StationOrder":42,"StationDirection":0,"RouteId":27,"StationName":"Bến xe buýt Sài Gòn","pathPoints":"106.69046783,10.76876068 106.69050598,10.76870823 106.68921661,10.76814461 106.68936157,10.76767635","Address":"BẾN XE BUÝT SÀI GÒN, đường Lê Lai, Quận 1","Lat":10.767676,"Lng":106.689362},{"StationId":35,"StationOrder":0,"StationDirection":1,"RouteId":27,"StationName":"Bến xe buýt Sài Gòn","pathPoints":"","Address":"BẾN XE BUÝT SÀI GÒN, đường Lê Lai, Quận 1","Lat":10.767676,"Lng":106.689362},{"StationId":7276,"StationOrder":1,"StationDirection":1,"RouteId":27,"StationName":"Tôn Thất Tùng","pathPoints":"106.68936157,10.76767635 106.68936157,10.76767635 106.68955994,10.76720715 106.69089508,10.76772308 106.69094086,10.76766968 106.69094086,10.76766968","Address":"277-279-275Y, đường Phạm Ngũ Lão, Quận 1","Lat":10.76767,"Lng":106.690941},{"StationId":7277,"StationOrder":2,"StationDirection":1,"RouteId":27,"StationName":"Nguyễn Thị Nghĩa","pathPoints":"106.69094086,10.76766968 106.69090271,10.76773357 106.69362640,10.76885128 106.69370270,10.76878834","Address":"187, đường Phạm Ngũ Lão, Quận 1","Lat":10.768788,"Lng":106.693699},{"StationId":1451,"StationOrder":3,"StationDirection":1,"RouteId":27,"StationName":"Trần Hưng Đạo","pathPoints":"106.69370270,10.76878834 106.69370270,10.76878834 106.69460297,10.76917267 106.69498444,10.76846123 106.69498444,10.76846123","Address":"197, đường Nguyễn Thái Học, Quận 1","Lat":10.768461,"Lng":106.694984},{"StationId":1344,"StationOrder":4,"StationDirection":1,"RouteId":27,"StationName":"Cầu Ông Lãnh","pathPoints":"106.69498444,10.76846123 106.69557953,10.76751804 106.69612885,10.76657581","Address":"65G, đường Nguyễn Thái Học, Quận 1","Lat":10.766785,"Lng":106.696011},{"StationId":1196,"StationOrder":5,"StationDirection":1,"RouteId":27,"StationName":"Hoàng Diệu","pathPoints":"106.69615936,10.76652241 106.69624329,10.76653194 106.69753265,10.76424503 106.69761658,10.76408195 106.69946289,10.76219463 106.69995117,10.76156235 106.70033264,10.76100349 106.69989014,10.76069832 106.69983673,10.76073456","Address":"K48-K50, đường Hoàng Diệu, Quận 4","Lat":10.760735,"Lng":106.699836},{"StationId":1194,"StationOrder":6,"StationDirection":1,"RouteId":27,"StationName":"Khánh Hội","pathPoints":"106.69983673,10.76073456 106.69984436,10.76067734 106.69852448,10.75967026 106.69902039,10.75889969 106.69897461,10.75886440","Address":"Đối diện 220, đường Khánh Hội, Quận 4","Lat":10.758864,"Lng":106.698972},{"StationId":1198,"StationOrder":7,"StationDirection":1,"RouteId":27,"StationName":"Hồ Bơi Quận 4","pathPoints":"106.69897461,10.75886440 106.69979858,10.75780487 106.70058441,10.75672531","Address":"149, đường Khánh Hội, Quận 4","Lat":10.756414,"Lng":106.700817},{"StationId":1197,"StationOrder":8,"StationDirection":1,"RouteId":27,"StationName":"Cầu Kinh Tẻ","pathPoints":"106.70058441,10.75672531 106.70181274,10.75519085 106.70233154,10.75015259 106.70219421,10.74845028","Address":"44/7, đường Nguyễn Hữu Thọ, Quận 7","Lat":10.747496,"Lng":106.70203},{"StationId":1201,"StationOrder":9,"StationDirection":1,"RouteId":27,"StationName":"Ngã 3 Tân Quy","pathPoints":"106.70202637,10.74749565 106.70202637,10.74749565 106.70211792,10.74747562 106.70156097,10.74418640 106.70146942,10.74413395 106.70146942,10.74413395","Address":"2, đường Nguyễn Hữu Thọ, Quận 7","Lat":10.744134,"Lng":106.701472},{"StationId":1199,"StationOrder":10,"StationDirection":1,"RouteId":27,"StationName":"Siêu thị Lotte","pathPoints":"106.70146942,10.74413395 106.70146942,10.74413395 106.70150757,10.74402809 106.70101166,10.74125576 106.70094299,10.74119759 106.70094299,10.74119759","Address":"Đối diện siêu thị Lotte, đường Nguyễn Hữu Thọ, Quận 7","Lat":10.741198,"Lng":106.700946},{"StationId":1444,"StationOrder":11,"StationDirection":1,"RouteId":27,"StationName":"Lotte Mart","pathPoints":"106.70098114,10.74083996 106.70089722,10.74040985 106.70088196,10.74030972 106.70095825,10.74030018 106.70149994,10.74020004","Address":"1, đường Nguyễn Thị Thập, Quận 7","Lat":10.740144,"Lng":106.701525},{"StationId":1380,"StationOrder":12,"StationDirection":1,"RouteId":27,"StationName":"Lotte Mark","pathPoints":"106.70149994,10.74020004 106.70353699,10.73985958 106.70355225,10.73993015 106.70361328,10.74022007","Address":"359, đường Lê Văn Lương, Quận 7","Lat":10.740208,"Lng":106.70369},{"StationId":1382,"StationOrder":13,"StationDirection":1,"RouteId":27,"StationName":"Đường số 15","pathPoints":"106.70368958,10.74020767 106.70431519,10.74416542","Address":"265, đường Lê Văn Lương, Quận 7","Lat":10.744471,"Lng":106.70432},{"StationId":1453,"StationOrder":14,"StationDirection":1,"RouteId":27,"StationName":"Quận Đoàn 7","pathPoints":"106.70432281,10.74447060 106.70452118,10.74595737","Address":"221, đường Lê Văn Lương, Quận 7","Lat":10.745957,"Lng":106.704519},{"StationId":1445,"StationOrder":15,"StationDirection":1,"RouteId":27,"StationName":"Phan Huy Thục","pathPoints":"106.70452118,10.74595737 106.70446777,10.74596786 106.70467377,10.74744987 106.70487976,10.74885082 106.70494080,10.74886131","Address":"179, đường Lê Văn Lương, Quận 7","Lat":10.748861,"Lng":106.704943},{"StationId":1454,"StationOrder":16,"StationDirection":1,"RouteId":27,"StationName":"Ngã 3 Tân Quy","pathPoints":"106.70494080,10.74886131 106.70488739,10.74884987 106.70494080,10.74934101 106.70502472,10.74982071 106.70515442,10.75054264 106.70516205,10.75080109 106.70507813,10.75146008 106.70512390,10.75146770","Address":"23-25, đường Lê Văn Lương, Quận 7","Lat":10.751468,"Lng":106.705124},{"StationId":1455,"StationOrder":17,"StationDirection":1,"RouteId":27,"StationName":"Ngã 3 Tân Quy","pathPoints":"106.70512390,10.75146770 106.70507813,10.75146008 106.70501709,10.75180721 106.70451355,10.75180244 106.70450592,10.75183868","Address":"Đối diện 263, đường Trần Xuân Soạn, Quận 7","Lat":10.751839,"Lng":106.704508},{"StationId":1446,"StationOrder":18,"StationDirection":1,"RouteId":27,"StationName":"Ủy ban Phường Tân Hưng","pathPoints":"106.70450592,10.75183868 106.70449066,10.75180244 106.70134735,10.75177002 106.70134735,10.75178623","Address":"Đối diện 733, đường Trần Xuân Soạn, Quận 7","Lat":10.751786,"Lng":106.701347},{"StationId":1456,"StationOrder":19,"StationDirection":1,"RouteId":27,"StationName":"chùa Kiều Đàm","pathPoints":"106.70134735,10.75178623 106.70134735,10.75177002 106.69799042,10.75172806 106.69799805,10.75177574","Address":"Đối diện 829, đường Trần Xuân Soạn, Quận 7","Lat":10.751776,"Lng":106.697998},{"StationId":1450,"StationOrder":20,"StationDirection":1,"RouteId":27,"StationName":"Bệnh viện Tân Hưng","pathPoints":"106.69799805,10.75177574 106.69799042,10.75174046 106.69451904,10.75170040 106.69451904,10.75173092","Address":"Đối diện 933, đường Trần Xuân Soạn, Quận 7","Lat":10.751731,"Lng":106.694519},{"StationId":1461,"StationOrder":21,"StationDirection":1,"RouteId":27,"StationName":"Cầu Rạch Ông","pathPoints":"106.69451904,10.75173092 106.69451904,10.75170040 106.69403839,10.75164986 106.69300842,10.75146484 106.69297028,10.75149632","Address":"Đối diện 999, đường Trần Xuân Soạn, Quận 7","Lat":10.751496,"Lng":106.692969},{"StationId":1452,"StationOrder":22,"StationDirection":1,"RouteId":27,"StationName":"Cầu Nguyễn Văn Cừ","pathPoints":"106.69297028,10.75149632 106.69297028,10.75149632 106.69294739,10.75144863 106.69109344,10.75109100 106.68919373,10.75076962 106.68818665,10.75062180 106.68771362,10.75084305 106.68728638,10.75078487 106.68724060,10.75085926 106.68724060,10.75085926","Address":"122, đường Phạm Thế Hiển, Quận 8","Lat":10.750859,"Lng":106.68724},{"StationId":1449,"StationOrder":23,"StationDirection":1,"RouteId":27,"StationName":"Cầu Chữ Y","pathPoints":"106.68724060,10.75085926 106.68718719,10.75075340 106.68621826,10.75046349 106.68547821,10.75018978 106.68484497,10.74994183 106.68476868,10.74993134","Address":"124, đường Phạm Thế Hiển, Quận 8","Lat":10.749931,"Lng":106.684767},{"StationId":1463,"StationOrder":24,"StationDirection":1,"RouteId":27,"StationName":"Âu Dương Lân","pathPoints":"106.68476868,10.74993134 106.68474579,10.74987888 106.68378448,10.74938297 106.68098450,10.74788094 106.68093872,10.74796009","Address":"410, đường Phạm Thế Hiển, Quận 8","Lat":10.74796,"Lng":106.680937},{"StationId":1457,"StationOrder":25,"StationDirection":1,"RouteId":27,"StationName":"Cầu Mật","pathPoints":"106.68093872,10.74796009 106.68096161,10.74787617 106.67895508,10.74675846 106.67884827,10.74682236","Address":"486, đường Phạm Thế Hiển, Quận 8","Lat":10.746822,"Lng":106.67885},{"StationId":1458,"StationOrder":26,"StationDirection":1,"RouteId":27,"StationName":"Ngân hàng Sacombank","pathPoints":"106.67884827,10.74682236 106.67884827,10.74682236 106.67891693,10.74675846 106.67701721,10.74569893 106.67692566,10.74575710 106.67692566,10.74575710","Address":"600A, đường Phạm Thế Hiển, Quận 8","Lat":10.745757,"Lng":106.676924},{"StationId":1464,"StationOrder":27,"StationDirection":1,"RouteId":27,"StationName":"Cao Lỗ","pathPoints":"106.67692566,10.74575710 106.67692566,10.74575710 106.67697906,10.74568844 106.67582703,10.74506664 106.67411041,10.74433899 106.67299652,10.74400234 106.67292023,10.74408054 106.67292023,10.74408054","Address":"1A LÔ 8, đường Phạm Thế Hiển, Quận 8","Lat":10.744081,"Lng":106.672922},{"StationId":1466,"StationOrder":28,"StationDirection":1,"RouteId":27,"StationName":"Chợ Phạm Thế Hiển","pathPoints":"106.67292023,10.74408054 106.67292023,10.74408054 106.67294312,10.74398994 106.67154694,10.74367523 106.67012024,10.74342728 106.67004395,10.74350071 106.67004395,10.74350071","Address":"1BLô27, đường Phạm Thế Hiển, Quận 8","Lat":10.743501,"Lng":106.670047},{"StationId":1468,"StationOrder":29,"StationDirection":1,"RouteId":27,"StationName":"Công an Quận 8","pathPoints":"106.67004395,10.74350071 106.67004395,10.74350071 106.67002106,10.74340630 106.66723633,10.74291611 106.66716003,10.74302673 106.66716003,10.74302673","Address":"1092, đường Phạm Thế Hiển, Quận 8","Lat":10.743027,"Lng":106.667161},{"StationId":1459,"StationOrder":30,"StationDirection":1,"RouteId":27,"StationName":"Quận ủy Quận 8","pathPoints":"106.66716003,10.74302673 106.66546631,10.74270058 106.66415405,10.74242592 106.66316223,10.74221039 106.66298676,10.74225235","Address":"1228, đường Phạm Thế Hiển, Quận 8","Lat":10.742252,"Lng":106.662987},{"StationId":1460,"StationOrder":31,"StationDirection":1,"RouteId":27,"StationName":"Cầu Nhị Thiên Đường","pathPoints":"106.66298676,10.74225235 106.66299438,10.74218941 106.66114807,10.74190998 106.65918732,10.74147224 106.65917206,10.74156189","Address":"1436, đường Phạm Thế Hiển, Quận 8","Lat":10.741562,"Lng":106.659173},{"StationId":1462,"StationOrder":32,"StationDirection":1,"RouteId":27,"StationName":"Chợ Lò Than","pathPoints":"106.65924072,10.74147987 106.65724945,10.74106979 106.65705109,10.74104977 106.65682983,10.74108028 106.65647125,10.74120998 106.65634918,10.74123001 106.65622711,10.74122047 106.65573120,10.74102020 106.65498352,10.74065971 106.65490723,10.74059963 106.65487671,10.74053001 106.65476227,10.74020958 106.65473175,10.74005032 106.65454865,10.73997021 106.65415955,10.73974037","Address":"1650, đường Phạm Thế Hiển, Quận 8","Lat":10.739433,"Lng":106.653482},{"StationId":1465,"StationOrder":33,"StationDirection":1,"RouteId":27,"StationName":"Nhà thờ Bình Thái","pathPoints":"106.65348053,10.73943329 106.65319061,10.73917007 106.65115356,10.73791027 106.64979553,10.73713970","Address":"1808, đường Phạm Thế Hiển, Quận 8","Lat":10.73714,"Lng":106.649796},{"StationId":1467,"StationOrder":34,"StationDirection":1,"RouteId":27,"StationName":"Chợ Mười Giờ","pathPoints":"106.64979553,10.73713970 106.64979553,10.73713970 106.64981079,10.73708725 106.64669800,10.73523712 106.64662933,10.73524761 106.64662933,10.73524761","Address":"1978-1980, đường Phạm Thế Hiển, Quận 8","Lat":10.735248,"Lng":106.646631},{"StationId":1469,"StationOrder":35,"StationDirection":1,"RouteId":27,"StationName":"Nhà thờ Bình An","pathPoints":"106.64662933,10.73524761 106.64662933,10.73517036 106.64497375,10.73414993 106.64373779,10.73353004","Address":"2258, đường Phạm Thế Hiển, Quận 8","Lat":10.73353,"Lng":106.643735},{"StationId":1470,"StationOrder":36,"StationDirection":1,"RouteId":27,"StationName":"Cầu Bà Tàng","pathPoints":"106.64373779,10.73353004 106.64361572,10.73344517 106.64177704,10.73227024 106.64109802,10.73173237 106.63984680,10.73056793 106.63977051,10.73060989","Address":"2482, đường Phạm Thế Hiển, Quận 8","Lat":10.73061,"Lng":106.63977},{"StationId":1472,"StationOrder":37,"StationDirection":1,"RouteId":27,"StationName":"Tòa thánh Cao đài Huỳnh Quang Sắt","pathPoints":"106.63977051,10.73060989 106.63983154,10.73060036 106.63903809,10.72975636 106.63843536,10.72886562 106.63838196,10.72888565","Address":"2532A, đường Phạm Thế Hiển, Quận 8","Lat":10.728886,"Lng":106.638381},{"StationId":1471,"StationOrder":38,"StationDirection":1,"RouteId":27,"StationName":"Trường Bình An","pathPoints":"106.63838196,10.72888565 106.63840485,10.72880173 106.63733673,10.72698879 106.63632202,10.72492790 106.63613892,10.72457027 106.63607025,10.72450066","Address":"2618, đường Phạm Thế Hiển, Quận 8","Lat":10.724501,"Lng":106.636069},{"StationId":1473,"StationOrder":39,"StationDirection":1,"RouteId":27,"StationName":"Chợ Phú Lợi","pathPoints":"106.63607025,10.72450066 106.63607025,10.72450066 106.63610077,10.72444820 106.63540649,10.72294140 106.63527679,10.72295094 106.63527679,10.72295094","Address":"2678A, đường Phạm Thế Hiển, Quận 8","Lat":10.722951,"Lng":106.635275},{"StationId":1474,"StationOrder":40,"StationDirection":1,"RouteId":27,"StationName":"Bến Đò Hội Đồng","pathPoints":"106.63527679,10.72295094 106.63527679,10.72295094 106.63531494,10.72280884 106.63395691,10.71998978 106.63385010,10.71997261 106.63385010,10.71997261","Address":"2756, đường Phạm Thế Hiển, Quận 8","Lat":10.719973,"Lng":106.633848},{"StationId":1477,"StationOrder":41,"StationDirection":1,"RouteId":27,"StationName":"Bến Đò Rạch Cát","pathPoints":"106.63385010,10.71997261 106.63385010,10.71997261 106.63390350,10.71986771 106.63198853,10.71603107 106.63179779,10.71598339 106.63179779,10.71598339","Address":"2842, đường Phạm Thế Hiển, Quận 8","Lat":10.715983,"Lng":106.631799},{"StationId":1475,"StationOrder":42,"StationDirection":1,"RouteId":27,"StationName":"Thánh Đường Bình Thuận","pathPoints":"106.63179779,10.71598339 106.63181305,10.71591473 106.63101959,10.71490860 106.63012695,10.71394348 106.63003540,10.71392822","Address":"2902A, đường Phạm Thế Hiển, Quận 8","Lat":10.713928,"Lng":106.630035},{"StationId":1476,"StationOrder":43,"StationDirection":1,"RouteId":27,"StationName":"Trường Nguyễn Trung Ngạn","pathPoints":"106.63003540,10.71392822 106.63004303,10.71391964 106.63000488,10.71384335 106.62903595,10.71297359 106.62861633,10.71268368 106.62824249,10.71236038 106.62792969,10.71209908 106.62757874,10.71194077 106.62747955,10.71193981 106.62747955,10.71194363","Address":"2968-2970, đường Phạm Thế Hiển, Quận 8","Lat":10.711944,"Lng":106.62748},{"StationId":1480,"StationOrder":44,"StationDirection":1,"RouteId":27,"StationName":"Giáo xứ Bình Sơn","pathPoints":"106.62747955,10.71194363 106.62747955,10.71193981 106.62746429,10.71188259 106.62489319,10.71051788 106.62480927,10.71058559","Address":"3022, đường Phạm Thế Hiển, Quận 8","Lat":10.710586,"Lng":106.624809},{"StationId":1417,"StationOrder":45,"StationDirection":1,"RouteId":27,"StationName":"Ba Tơ","pathPoints":"106.62480927,10.71058559 106.62480927,10.71058559 106.62463379,10.71043301 106.62423706,10.71020985 106.62384796,10.70903111 106.62327576,10.70723343 106.62253571,10.70564175 106.62210846,10.70582104 106.62177277,10.70493507 106.62206268,10.70478821 106.62157440,10.70364952 106.62200928,10.70253181 106.62148285,10.70151424 106.62080383,10.70202065","Address":"ĐẦU BẾN NGÃ 3 BA TƠ, đường Phạm Thế Hiển, Quận 8","Lat":10.702021,"Lng":106.620802}]